[{"name": "Mantis religiosa","nameDeutsch": "Europäische Gottesanbeterin","ordnung": "Fangschrecken","familie": "Mantidae","urlWikipedia": "https://de.wikipedia.org/wiki/Europ%C3%A4ische_Gottesanbeterin","urlInsektenSachsen": "https://www.insekten-sachsen.de/Pages/TaxonomyBrowser.aspx?Id=337214","beobachtungen": [{"datum": "2017-01-04","fundort": "Musterstadt","anzahl": 1,"stadium": "Alttier/Imago","lon": 15.027980243451523,"pruefung": "iNaturalist","beobachter": "Maria Muster","lat": 44.56214009916528}]},{"name": "Lepisma saccharina","nameDeutsch": "Silberfischchen","ordnung": "Fischchen","familie": "Lepismatidae","urlWikipedia": "https://de.wikipedia.org/wiki/Silberfischchen","urlInsektenSachsen": "https://www.insekten-sachsen.de/Pages/TaxonomyBrowser.aspx?Id=91644","beobachtungen": [{"datum": "2017-03-16","fundort": "Musterstadt","anzahl": 1,"stadium": "Alttier/Imago","lon": 13.963869866727546,"pruefung": "Insekten Sachsen","beobachter": "Maria Muster","lat": 51.187317847201136}]},{"name": "Bombus pascuorum","nameDeutsch": "Ackerhummel","ordnung": "Hautflügler","familie": "Echte Bienen","urlWikipedia": "https://de.wikipedia.org/wiki/Ackerhummel","urlInsektenSachsen": "https://www.insekten-sachsen.de/Pages/TaxonomyBrowser.aspx?Id=231899","beobachtungen": [{"datum": "2016-05-17","fundort": "Musterstadt","anzahl": 1,"stadium": "Alttier/Imago","lon": 13.96341862649137,"pruefung": "Insekten Sachsen","beobachter": "Maria Muster","lat": 51.190663692418546},{"datum": "2019-02-18","fundort": "Musterstadt","anzahl": 1,"stadium": "Alttier/Imago","lon": 13.944935472858164,"pruefung": "Insekten Sachsen","beobachter": "Maria Muster","lat": 51.18139422105303}]},{"name": "Anthophora plumipes","nameDeutsch": "Frühlings-Pelzbiene","ordnung": "Hautflügler","familie": "Echte Bienen","urlWikipedia": "https://de.wikipedia.org/wiki/Gemeine_Pelzbiene","urlInsektenSachsen": "https://www.insekten-sachsen.de/Pages/TaxonomyBrowser.aspx?Id=231817","beobachtungen": [{"datum": "2011-04-16","fundort": "Musterstadt","anzahl": 1,"stadium": "Alttier/Imago","lon": 13.969711619842105,"pruefung": "Insekten Sachsen","beobachter": "Maria Muster","lat": 51.18665620526816}]},{"name": "Xylocopa violacea","nameDeutsch": "Große Holzbiene","ordnung": "Hautflügler","familie": "Echte Bienen","urlWikipedia": "https://de.wikipedia.org/wiki/Gro%C3%9Fe_Holzbiene","urlInsektenSachsen": "https://www.insekten-sachsen.de/Pages/TaxonomyBrowser.aspx?Id=233530","beobachtungen": [{"datum": "2014-02-28","fundort": "Musterstadt","anzahl": 1,"stadium": "Alttier/Imago","lon": 13.670473568617926,"pruefung": "Insekten Sachsen","beobachter": "Maria Muster","lat": 51.08571738166028}]},{"name": "Vespa crabro","nameDeutsch": "Hornisse","ordnung": "Hautflügler","familie": "Faltenwespen","urlWikipedia": "https://de.wikipedia.org/wiki/Hornisse","urlInsektenSachsen": "https://www.insekten-sachsen.de/Pages/TaxonomyBrowser.aspx?Id=167816","beobachtungen": [{"datum": "2017-12-03","fundort": "Musterstadt","anzahl": 1,"stadium": "Alttier/Imago","lon": 13.951772920876813,"pruefung": "Insekten Sachsen","beobachter": "Maria Muster","lat": 51.17884865305105},{"datum": "2010-07-20","fundort": "Musterstadt","anzahl": 1,"stadium": "Alttier/Imago","lon": 13.74305296341773,"pruefung": "Insekten Sachsen","beobachter": "Maria Muster","lat": 51.04343524658169},{"datum": "2014-09-11","fundort": "Musterstadt","anzahl": 3,"stadium": "Alttier/Imago","lon": 13.993496066776483,"pruefung": "Insekten Sachsen","beobachter": "Max Mustermann","lat": 51.15985117609067}]},{"name": "Megascolia bidens","nameDeutsch": "Megascolia bidens","ordnung": "Hautflügler","familie": "Dolchwespen","urlWikipedia": "https://pt.wikipedia.org/wiki/Megascolia_bidens","beobachtungen": [{"datum": "2018-11-21","fundort": "Musterstadt","anzahl": 1,"stadium": "Alttier/Imago","lon": 3.37340746888485,"pruefung": "iNaturalist","beobachter": "Maria Muster","lat": 39.59439739817704}]},{"name": "Anacridium aegyptium","nameDeutsch": "Ägyptische Wanderheuschrecke","ordnung": "Heuschrecken","familie": "Feldheuschrecken","urlWikipedia": "https://de.wikipedia.org/wiki/%C3%84gyptische_Wanderheuschrecke","urlSonstige": "http://www.orthoptera.ch/arten/item/anacridium-aegyptium","beobachtungen": [{"datum": "2011-09-18","fundort": "Musterstadt","anzahl": 1,"stadium": "Alttier/Imago","lon": 3.3781192007438734,"pruefung": "iNaturalist","beobachter": "Maria Muster","lat": 39.601015308259115}]},{"name": "Gryllus campestris","nameDeutsch": "Feldgrille","ordnung": "Heuschrecken","familie": "Echte Grillen","urlWikipedia": "https://de.wikipedia.org/wiki/Feldgrille","urlInsektenSachsen": "https://www.insekten-sachsen.de/Pages/TaxonomyBrowser.aspx?Id=402997","urlSonstige": "http://www.orthoptera.ch/arten/item/gryllus-gryllus-campestris","beobachtungen": [{"datum": "2017-02-14","fundort": "Musterstadt","anzahl": 1,"stadium": "Alttier/Imago","lon": 13.59345605501344,"pruefung": "Insekten Sachsen","beobachter": "Maria Muster","lat": 51.11788888111033}]},{"name": "Pholidoptera griseoaptera","nameDeutsch": "Gewöhnliche Strauchschrecke","ordnung": "Heuschrecken","familie": "Tettigoniidae","urlWikipedia": "https://de.wikipedia.org/wiki/Gemeine_Strauchschrecke","urlInsektenSachsen": "https://www.insekten-sachsen.de/Pages/TaxonomyBrowser.aspx?Id=403541","urlSonstige": "http://www.orthoptera.ch/arten/item/pholidoptera-griseoaptera","beobachtungen": [{"datum": "2018-01-25","fundort": "Musterstadt","anzahl": 1,"stadium": "Alttier/Imago","lon": 13.966920364651251,"pruefung": "Insekten Sachsen","beobachter": "Maria Muster","lat": 51.19215243307401}]},{"name": "Tettigonia viridissima","nameDeutsch": "Grünes Heupferd","ordnung": "Heuschrecken","familie": "Tettigoniidae","urlWikipedia": "https://de.wikipedia.org/wiki/Gr%C3%BCnes_Heupferd","urlInsektenSachsen": "https://www.insekten-sachsen.de/Pages/TaxonomyBrowser.aspx?Id=403652","urlSonstige": "http://www.orthoptera.ch/arten/item/tettigonia-viridissima","beobachtungen": [{"datum": "2015-07-19","fundort": "Musterstadt","anzahl": 1,"stadium": "Alttier/Imago","lon": 13.965670198527672,"pruefung": "Insekten Sachsen","beobachter": "Maria Muster","lat": 51.17720757081836},{"datum": "2010-09-21","fundort": "Musterstadt","anzahl": 1,"stadium": "Alttier/Imago","lon": 13.705368980291006,"pruefung": "Insekten Sachsen","beobachter": "Max Mustermann","lat": 51.06944259184308}]},{"name": "Leptophyes punctatissima","nameDeutsch": "Punktierte Zartschrecke","ordnung": "Heuschrecken","familie": "Laubheuschrecken","urlWikipedia": "https://de.wikipedia.org/wiki/Punktierte_Zartschrecke","urlInsektenSachsen": "https://www.insekten-sachsen.de/Pages/TaxonomyBrowser.aspx?Id=403278","urlSonstige": "http://www.orthoptera.ch/arten/item/leptophyes-punctatissima","beobachtungen": [{"datum": "2013-10-05","fundort": "Musterstadt","anzahl": 1,"stadium": "Alttier/Imago","lon": 13.97032558523966,"pruefung": "Insekten Sachsen","beobachter": "Maria Muster","lat": 51.194262010400436},{"datum": "2016-09-11","fundort": "Musterstadt","anzahl": 1,"stadium": "Alttier/Imago","lon": 13.712503798603443,"pruefung": "Insekten Sachsen","beobachter": "Max Mustermann","lat": 51.07072152927643},{"datum": "2011-09-27","fundort": "Musterstadt","anzahl": 1,"stadium": "Alttier/Imago","lon": 13.670231289013268,"pruefung": "Insekten Sachsen","beobachter": "Maria Muster","lat": 51.09106504601156}]},{"name": "Meconema meridionale","nameDeutsch": "Südliche Eichenschrecke","ordnung": "Heuschrecken","familie": "Tettigoniidae","urlWikipedia": "https://de.wikipedia.org/wiki/S%C3%BCdliche_Eichenschrecke","urlInsektenSachsen": "https://www.insekten-sachsen.de/Pages/TaxonomyBrowser.aspx?Id=403196","urlSonstige": "http://www.orthoptera.ch/arten/item/meconema-meridionale","beobachtungen": [{"datum": "2015-01-09","fundort": "Musterstadt","anzahl": 1,"stadium": "Alttier/Imago","lon": 13.696663126994073,"pruefung": "Insekten Sachsen","beobachter": "Maria Muster","lat": 51.08599822611336},{"datum": "2015-07-26","fundort": "Musterstadt","anzahl": 2,"stadium": "Alttier/Imago","lon": 13.697587456563811,"pruefung": "Insekten Sachsen","beobachter": "Maria Muster","lat": 51.08800795766122},{"datum": "2013-06-27","fundort": "Musterstadt","anzahl": 2,"stadium": "Alttier/Imago","lon": 13.987151314495748,"pruefung": "Insekten Sachsen","beobachter": "Max Mustermann","lat": 51.15673161429288}]},{"name": "Stethophyma grossum","nameDeutsch": "Sumpfschrecke","ordnung": "Heuschrecken","familie": "Feldheuschrecken","urlWikipedia": "https://de.wikipedia.org/wiki/Sumpfschrecke","urlInsektenSachsen": "https://www.insekten-sachsen.de/Pages/TaxonomyBrowser.aspx?Id=402319","urlSonstige": "http://www.orthoptera.ch/arten/item/stethophyma-grossum","beobachtungen": [{"datum": "2011-07-19","fundort": "Musterstadt","anzahl": 1,"stadium": "Alttier/Imago","lon": 13.959307165789504,"pruefung": "Insekten Sachsen","beobachter": "Maria Muster","lat": 51.1773903422302}]},{"name": "Nemobius sylvestris","nameDeutsch": "Waldgrille","ordnung": "Heuschrecken","familie": "Echte Grillen","urlWikipedia": "https://de.wikipedia.org/wiki/Waldgrille","urlInsektenSachsen": "https://www.insekten-sachsen.de/Pages/TaxonomyBrowser.aspx?Id=402930","urlSonstige": "http://www.orthoptera.ch/arten/item/nemobius-sylvestris","beobachtungen": [{"datum": "2019-09-29","fundort": "Musterstadt","anzahl": 1,"stadium": "Alttier/Imago","lon": 13.677771475427317,"pruefung": "Insekten Sachsen","beobachter": "Maria Muster","lat": 51.111553894193875}]},{"name": "Harmonia axyridis","nameDeutsch": "Asiatischer Marienkäfer","ordnung": "Käfer","familie": "Marienkäfer","urlWikipedia": "https://de.wikipedia.org/wiki/Asiatischer_Marienk%C3%A4fer","urlInsektenSachsen": "https://www.insekten-sachsen.de/Pages/TaxonomyBrowser.aspx?Id=3000001","beobachtungen": [{"datum": "2015-05-05","fundort": "Musterstadt","anzahl": 6,"stadium": "Larve","lon": 13.97203578506513,"pruefung": "Insekten Sachsen","beobachter": "Maria Muster","lat": 51.18461744585954},{"datum": "2012-10-11","fundort": "Musterstadt","anzahl": 1,"stadium": "Alttier/Imago","lon": 13.978053042101592,"pruefung": "Insekten Sachsen","beobachter": "Max Mustermann","lat": 51.17467994498721},{"datum": "2010-11-15","fundort": "Musterstadt","anzahl": 6,"stadium": "Alttier/Imago","lon": 13.95664746223205,"pruefung": "Insekten Sachsen","beobachter": "Maria Muster","lat": 51.18815485641679},{"datum": "2016-10-18","fundort": "Musterstadt","anzahl": 21,"stadium": "Alttier/Imago","lon": 13.688771287207235,"pruefung": "Insekten Sachsen","beobachter": "Maria Muster","lat": 51.097488333782955}]},{"name": "Callidium violaceum","nameDeutsch": "Blauvioletter Scheibenbock","ordnung": "Käfer","familie": "Bockkäfer","urlWikipedia": "https://de.wikipedia.org/wiki/Blauvioletter_Scheibenbock","urlInsektenSachsen": "https://www.insekten-sachsen.de/Pages/TaxonomyBrowser.aspx?Id=114570","beobachtungen": [{"datum": "2014-11-27","fundort": "Musterstadt","anzahl": 1,"stadium": "Alttier/Imago","lon": 13.938541005653539,"pruefung": "Insekten Sachsen","beobachter": "Maria Muster","lat": 51.18562702348399}]},{"name": "Clytus arietis","nameDeutsch": "Buchen-Widderbock","ordnung": "Käfer","familie": "Bockkäfer","urlWikipedia": "https://de.wikipedia.org/wiki/Echter_Widderbock","urlInsektenSachsen": "https://www.insekten-sachsen.de/Pages/TaxonomyBrowser.aspx?Id=114513","beobachtungen": [{"datum": "2016-10-03","fundort": "Musterstadt","anzahl": 1,"stadium": "Alttier/Imago","lon": 14.028314237770138,"pruefung": "Insekten Sachsen","beobachter": "Maria Muster","lat": 51.22069968723322}]},{"name": "Buprestis cupressi","nameDeutsch": "Buprestis cupressi","ordnung": "Käfer","familie": "Prachtkäfer","urlWikipedia": "https://en.wikipedia.org/wiki/Buprestis","beobachtungen": [{"datum": "2019-06-26","fundort": "Musterstadt","anzahl": 1,"stadium": "Alttier/Imago","lon": 15.00985138282455,"pruefung": "iNaturalist","beobachter": "Maria Muster","lat": 44.56134927544812}]},{"name": "Pogonocherus hispidus","nameDeutsch": "Dorniger Wimperbock","ordnung": "Käfer","familie": "Bockkäfer","urlWikipedia": "https://de.wikipedia.org/wiki/Dorniger_Wimperbock","urlInsektenSachsen": "https://www.insekten-sachsen.de/Pages/TaxonomyBrowser.aspx?Id=114053","beobachtungen": [{"datum": "2019-08-29","fundort": "Musterstadt","anzahl": 1,"stadium": "Alttier/Imago","lon": 13.946316088268292,"pruefung": "Insekten Sachsen","beobachter": "Maria Muster","lat": 51.194099454313786}]},{"name": "Osmoderma eremita","nameDeutsch": "Eremit","ordnung": "Käfer","familie": "Blatthornkäfer","urlWikipedia": "https://de.wikipedia.org/wiki/Eremit_(K%C3%A4fer)","urlInsektenSachsen": "https://www.insekten-sachsen.de/Pages/TaxonomyBrowser.aspx?Id=246970","beobachtungen": [{"datum": "2012-12-31","fundort": "Musterstadt","anzahl": 1,"stadium": "Alttier/Imago","lon": 13.866903796146286,"pruefung": "Insekten Sachsen","beobachter": "Maria Muster","lat": 50.96888053198433}]},{"name": "Phyllopertha horticola","nameDeutsch": "Gartenlaubkäfer","ordnung": "Käfer","familie": "Blatthornkäfer","urlWikipedia": "https://de.wikipedia.org/wiki/Gartenlaubk%C3%A4fer","urlInsektenSachsen": "https://www.insekten-sachsen.de/Pages/TaxonomyBrowser.aspx?Id=247224","beobachtungen": [{"datum": "2016-07-02","fundort": "Musterstadt","anzahl": 1,"stadium": "Alttier/Imago","lon": 13.95175918330531,"pruefung": "Insekten Sachsen","beobachter": "Maria Muster","lat": 51.1897349715664},{"datum": "2016-11-20","fundort": "Musterstadt","anzahl": 1,"stadium": "Alttier/Imago","lon": 14.04655108677529,"pruefung": "Insekten Sachsen","beobachter": "Maria Muster","lat": 51.21225064125706},{"datum": "2019-09-08","fundort": "Musterstadt","anzahl": 1,"stadium": "Alttier/Imago","lon": 13.953395934002964,"pruefung": "Insekten Sachsen","beobachter": "Maria Muster","lat": 51.18026964730606}]},{"name": "Chrysomela vigintipunctata","nameDeutsch": "Gefleckter Weidenblattkäfer","ordnung": "Käfer","familie": "Blattkäfer","urlWikipedia": "https://de.wikipedia.org/wiki/Gefleckter_Weidenblattk%C3%A4fer","urlInsektenSachsen": "https://www.insekten-sachsen.de/Pages/TaxonomyBrowser.aspx?Id=241659","beobachtungen": [{"datum": "2010-05-26","fundort": "Musterstadt","anzahl": 1,"stadium": "Alttier/Imago","lon": 13.952095480735288,"pruefung": "Insekten Sachsen","beobachter": "Maria Muster","lat": 51.19331339494793}]},{"name": "Ampedus balteatus","nameDeutsch": "Gegürtelter Schnellkäfer","ordnung": "Käfer","familie": "Schnellkäfer","urlWikipedia": "https://de.wikipedia.org/wiki/Geg%C3%BCrtelter_Schnellk%C3%A4fer","urlInsektenSachsen": "https://www.insekten-sachsen.de/Pages/TaxonomyBrowser.aspx?Id=235484","beobachtungen": [{"datum": "2019-04-23","fundort": "Musterstadt","anzahl": 1,"stadium": "Alttier/Imago","lon": 13.969105647091475,"pruefung": "Insekten Sachsen","beobachter": "Maria Muster","lat": 51.189980299064885}]},{"name": "Cantharis fusca","nameDeutsch": "Gemeiner Weichkäfer","ordnung": "Käfer","familie": "Weichkäfer","urlWikipedia": "https://de.wikipedia.org/wiki/Gemeiner_Weichk%C3%A4fer","urlInsektenSachsen": "https://www.insekten-sachsen.de/Pages/TaxonomyBrowser.aspx?Id=104016","beobachtungen": [{"datum": "2013-06-10","fundort": "Musterstadt","anzahl": 1,"stadium": "Alttier/Imago","lon": 13.705664403893717,"pruefung": "Insekten Sachsen","beobachter": "Maria Muster","lat": 51.087544549488875}]},{"name": "Trichius gallicus","nameDeutsch": "Glattschieniger Pinselkäfer","ordnung": "Käfer","familie": "Blatthornkäfer","urlWikipedia": "https://de.wikipedia.org/wiki/Trichius_gallicus","urlInsektenSachsen": "https://www.insekten-sachsen.de/Pages/TaxonomyBrowser.aspx?Id=246980","beobachtungen": [{"datum": "2013-11-17","fundort": "Musterstadt","anzahl": 1,"stadium": "Alttier/Imago","lon": 13.964175177317696,"pruefung": "Insekten Sachsen","beobachter": "Maria Muster","lat": 51.185553428653016},{"datum": "2020-01-21","fundort": "Musterstadt","anzahl": 2,"stadium": "Alttier/Imago","lon": 13.981318386595852,"pruefung": "Insekten Sachsen","beobachter": "Max Mustermann","lat": 51.16150412058175},{"datum": "2015-02-06","fundort": "Musterstadt","anzahl": 1,"stadium": "Alttier/Imago","lon": 14.040079231419762,"pruefung": "Insekten Sachsen","beobachter": "Max Mustermann","lat": 51.16603655570947}]},{"name": "Lamprohiza splendidula","nameDeutsch": "Glühwürmchen","ordnung": "Käfer","familie": "Leuchtkäfer","urlWikipedia": "https://de.wikipedia.org/wiki/Kleiner_Leuchtk%C3%A4fer","urlInsektenSachsen": "https://www.insekten-sachsen.de/Pages/TaxonomyBrowser.aspx?Id=120513","beobachtungen": [{"datum": "2012-05-22","fundort": "Musterstadt","anzahl": 1,"stadium": "Alttier/Imago","lon": 13.970082596377543,"pruefung": "Insekten Sachsen","beobachter": "Maria Muster","lat": 51.18123149649729},{"datum": "2012-12-18","fundort": "Musterstadt","anzahl": 3,"stadium": "Alttier/Imago","lon": 13.9679030700339,"pruefung": "Insekten Sachsen","beobachter": "Maria Muster","lat": 51.188264377865245}]},{"name": "Cetonia aurata","nameDeutsch": "Goldglänzender Rosenkäfer","ordnung": "Käfer","familie": "Blatthornkäfer","urlWikipedia": "https://de.wikipedia.org/wiki/Goldgl%C3%A4nzender_Rosenk%C3%A4fer","urlInsektenSachsen": "https://www.insekten-sachsen.de/Pages/TaxonomyBrowser.aspx?Id=247075","beobachtungen": [{"datum": "2016-01-17","fundort": "Musterstadt","anzahl": 1,"stadium": "Alttier/Imago","lon": 14.026946890289233,"pruefung": "Insekten Sachsen","beobachter": "Maria Muster","lat": 51.21231604893892},{"datum": "2010-02-26","fundort": "Musterstadt","anzahl": 3,"stadium": "Alttier/Imago","lon": 13.956307361270444,"pruefung": "Insekten Sachsen","beobachter": "Maria Muster","lat": 51.187498077435436},{"datum": "2014-08-14","fundort": "Musterstadt","anzahl": 1,"stadium": "Alttier/Imago","lon": 14.009082918246028,"pruefung": "Insekten Sachsen","beobachter": "Maria Muster","lat": 51.19308634637993},{"datum": "2012-03-11","fundort": "Musterstadt","anzahl": 3,"stadium": "Alttier/Imago","lon": 14.071798075130657,"pruefung": "Insekten Sachsen","beobachter": "Max Mustermann","lat": 51.185180785495305}]},{"name": "Carabus auratus","nameDeutsch": "Goldlaufkäfer","ordnung": "Käfer","familie": "Laufkäfer","urlWikipedia": "https://de.wikipedia.org/wiki/Goldlaufk%C3%A4fer","urlInsektenSachsen": "https://www.insekten-sachsen.de/Pages/TaxonomyBrowser.aspx?Id=386617","beobachtungen": [{"datum": "2017-03-13","fundort": "Musterstadt","anzahl": 1,"stadium": "Alttier/Imago","lon": 13.943715565641863,"pruefung": "Insekten Sachsen","beobachter": "Maria Muster","lat": 51.18699050190496},{"datum": "2014-08-08","fundort": "Musterstadt","anzahl": 1,"stadium": "Alttier/Imago","lon": 13.986005512886221,"pruefung": "Insekten Sachsen","beobachter": "Max Mustermann","lat": 51.16380302157316}]},{"name": "Sitona gressorius","nameDeutsch": "Großer Lupinen-Blattrandrüssler","ordnung": "Käfer","familie": "Rüsselkäfer","urlWikipedia": "https://fr.wikipedia.org/wiki/Sitona_gressorius","urlInsektenSachsen": "https://www.insekten-sachsen.de/Pages/TaxonomyBrowser.aspx?Id=254450","beobachtungen": [{"datum": "2010-02-10","fundort": "Musterstadt","anzahl": 1,"stadium": "Alttier/Imago","lon": 13.96521068807174,"pruefung": "Insekten Sachsen","beobachter": "Maria Muster","lat": 51.180486217016416}]},{"name": "Saperda carcharias","nameDeutsch": "Großer Pappelbock","ordnung": "Käfer","familie": "Bockkäfer","urlWikipedia": "https://de.wikipedia.org/wiki/Gro%C3%9Fer_Pappelbock","urlInsektenSachsen": "https://www.insekten-sachsen.de/Pages/TaxonomyBrowser.aspx?Id=114002","beobachtungen": [{"datum": "2013-10-11","fundort": "Musterstadt","anzahl": 1,"stadium": "Alttier/Imago","lon": 13.952229545865865,"pruefung": "Insekten Sachsen","beobachter": "Maria Muster","lat": 51.17707329568021}]},{"name": "Amphimallon solstitiale","nameDeutsch": "Junikäfer","ordnung": "Käfer","familie": "Blatthornkäfer","urlWikipedia": "https://de.wikipedia.org/wiki/Gerippter_Brachk%C3%A4fer","urlInsektenSachsen": "https://www.insekten-sachsen.de/Pages/TaxonomyBrowser.aspx?Id=257482","beobachtungen": [{"datum": "2016-05-15","fundort": "Musterstadt","anzahl": 1,"stadium": "Alttier/Imago","lon": 13.960933834352465,"pruefung": "Insekten Sachsen","beobachter": "Maria Muster","lat": 51.18724973884994},{"datum": "2014-12-19","fundort": "Musterstadt","anzahl": 11,"stadium": "Alttier/Imago","lon": 13.959772705764703,"pruefung": "Insekten Sachsen","beobachter": "Maria Muster","lat": 51.194122253328}]},{"name": "Leptinotarsa decemlineata","nameDeutsch": "Kartoffelkäfer","ordnung": "Käfer","familie": "Blattkäfer","urlWikipedia": "https://de.wikipedia.org/wiki/Kartoffelk%C3%A4fer","urlInsektenSachsen": "https://www.insekten-sachsen.de/Pages/TaxonomyBrowser.aspx?Id=242261","beobachtungen": [{"datum": "2013-10-11","fundort": "Musterstadt","anzahl": 1,"stadium": "Alttier/Imago","lon": 13.965463053389854,"pruefung": "Insekten Sachsen","beobachter": "Maria Muster","lat": 51.18417208129972},{"datum": "2015-12-08","fundort": "Musterstadt","anzahl": 1,"stadium": "Alttier/Imago","lon": 13.948737887899302,"pruefung": "Insekten Sachsen","beobachter": "Maria Muster","lat": 51.1913433152986}]},{"name": "Myrrha octodecimguttata","nameDeutsch": "Kiefernwipfel-Marienkäfer","ordnung": "Käfer","familie": "Marienkäfer","urlWikipedia": "https://de.wikipedia.org/wiki/Achtzehnfleckiger_Marienk%C3%A4fer","urlInsektenSachsen": "https://www.insekten-sachsen.de/Pages/TaxonomyBrowser.aspx?Id=230396","beobachtungen": [{"datum": "2019-03-22","fundort": "Musterstadt","anzahl": 1,"stadium": "Alttier/Imago","lon": 13.707597055965778,"pruefung": "Insekten Sachsen","beobachter": "Maria Muster","lat": 51.03816091089655}]},{"name": "Pseudovadonia livida","nameDeutsch": "Kleiner Halsbock","ordnung": "Käfer","familie": "Blatthornkäfer","urlWikipedia": "https://de.wikipedia.org/wiki/Kleiner_Halsbock","urlInsektenSachsen": "https://www.insekten-sachsen.de/Pages/TaxonomyBrowser.aspx?Id=114867","beobachtungen": [{"datum": "2011-12-08","fundort": "Musterstadt","anzahl": 1,"stadium": "Alttier/Imago","lon": 13.9709059788916,"pruefung": "Insekten Sachsen","beobachter": "Maria Muster","lat": 51.17997002268211}]},{"name": "Rhagium inquisitor","nameDeutsch": "Kleiner Zangenbock","ordnung": "Käfer","familie": "Bockkäfer","urlWikipedia": "https://de.wikipedia.org/wiki/Schrotbock","urlInsektenSachsen": "https://www.insekten-sachsen.de/Pages/TaxonomyBrowser.aspx?Id=115072","beobachtungen": [{"datum": "2019-12-31","fundort": "Musterstadt","anzahl": 1,"stadium": "Alttier/Imago","lon": 13.689870288529413,"pruefung": "Insekten Sachsen","beobachter": "Maria Muster","lat": 51.10023357464579}]},{"name": "Carabus granulatus","nameDeutsch": "Körniger Laufkäfer","ordnung": "Käfer","familie": "Laufkäfer","urlWikipedia": "https://de.wikipedia.org/wiki/K%C3%B6rniger_Laufk%C3%A4fer","urlInsektenSachsen": "https://www.insekten-sachsen.de/Pages/TaxonomyBrowser.aspx?Id=386535","beobachtungen": [{"datum": "2015-06-26","fundort": "Musterstadt","anzahl": 1,"stadium": "Alttier/Imago","lon": 13.971500171361113,"pruefung": "Insekten Sachsen","beobachter": "Maria Muster","lat": 51.183614108516636}]},{"name": "Protaetia cuprea","nameDeutsch": "Kupfer-Rosenkäfer","ordnung": "Käfer","familie": "Blatthornkäfer","urlWikipedia": "https://de.wikipedia.org/wiki/Kupfer-Rosenk%C3%A4fer","urlInsektenSachsen": "https://www.insekten-sachsen.de/Pages/TaxonomyBrowser.aspx?Id=247053","beobachtungen": [{"datum": "2011-04-06","fundort": "Musterstadt","anzahl": 3,"stadium": "Alttier/Imago","lon": 13.970193354522433,"pruefung": "Insekten Sachsen","beobachter": "Maria Muster","lat": 51.18876137643741}]},{"name": "Lilioceris lilii","nameDeutsch": "Lilienhähnchen","ordnung": "Käfer","familie": "Blattkäfer","urlWikipedia": "https://de.wikipedia.org/wiki/Lilienh%C3%A4hnchen","urlInsektenSachsen": "https://www.insekten-sachsen.de/Pages/TaxonomyBrowser.aspx?Id=243537","beobachtungen": [{"datum": "2017-11-11","fundort": "Musterstadt","anzahl": 2,"stadium": "Alttier/Imago","lon": 13.97058416282931,"pruefung": "Insekten Sachsen","beobachter": "Maria Muster","lat": 51.19235302530304}]},{"name": "Agrypnus murinus","nameDeutsch": "Mausgrauer Schnellkäfer","ordnung": "Käfer","familie": "Schnellkäfer","urlWikipedia": "https://de.wikipedia.org/wiki/Mausgrauer_Schnellk%C3%A4fer","urlInsektenSachsen": "https://www.insekten-sachsen.de/Pages/TaxonomyBrowser.aspx?Id=235467","beobachtungen": [{"datum": "2015-04-14","fundort": "Musterstadt","anzahl": 1,"stadium": "Alttier/Imago","lon": 13.806404128393446,"pruefung": "Insekten Sachsen","beobachter": "Maria Muster","lat": 51.18907025560156},{"datum": "2018-07-08","fundort": "Musterstadt","anzahl": 1,"stadium": "Alttier/Imago","lon": 13.983184055809435,"pruefung": "Insekten Sachsen","beobachter": "Max Mustermann","lat": 51.167634523126154}]},{"name": "Aromia moschata","nameDeutsch": "Moschusbock","ordnung": "Käfer","familie": "Bockkäfer","urlWikipedia": "https://de.wikipedia.org/wiki/Moschusbock","urlInsektenSachsen": "https://www.insekten-sachsen.de/Pages/TaxonomyBrowser.aspx?Id=114600","beobachtungen": [{"datum": "2019-08-26","fundort": "Musterstadt","anzahl": 1,"stadium": "Alttier/Imago","lon": 13.970668437584223,"pruefung": "Insekten Sachsen","beobachter": "Maria Muster","lat": 51.196333807267216},{"datum": "2018-12-16","fundort": "Musterstadt","anzahl": 1,"stadium": "Alttier/Imago","lon": 13.972568089808837,"pruefung": "Insekten Sachsen","beobachter": "Maria Muster","lat": 51.195582327105974}]},{"name": "Oryctes nasicornis","nameDeutsch": "Nashornkäfer","ordnung": "Käfer","familie": "Blatthornkäfer","urlWikipedia": "https://de.wikipedia.org/wiki/Nashornk%C3%A4fer","urlInsektenSachsen": "https://www.insekten-sachsen.de/Pages/TaxonomyBrowser.aspx?Id=246915","beobachtungen": [{"datum": "2018-06-16","fundort": "Musterstadt","anzahl": 1,"stadium": "Alttier/Imago","lon": 13.622522496648674,"pruefung": "Insekten Sachsen","beobachter": "Maria Muster","lat": 51.12292935148631},{"datum": "2017-03-06","fundort": "Musterstadt","anzahl": 1,"stadium": "Alttier/Imago","lon": 13.720186886256062,"pruefung": "Insekten Sachsen","beobachter": "Max Mustermann","lat": 51.0664402030611}]},{"name": "Chrysolina fastuosa","nameDeutsch": "Prächtiger Blattkäfer","ordnung": "Käfer","familie": "Blattkäfer","urlWikipedia": "https://de.wikipedia.org/wiki/Pr%C3%A4chtiger_Blattk%C3%A4fer","urlInsektenSachsen": "https://www.insekten-sachsen.de/Pages/TaxonomyBrowser.aspx?Id=242038","beobachtungen": [{"datum": "2016-12-16","fundort": "Musterstadt","anzahl": 1,"stadium": "Alttier/Imago","lon": 13.68528553188325,"pruefung": "Insekten Sachsen","beobachter": "Maria Muster","lat": 51.17303652107415}]},{"name": "Stictoleptura rubra","nameDeutsch": "Roter Halsbock","ordnung": "Käfer","familie": "Bockkäfer","urlWikipedia": "https://de.wikipedia.org/wiki/Rothalsbock","urlInsektenSachsen": "https://www.insekten-sachsen.de/Pages/TaxonomyBrowser.aspx?Id=114932","beobachtungen": [{"datum": "2019-01-04","fundort": "Musterstadt","anzahl": 1,"stadium": "Alttier/Imago","lon": 13.994651115477263,"pruefung": "Insekten Sachsen","beobachter": "Maria Muster","lat": 51.18495645511565}]},{"name": "Rhagonycha fulva","nameDeutsch": "Roter Weichkäfer","ordnung": "Käfer","familie": "Weichkäfer","urlWikipedia": "https://de.wikipedia.org/wiki/Roter_Weichk%C3%A4fer","urlInsektenSachsen": "https://www.insekten-sachsen.de/Pages/TaxonomyBrowser.aspx?Id=103716","beobachtungen": [{"datum": "2016-08-25","fundort": "Musterstadt","anzahl": 11,"stadium": "Alttier/Imago","lon": 14.003324347146828,"pruefung": "Insekten Sachsen","beobachter": "Maria Muster","lat": 51.19512911886489}]},{"name": "Prionus coriarius","nameDeutsch": "Sägebock","ordnung": "Käfer","familie": "Bockkäfer","urlWikipedia": "https://de.wikipedia.org/wiki/S%C3%A4gebock_(K%C3%A4fer)","urlInsektenSachsen": "https://www.insekten-sachsen.de/Pages/TaxonomyBrowser.aspx?Id=115097","beobachtungen": [{"datum": "2014-01-25","fundort": "Musterstadt","anzahl": 1,"stadium": "Alttier/Imago","lon": 13.706378646834084,"pruefung": "Insekten Sachsen","beobachter": "Maria Muster","lat": 51.10320215190157}]},{"name": "Propylea quatuordecimpunctata","nameDeutsch": "Schachbrett-Marienkäfer","ordnung": "Käfer","familie": "Marienkäfer","urlWikipedia": "https://de.wikipedia.org/wiki/Vierzehnpunkt-Marienk%C3%A4fer","urlInsektenSachsen": "https://www.insekten-sachsen.de/Pages/TaxonomyBrowser.aspx?Id=230374","beobachtungen": [{"datum": "2015-04-23","fundort": "Musterstadt","anzahl": 1,"stadium": "Alttier/Imago","lon": 13.945783103949072,"pruefung": "Insekten Sachsen","beobachter": "Maria Muster","lat": 51.192593368990856},{"datum": "2013-05-25","fundort": "Musterstadt","anzahl": 1,"stadium": "Alttier/Imago","lon": 13.989621541761803,"pruefung": "Insekten Sachsen","beobachter": "Max Mustermann","lat": 51.17281602746655}]},{"name": "Tytthaspis sedecimpunctata","nameDeutsch": "Sechzehnpunkt-Marienkäfer","ordnung": "Käfer","familie": "Marienkäfer","urlWikipedia": "https://de.wikipedia.org/wiki/Sechzehnpunkt-Marienk%C3%A4fer","urlInsektenSachsen": "https://www.insekten-sachsen.de/Pages/TaxonomyBrowser.aspx?Id=230495","beobachtungen": [{"datum": "2018-04-24","fundort": "Musterstadt","anzahl": 1,"stadium": "Alttier/Imago","lon": 13.967347413586884,"pruefung": "Insekten Sachsen","beobachter": "Maria Muster","lat": 51.18615692095454}]},{"name": "Coccinella septempunctata","nameDeutsch": "Siebenpunkt-Marienkäfer","ordnung": "Käfer","familie": "Marienkäfer","urlWikipedia": "https://de.wikipedia.org/wiki/Siebenpunkt-Marienk%C3%A4fer","urlInsektenSachsen": "https://www.insekten-sachsen.de/Pages/TaxonomyBrowser.aspx?Id=230443","beobachtungen": [{"datum": "2012-08-24","fundort": "Musterstadt","anzahl": 2,"stadium": "Alttier/Imago","lon": 13.930320645703485,"pruefung": "Insekten Sachsen","beobachter": "Maria Muster","lat": 51.20112958440576},{"datum": "2013-11-13","fundort": "Musterstadt","anzahl": 1,"stadium": "Alttier/Imago","lon": 13.650269712958414,"pruefung": "Insekten Sachsen","beobachter": "Maria Muster","lat": 50.75361345976912}]},{"name": "Cantharis rustica","nameDeutsch": "Soldatenkäfer","ordnung": "Käfer","familie": "Weichkäfer","urlWikipedia": "https://de.wikipedia.org/wiki/Cantharis_rustica","urlInsektenSachsen": "https://www.insekten-sachsen.de/Pages/TaxonomyBrowser.aspx?Id=104211","beobachtungen": [{"datum": "2012-06-24","fundort": "Musterstadt","anzahl": 1,"stadium": "Alttier/Imago","lon": 13.950576032415473,"pruefung": "Insekten Sachsen","beobachter": "Maria Muster","lat": 51.193184023987826}]},{"name": "Valgus hemipterus","nameDeutsch": "Stolperkäfer","ordnung": "Käfer","familie": "Blatthornkäfer","urlWikipedia": "https://de.wikipedia.org/wiki/Stolperk%C3%A4fer","urlInsektenSachsen": "https://www.insekten-sachsen.de/Pages/TaxonomyBrowser.aspx?Id=246966","beobachtungen": [{"datum": "2019-01-24","fundort": "Musterstadt","anzahl": 1,"stadium": "Alttier/Imago","lon": 13.951663739846431,"pruefung": "Insekten Sachsen","beobachter": "Maria Muster","lat": 51.19196510136035},{"datum": "2013-03-20","fundort": "Musterstadt","anzahl": 1,"stadium": "Alttier/Imago","lon": 13.967791170035202,"pruefung": "Insekten Sachsen","beobachter": "Maria Muster","lat": 51.18878195851414}]},{"name": "Lepidiota stigma","nameDeutsch": "Sugarcane White Grub","ordnung": "Käfer","familie": "Blatthornkäfer","urlWikipedia": "https://nl.wikipedia.org/wiki/Lepidiota_stigma","urlVideo": "https://www.youtube.com/watch?v=89GV9FRp_AE","beobachtungen": [{"datum": "2011-09-21","fundort": "Musterstadt","anzahl": 1,"stadium": "Alttier/Imago","lon": 98.74494141655842,"pruefung": "iNaturalist","beobachter": "Maria Muster","lat": 7.790119419140449}]},{"name": "Oxythyrea funesta","nameDeutsch": "Trauer-Rosenkäfer","ordnung": "Käfer","familie": "Blatthornkäfer","urlWikipedia": "https://de.wikipedia.org/wiki/Trauer-Rosenk%C3%A4fer","urlInsektenSachsen": "https://www.insekten-sachsen.de/Pages/TaxonomyBrowser.aspx?Id=247005","beobachtungen": [{"datum": "2012-11-29","fundort": "Musterstadt","anzahl": 1,"stadium": "Alttier/Imago","lon": 13.952738822908222,"pruefung": "Insekten Sachsen","beobachter": "Maria Muster","lat": 51.17953753248818},{"datum": "2010-05-27","fundort": "Musterstadt","anzahl": 1,"stadium": "Alttier/Imago","lon": 14.029273679922671,"pruefung": "Insekten Sachsen","beobachter": "Maria Muster","lat": 51.216340932985496},{"datum": "2011-11-18","fundort": "Musterstadt","anzahl": 1,"stadium": "Alttier/Imago","lon": 13.74588093183221,"pruefung": "Insekten Sachsen","beobachter": "Maria Muster","lat": 51.054711915259944}]},{"name": "Hippodamia variegata","nameDeutsch": "Variabler Flach-Marienkäfer","ordnung": "Käfer","familie": "Marienkäfer","urlWikipedia": "https://de.wikipedia.org/wiki/Variabler_Flach-Marienk%C3%A4fer","urlInsektenSachsen": "https://www.insekten-sachsen.de/Pages/TaxonomyBrowser.aspx?Id=230406","beobachtungen": [{"datum": "2013-03-08","fundort": "Musterstadt","anzahl": 1,"stadium": "Alttier/Imago","lon": 13.812206502189252,"pruefung": "Insekten Sachsen","beobachter": "Maria Muster","lat": 51.184310894697724}]},{"name": "Leptura quadrifasciata","nameDeutsch": "Vierbindiger Schmalbock","ordnung": "Käfer","familie": "Bockkäfer","urlWikipedia": "https://de.wikipedia.org/wiki/Vierbindiger_Schmalbock","urlInsektenSachsen": "https://www.insekten-sachsen.de/Pages/TaxonomyBrowser.aspx?Id=114960","beobachtungen": [{"datum": "2013-10-28","fundort": "Musterstadt","anzahl": 1,"stadium": "Alttier/Imago","lon": 13.972752966422453,"pruefung": "Insekten Sachsen","beobachter": "Maria Muster","lat": 51.17805622219621}]},{"name": "Brumus quadripustulatus","nameDeutsch": "Vierfleckiger Schildlaus-Marienkäfer","ordnung": "Käfer","familie": "Marienkäfer","urlWikipedia": "https://de.wikipedia.org/wiki/Vierfleckiger_Kugelmarienk%C3%A4fer","urlInsektenSachsen": "https://www.insekten-sachsen.de/Pages/TaxonomyBrowser.aspx?Id=230190","beobachtungen": [{"datum": "2014-11-30","fundort": "Musterstadt","anzahl": 1,"stadium": "Alttier/Imago","lon": 13.959661888901243,"pruefung": "Insekten Sachsen","beobachter": "Maria Muster","lat": 51.194565334279794}]},{"name": "Chrysolina sturmi","nameDeutsch": "Violetter Gundermann-Blattkäfer","ordnung": "Käfer","familie": "Blattkäfer","urlWikipedia": "https://de.wikipedia.org/wiki/Chrysolina_sturmi","urlInsektenSachsen": "https://www.insekten-sachsen.de/Pages/TaxonomyBrowser.aspx?Id=242007","beobachtungen": [{"datum": "2013-05-27","fundort": "Musterstadt","anzahl": 1,"stadium": "Alttier/Imago","lon": 13.968335121464877,"pruefung": "Insekten Sachsen","beobachter": "Maria Muster","lat": 51.18473799832706}]},{"name": "Anthrenus verbasci","nameDeutsch": "Wollkrautblütenkäfer","ordnung": "Käfer","familie": "Speckkäfer","urlWikipedia": "https://de.wikipedia.org/wiki/Wollkrautbl%C3%BCtenk%C3%A4fer","urlInsektenSachsen": "https://www.insekten-sachsen.de/Pages/TaxonomyBrowser.aspx?Id=413742","beobachtungen": [{"datum": "2014-05-28","fundort": "Musterstadt","anzahl": 1,"stadium": "Alttier/Imago","lon": 13.968649961222754,"pruefung": "Insekten Sachsen","beobachter": "Maria Muster","lat": 51.18848891074317},{"datum": "2016-10-11","fundort": "Musterstadt","anzahl": 1,"stadium": "Alttier/Imago","lon": 13.988421866481126,"pruefung": "Insekten Sachsen","beobachter": "Max Mustermann","lat": 51.172222254118395}]},{"name": "Adalia decempunctata","nameDeutsch": "Zehnpunkt-Marienkäfer","ordnung": "Käfer","familie": "Marienkäfer","urlWikipedia": "https://de.wikipedia.org/wiki/Zehnpunkt-Marienk%C3%A4fer","urlInsektenSachsen": "https://www.insekten-sachsen.de/Pages/TaxonomyBrowser.aspx?Id=230476","beobachtungen": [{"datum": "2018-04-08","fundort": "Musterstadt","anzahl": 1,"stadium": "Alttier/Imago","lon": 13.95265144727739,"pruefung": "Insekten Sachsen","beobachter": "Maria Muster","lat": 51.190546179030896}]},{"name": "Calopteryx virgo","nameDeutsch": "Blauflügel-Prachtlibelle","ordnung": "Libellen","familie": "Prachtlibellen","urlWikipedia": "https://de.wikipedia.org/wiki/Blaufl%C3%BCgel-Prachtlibelle","urlInsektenSachsen": "https://www.insekten-sachsen.de/Pages/TaxonomyBrowser.aspx?Id=214241","urlSonstige": "https://libellenwissen.de/libellenarten/kleinlibellen/prachtlibellen-calopterygidae/blaufluegel-prachtlibelle/","beobachtungen": [{"datum": "2016-03-17","fundort": "Musterstadt","anzahl": 1,"stadium": "Alttier/Imago","lon": 13.904415756915203,"pruefung": "Insekten Sachsen","beobachter": "Maria Muster","lat": 51.19350973069656},{"datum": "2014-08-23","fundort": "Musterstadt","anzahl": 1,"stadium": "Alttier/Imago","lon": 13.948600409851373,"pruefung": "Insekten Sachsen","beobachter": "Max Mustermann","lat": 51.18525375537337}]},{"name": "Aeshna cyanea","nameDeutsch": "Blaugrüne Mosaikjungfer","ordnung": "Libellen","familie": "Edellibellen","urlWikipedia": "https://de.wikipedia.org/wiki/Blaugr%C3%BCne_Mosaikjungfer","urlInsektenSachsen": "https://www.insekten-sachsen.de/Pages/TaxonomyBrowser.aspx?Id=214303","urlSonstige": "https://libellenwissen.de/libellenarten/grosslibellen/edellibellen-aeshnidae/blaugruene-mosaikjungfer/","beobachtungen": [{"datum": "2015-06-03","fundort": "Musterstadt","anzahl": 1,"stadium": "Alttier/Imago","lon": 13.921206833989379,"pruefung": "Insekten Sachsen","beobachter": "Maria Muster","lat": 51.196800618612976}]},{"name": "Sympetrum sanguineum","nameDeutsch": "Blutrote Heidelibelle","ordnung": "Libellen","familie": "Segellibellen","urlWikipedia": "https://de.wikipedia.org/wiki/Blutrote_Heidelibelle","urlInsektenSachsen": "https://www.insekten-sachsen.de/Pages/TaxonomyBrowser.aspx?Id=214407","urlSonstige": "https://libellenwissen.de/libellenarten/grosslibellen/segellibellen-libellulidae/blutrote-heidelibelle/","beobachtungen": [{"datum": "2014-06-18","fundort": "Musterstadt","anzahl": 1,"stadium": "Alttier/Imago","lon": 13.682906659537556,"pruefung": "Insekten Sachsen","beobachter": "Maria Muster","lat": 51.17718449817983},{"datum": "2017-03-11","fundort": "Musterstadt","anzahl": 1,"stadium": "Alttier/Imago","lon": 13.85523522726974,"pruefung": "Insekten Sachsen","beobachter": "Max Mustermann","lat": 51.09203269310475},{"datum": "2012-06-11","fundort": "Musterstadt","anzahl": 1,"stadium": "Alttier/Imago","lon": 13.691069775149812,"pruefung": "Insekten Sachsen","beobachter": "Maria Muster","lat": 51.16982622887954},{"datum": "2016-05-28","fundort": "Musterstadt","anzahl": 3,"stadium": "Alttier/Imago","lon": 13.928988889657708,"pruefung": "Insekten Sachsen","beobachter": "Maria Muster","lat": 51.19312389730505},{"datum": "2015-01-27","fundort": "Musterstadt","anzahl": 1,"stadium": "Alttier/Imago","lon": 13.77214918561106,"pruefung": "Insekten Sachsen","beobachter": "Max Mustermann","lat": 51.11358978611783},{"datum": "2016-05-25","fundort": "Musterstadt","anzahl": 1,"stadium": "Alttier/Imago","lon": 14.352480457648294,"pruefung": "Insekten Sachsen","beobachter": "Maria Muster","lat": 51.81210678344038}]},{"name": "Rhyothemis variegata","nameDeutsch": "Common Picture Wing","ordnung": "Libellen","familie": "Segellibellen","urlWikipedia": "https://en.wikipedia.org/wiki/Rhyothemis_variegata","beobachtungen": [{"datum": "2019-11-18","fundort": "Musterstadt","anzahl": 1,"stadium": "Alttier/Imago","lon": 103.83621616427001,"pruefung": "iNaturalist","beobachter": "Maria Muster","lat": 13.453971925016}]},{"name": "Calopteryx splendens","nameDeutsch": "Gebänderte Prachtlibelle","ordnung": "Libellen","familie": "Prachtlibellen","urlWikipedia": "https://de.wikipedia.org/wiki/Geb%C3%A4nderte_Prachtlibelle","urlInsektenSachsen": "https://www.insekten-sachsen.de/Pages/TaxonomyBrowser.aspx?Id=214240","urlSonstige": "https://libellenwissen.de/libellenarten/kleinlibellen/prachtlibellen-calopterygidae/gebaenderte-prachtlibelle/","beobachtungen": [{"datum": "2012-09-28","fundort": "Musterstadt","anzahl": 10,"stadium": "Alttier/Imago","lon": 14.32738376799636,"pruefung": "Insekten Sachsen","beobachter": "Maria Muster","lat": 51.80737281652333},{"datum": "2012-05-25","fundort": "Musterstadt","anzahl": 1,"stadium": "Alttier/Imago","lon": 14.324838537337946,"pruefung": "Insekten Sachsen","beobachter": "Maria Muster","lat": 51.7995557689003},{"datum": "2012-10-27","fundort": "Musterstadt","anzahl": 1,"stadium": "Alttier/Imago","lon": 14.00037803403613,"pruefung": "Insekten Sachsen","beobachter": "Max Mustermann","lat": 51.17026375143771}]},{"name": "Enallagma cyathigerum","nameDeutsch": "Gemeine Becherjungfer","ordnung": "Libellen","familie": "Schlanklibellen","urlWikipedia": "https://de.wikipedia.org/wiki/Gemeine_Becherjungfer","urlInsektenSachsen": "https://www.insekten-sachsen.de/Pages/TaxonomyBrowser.aspx?Id=214276","urlSonstige": "https://libellenwissen.de/libellenarten/kleinlibellen/schlanklibellen-coenagrionidae/gemeine-becherjungfer/","beobachtungen": [{"datum": "2019-11-10","fundort": "Musterstadt","anzahl": 1,"stadium": "Alttier/Imago","lon": 15.596267735436937,"pruefung": "iNaturalist","beobachter": "Maria Muster","lat": 44.89198788633474}]},{"name": "Sympetrum vulgatum","nameDeutsch": "Gemeine Heidelibelle","ordnung": "Libellen","familie": "Segellibellen","urlWikipedia": "https://de.wikipedia.org/wiki/Gemeine_Heidelibelle","urlInsektenSachsen": "https://www.insekten-sachsen.de/Pages/TaxonomyBrowser.aspx?Id=214410","urlSonstige": "https://libellenwissen.de/libellenarten/grosslibellen/segellibellen-libellulidae/gemeine-heidelibelle/","beobachtungen": [{"datum": "2011-04-17","fundort": "Musterstadt","anzahl": 1,"stadium": "Alttier/Imago","lon": 14.32370868493457,"pruefung": "Insekten Sachsen","beobachter": "Maria Muster","lat": 51.756700385693534},{"datum": "2012-08-05","fundort": "Musterstadt","anzahl": 1,"stadium": "Alttier/Imago","lon": 14.335556027450478,"pruefung": "Insekten Sachsen","beobachter": "Maria Muster","lat": 51.805296794130925},{"datum": "2019-06-06","fundort": "Musterstadt","anzahl": 1,"stadium": "Alttier/Imago","lon": 14.325787172087832,"pruefung": "Insekten Sachsen","beobachter": "Maria Muster","lat": 51.815229568873136}]},{"name": "Gomphus vulgatissimus","nameDeutsch": "Gemeine Keiljungfer","ordnung": "Libellen","familie": "Flussjungfern","urlWikipedia": "https://de.wikipedia.org/wiki/Gemeine_Keiljungfer","urlInsektenSachsen": "https://www.insekten-sachsen.de/Pages/TaxonomyBrowser.aspx?Id=214334","urlSonstige": "https://libellenwissen.de/libellenarten/grosslibellen/flussjungfern-gomphidae/gemeine-keiljungfer/","beobachtungen": [{"datum": "2011-05-04","fundort": "Musterstadt","anzahl": 1,"stadium": "Alttier/Imago","lon": 13.962237303763157,"pruefung": "Insekten Sachsen","beobachter": "Maria Muster","lat": 51.192027489024845}]},{"name": "Sympecma fusca","nameDeutsch": "Gemeine Winterlibelle","ordnung": "Libellen","familie": "Teichjungfern","urlWikipedia": "https://de.wikipedia.org/wiki/Gemeine_Winterlibelle","urlInsektenSachsen": "https://www.insekten-sachsen.de/Pages/TaxonomyBrowser.aspx?Id=214254","urlSonstige": "https://libellenwissen.de/libellenarten/kleinlibellen/teichjungfern-lestidae/gemeine-winterlibelle/","beobachtungen": [{"datum": "2019-09-01","fundort": "Musterstadt","anzahl": 1,"stadium": "Alttier/Imago","lon": 14.32042838128437,"pruefung": "Insekten Sachsen","beobachter": "Maria Muster","lat": 51.81431837694126}]},{"name": "Ischnura elegans","nameDeutsch": "Große Pechlibelle","ordnung": "Libellen","familie": "Schlanklibellen","urlWikipedia": "https://de.wikipedia.org/wiki/Gro%C3%9Fe_Pechlibelle","urlInsektenSachsen": "https://www.insekten-sachsen.de/Pages/TaxonomyBrowser.aspx?Id=214281","urlSonstige": "https://libellenwissen.de/libellenarten/kleinlibellen/schlanklibellen-coenagrionidae/grosse-pechlibelle/","beobachtungen": [{"datum": "2017-07-29","fundort": "Musterstadt","anzahl": 1,"stadium": "Alttier/Imago","lon": 14.00466459494421,"pruefung": "Insekten Sachsen","beobachter": "Maria Muster","lat": 51.18389569729121},{"datum": "2020-01-15","fundort": "Musterstadt","anzahl": 1,"stadium": "Alttier/Imago","lon": 13.721255548275932,"pruefung": "Insekten Sachsen","beobachter": "Max Mustermann","lat": 51.15497939856834},{"datum": "2010-02-22","fundort": "Musterstadt","anzahl": 1,"stadium": "Alttier/Imago","lon": 13.913384523536074,"pruefung": "Insekten Sachsen","beobachter": "Maria Muster","lat": 51.192030326883106}]},{"name": "Orthetrum cancellatum","nameDeutsch": "Großer Blaupfeil","ordnung": "Libellen","familie": "Segellibellen","urlWikipedia": "https://de.wikipedia.org/wiki/Gro%C3%9Fer_Blaupfeil","urlInsektenSachsen": "https://www.insekten-sachsen.de/Pages/TaxonomyBrowser.aspx?Id=214390","urlSonstige": "https://libellenwissen.de/libellenarten/grosslibellen/segellibellen-libellulidae/grosser-blaupfeil/","beobachtungen": [{"datum": "2014-06-26","fundort": "Musterstadt","anzahl": 1,"stadium": "Alttier/Imago","lon": 13.927546749986632,"pruefung": "Insekten Sachsen","beobachter": "Maria Muster","lat": 51.195277472826014}]},{"name": "Aeshna mixta","nameDeutsch": "Herbst-Mosaikjungfer","ordnung": "Libellen","familie": "Edellibellen","urlWikipedia": "https://de.wikipedia.org/wiki/Herbst-Mosaikjungfer","urlInsektenSachsen": "https://www.insekten-sachsen.de/Pages/TaxonomyBrowser.aspx?Id=214308","urlSonstige": "https://libellenwissen.de/libellenarten/grosslibellen/edellibellen-aeshnidae/herbst-mosaikjungfer/","beobachtungen": [{"datum": "2011-04-02","fundort": "Musterstadt","anzahl": 1,"stadium": "Alttier/Imago","lon": 14.33491105917741,"pruefung": "Insekten Sachsen","beobachter": "Maria Muster","lat": 51.7992410247897}]},{"name": "Coenagrion puella","nameDeutsch": "Hufeisen-Azurjungfer","ordnung": "Libellen","familie": "Schlanklibellen","urlWikipedia": "https://de.wikipedia.org/wiki/Hufeisen-Azurjungfer","urlInsektenSachsen": "https://www.insekten-sachsen.de/Pages/TaxonomyBrowser.aspx?Id=214272","urlSonstige": "https://libellenwissen.de/libellenarten/kleinlibellen/schlanklibellen-coenagrionidae/hufeisen-azurjungfer/","beobachtungen": [{"datum": "2010-02-05","fundort": "Musterstadt","anzahl": 1,"stadium": "Alttier/Imago","lon": 5.654246042894011,"pruefung": "iNaturalist","beobachter": "Maria Muster","lat": 50.85086862013895},{"datum": "2013-09-28","fundort": "Musterstadt","anzahl": 1,"stadium": "Alttier/Imago","lon": 12.321499838523064,"pruefung": "iNaturalist","beobachter": "Max Mustermann","lat": 49.870258875265606},{"datum": "2013-10-04","fundort": "Musterstadt","anzahl": 3,"stadium": "Alttier/Imago","lon": 13.96152117648665,"pruefung": "Insekten Sachsen","beobachter": "Maria Muster","lat": 51.19493462111801}]},{"name": "Orthetrum coerulescens","nameDeutsch": "Kleiner Blaupfeil","ordnung": "Libellen","familie": "Segellibellen","urlWikipedia": "https://de.wikipedia.org/wiki/Kleiner_Blaupfeil","urlInsektenSachsen": "https://www.insekten-sachsen.de/Pages/TaxonomyBrowser.aspx?Id=214392","urlSonstige": "https://libellenwissen.de/libellenarten/grosslibellen/segellibellen-libellulidae/kleiner-blaupfeil/","beobachtungen": [{"datum": "2012-09-26","fundort": "Musterstadt","anzahl": 1,"stadium": "Alttier/Imago","lon": 15.595722855382418,"pruefung": "iNaturalist","beobachter": "Maria Muster","lat": 44.88782463946339}]},{"name": "Libellula depressa","nameDeutsch": "Plattbauch","ordnung": "Libellen","familie": "Segellibellen","urlWikipedia": "https://de.wikipedia.org/wiki/Plattbauch","urlInsektenSachsen": "https://www.insekten-sachsen.de/Pages/TaxonomyBrowser.aspx?Id=214384","urlSonstige": "https://libellenwissen.de/libellenarten/grosslibellen/segellibellen-libellulidae/plattbauch/","beobachtungen": [{"datum": "2014-02-18","fundort": "Musterstadt","anzahl": 1,"stadium": "Alttier/Imago","lon": 14.032653821520231,"pruefung": "Insekten Sachsen","beobachter": "Maria Muster","lat": 51.209686818127075}]},{"name": "Euroleon nostras","nameDeutsch": "Geflecktflüglige Ameisenjungfer","ordnung": "Netzflügler","familie": "Ameisenjungfern","urlWikipedia": "https://de.wikipedia.org/wiki/Geflecktfl%C3%BCglige_Ameisenjungfer","urlInsektenSachsen": "https://www.insekten-sachsen.de/Pages/TaxonomyBrowser.aspx?Id=85631","beobachtungen": [{"datum": "2016-09-05","fundort": "Musterstadt","anzahl": 1,"stadium": "Alttier/Imago","lon": 13.950518131158043,"pruefung": "Insekten Sachsen","beobachter": "Maria Muster","lat": 51.179250369792726}]},{"name": "Drepanepteryx phalaenoides","nameDeutsch": "Totes Blatt","ordnung": "Netzflügler","familie": "Taghafte","urlWikipedia": "https://de.wikipedia.org/wiki/Totes_Blatt_(Netzfl%C3%BCgler)","urlInsektenSachsen": "https://www.insekten-sachsen.de/Pages/TaxonomyBrowser.aspx?Id=85543","beobachtungen": [{"datum": "2013-05-03","fundort": "Musterstadt","anzahl": 1,"stadium": "Alttier/Imago","lon": 13.951505838141967,"pruefung": "Insekten Sachsen","beobachter": "Maria Muster","lat": 51.17783144716525}]},{"name": "Vanessa atalanta","nameDeutsch": "Admiral","ordnung": "Schmetterlinge","familie": "Edelfalter","urlWikipedia": "https://de.wikipedia.org/wiki/Admiral_(Schmetterling)","urlInsektenSachsen": "https://www.insekten-sachsen.de/Pages/TaxonomyBrowser.aspx?Id=441684","urlSonstige": "http://www.lepiforum.de/lepiwiki.pl?Vanessa_atalanta","beobachtungen": [{"datum": "2014-02-22","fundort": "Musterstadt","anzahl": 1,"stadium": "Alttier/Imago","lon": 14.33254337989638,"pruefung": "Insekten Sachsen","beobachter": "Maria Muster","lat": 51.801167662580156},{"datum": "2018-07-15","fundort": "Musterstadt","anzahl": 5,"stadium": "Alttier/Imago","lon": 13.995864595402251,"pruefung": "Insekten Sachsen","beobachter": "Max Mustermann","lat": 51.16079176900782},{"datum": "2013-03-21","fundort": "Musterstadt","anzahl": 3,"stadium": "Alttier/Imago","lon": 13.980468864214584,"pruefung": "Insekten Sachsen","beobachter": "Max Mustermann","lat": 51.16305249677336},{"datum": "2010-10-25","fundort": "Musterstadt","anzahl": 1,"stadium": "Alttier/Imago","lon": 13.965062295055402,"pruefung": "Insekten Sachsen","beobachter": "Maria Muster","lat": 51.1820966968418},{"datum": "2010-05-12","fundort": "Musterstadt","anzahl": 1,"stadium": "Alttier/Imago","lon": 13.686026121687723,"pruefung": "Insekten Sachsen","beobachter": "Maria Muster","lat": 51.08710008634743}]},{"name": "Acronicta aceris","nameDeutsch": "Ahorneule","ordnung": "Schmetterlinge","familie": "Eulenfalter","urlWikipedia": "https://de.wikipedia.org/wiki/Ahorn-Rindeneule","urlInsektenSachsen": "https://www.insekten-sachsen.de/Pages/TaxonomyBrowser.aspx?Id=449422","urlSonstige": "http://www.lepiforum.de/lepiwiki.pl?Acronicta_Aceris","beobachtungen": [{"datum": "2018-12-24","fundort": "Musterstadt","anzahl": 1,"stadium": "Larve","lon": 13.967271998724968,"pruefung": "Insekten Sachsen","beobachter": "Maria Muster","lat": 51.18899476591147},{"datum": "2018-10-12","fundort": "Musterstadt","anzahl": 1,"stadium": "Alttier/Imago","lon": 13.96931805397209,"pruefung": "Insekten Sachsen","beobachter": "Maria Muster","lat": 51.19200594981277}]},{"name": "Triodia sylvina","nameDeutsch": "Ampfer-Wurzelbohrer ","ordnung": "Schmetterlinge","familie": "Wurzelbohrer","urlWikipedia": "https://de.wikipedia.org/wiki/Ampfer-Wurzelbohrer","urlInsektenSachsen": "https://www.insekten-sachsen.de/Pages/TaxonomyBrowser.aspx?Id=431749","urlSonstige": "http://www.lepiforum.de/lepiwiki.pl?Triodia_sylvina","beobachtungen": [{"datum": "2017-02-27","fundort": "Musterstadt","anzahl": 1,"stadium": "Alttier/Imago","lon": 13.963821832601388,"pruefung": "Insekten Sachsen","beobachter": "Maria Muster","lat": 51.19374990395384},{"datum": "2019-11-02","fundort": "Musterstadt","anzahl": 1,"stadium": "Alttier/Imago","lon": 13.964453034197154,"pruefung": "Insekten Sachsen","beobachter": "Maria Muster","lat": 51.184788000870064}]},{"name": "Timandra comae","nameDeutsch": "Ampferspanner","ordnung": "Schmetterlinge","familie": "Spanner","urlWikipedia": "https://de.wikipedia.org/wiki/Ampferspanner","urlInsektenSachsen": "https://www.insekten-sachsen.de/Pages/TaxonomyBrowser.aspx?Id=444446","urlSonstige": "http://www.lepiforum.de/lepiwiki.pl?Timandra_comae","beobachtungen": [{"datum": "2019-05-29","fundort": "Musterstadt","anzahl": 1,"stadium": "Alttier/Imago","lon": 13.9470129101226,"pruefung": "Insekten Sachsen","beobachter": "Maria Muster","lat": 51.177240791870254}]},{"name": "Cydia pomonella","nameDeutsch": "Apfelwickler","ordnung": "Schmetterlinge","familie": "Wickler","urlWikipedia": "https://de.wikipedia.org/wiki/Apfelwickler","urlInsektenSachsen": "https://www.insekten-sachsen.de/Pages/TaxonomyBrowser.aspx?Id=439192","urlSonstige": "http://www.lepiforum.de/lepiwiki.pl?Cydia_pomonella","beobachtungen": [{"datum": "2011-09-05","fundort": "Musterstadt","anzahl": 6,"stadium": "Alttier/Imago","lon": 13.946950451877013,"pruefung": "Insekten Sachsen","beobachter": "Maria Muster","lat": 51.18087700758318}]},{"name": "Agrotis exclamationis","nameDeutsch": "Ausrufungszeichen","ordnung": "Schmetterlinge","familie": "Eulenfalter","urlWikipedia": "https://de.wikipedia.org/wiki/Ausrufungszeichen","urlInsektenSachsen": "https://www.insekten-sachsen.de/Pages/TaxonomyBrowser.aspx?Id=448466","urlSonstige": "http://www.lepiforum.de/lepiwiki.pl?Agrotis_exclamationis","beobachtungen": [{"datum": "2019-10-27","fundort": "Musterstadt","anzahl": 1,"stadium": "Alttier/Imago","lon": 13.96871476106779,"pruefung": "Insekten Sachsen","beobachter": "Maria Muster","lat": 51.194540559248836}]},{"name": "Ennomos erosaria","nameDeutsch": "Birken-Zackenrandspanner","ordnung": "Schmetterlinge","familie": "Spanner","urlWikipedia": "https://de.wikipedia.org/wiki/Birken-Zackenrandspanner","urlInsektenSachsen": "https://www.insekten-sachsen.de/Pages/TaxonomyBrowser.aspx?Id=445977","urlSonstige": "http://www.lepiforum.de/lepiwiki.pl?Ennomos_erosaria","beobachtungen": [{"datum": "2013-12-27","fundort": "Musterstadt","anzahl": 1,"stadium": "Alttier/Imago","lon": 13.826802468498746,"pruefung": "Insekten Sachsen","beobachter": "Maria Muster","lat": 51.19992163662136}]},{"name": "Zeuzera pyrina","nameDeutsch": "Blausieb","ordnung": "Schmetterlinge","familie": "Holzbohrer","urlWikipedia": "https://de.wikipedia.org/wiki/Blausieb","urlInsektenSachsen": "https://www.insekten-sachsen.de/Pages/TaxonomyBrowser.aspx?Id=439898","urlSonstige": "http://www.lepiforum.de/lepiwiki.pl?Zeuzera_pyrina","beobachtungen": [{"datum": "2018-02-16","fundort": "Musterstadt","anzahl": 1,"stadium": "Alttier/Imago","lon": 13.957267062412237,"pruefung": "Insekten Sachsen","beobachter": "Maria Muster","lat": 51.189943396352426}]},{"name": "Euclidia glyphica","nameDeutsch": "Braune Tageule","ordnung": "Schmetterlinge","familie": "Eulenfalter","urlWikipedia": "https://de.wikipedia.org/wiki/Braune_Tageule","urlInsektenSachsen": "https://www.insekten-sachsen.de/Pages/TaxonomyBrowser.aspx?Id=446607","urlSonstige": "http://www.lepiforum.de/lepiwiki.pl?Euclidia_glyphica","beobachtungen": [{"datum": "2014-03-01","fundort": "Musterstadt","anzahl": 1,"stadium": "Alttier/Imago","lon": 13.944557855210736,"pruefung": "Insekten Sachsen","beobachter": "Maria Muster","lat": 51.19027607620344}]},{"name": "Arctia caja","nameDeutsch": "Brauner Bär","ordnung": "Schmetterlinge","familie": "Erebidae","urlWikipedia": "https://de.wikipedia.org/wiki/Brauner_B%C3%A4r_(Schmetterling)","urlInsektenSachsen": "https://www.insekten-sachsen.de/Pages/TaxonomyBrowser.aspx?Id=446959","urlSonstige": "http://www.lepiforum.de/lepiwiki.pl?Arctia_caja","beobachtungen": [{"datum": "2012-01-23","fundort": "Musterstadt","anzahl": 1,"stadium": "Alttier/Imago","lon": 13.952998806181737,"pruefung": "Insekten Sachsen","beobachter": "Maria Muster","lat": 51.18038512915908}]},{"name": "Idaea aversata","nameDeutsch": "Breitgebänderter Staudenspanner","ordnung": "Schmetterlinge","familie": "Spanner","urlWikipedia": "https://de.wikipedia.org/wiki/Breitgeb%C3%A4nderter_Staudenspanner","urlInsektenSachsen": "https://www.insekten-sachsen.de/Pages/TaxonomyBrowser.aspx?Id=444228","urlSonstige": "http://www.lepiforum.de/lepiwiki.pl?Idaea_aversata","beobachtungen": [{"datum": "2016-08-30","fundort": "Musterstadt","anzahl": 1,"stadium": "Alttier/Imago","lon": 13.970240009806124,"pruefung": "Insekten Sachsen","beobachter": "Maria Muster","lat": 51.17695785203626}]},{"name": "Anania hortulata","nameDeutsch": "Brennnesselzünsler","ordnung": "Schmetterlinge","familie": "Crambidae","urlWikipedia": "https://de.wikipedia.org/wiki/Brennnesselz%C3%BCnsler","urlInsektenSachsen": "https://www.insekten-sachsen.de/Pages/TaxonomyBrowser.aspx?Id=442814","urlSonstige": "http://www.lepiforum.de/lepiwiki.pl?Anania_hortulata","beobachtungen": [{"datum": "2016-07-01","fundort": "Musterstadt","anzahl": 1,"stadium": "Alttier/Imago","lon": 13.957395958998026,"pruefung": "Insekten Sachsen","beobachter": "Maria Muster","lat": 51.177167247145746}]},{"name": "Calliteara pudibunda","nameDeutsch": "Buchen-Streckfuß","ordnung": "Schmetterlinge","familie": "Eulenfalter","urlWikipedia": "https://de.wikipedia.org/wiki/Buchen-Streckfu%C3%9F","urlInsektenSachsen": "https://www.insekten-sachsen.de/Pages/TaxonomyBrowser.aspx?Id=447103","urlSonstige": "http://www.lepiforum.de/lepiwiki.pl?Calliteara_pudibunda","beobachtungen": [{"datum": "2017-12-12","fundort": "Musterstadt","anzahl": 1,"stadium": "Larve","lon": 13.961027488537946,"pruefung": "Insekten Sachsen","beobachter": "Maria Muster","lat": 51.19033694459675},{"datum": "2011-10-05","fundort": "Musterstadt","anzahl": 1,"stadium": "Larve","lon": 14.057242502283497,"pruefung": "Insekten Sachsen","beobachter": "Maria Muster","lat": 50.96971277969468}]},{"name": "Cydalima perspectalis","nameDeutsch": "Buchsbaumzünsler","ordnung": "Schmetterlinge","familie": "Crambidae","urlWikipedia": "https://de.wikipedia.org/wiki/Buchsbaumz%C3%BCnsler","urlInsektenSachsen": "https://www.insekten-sachsen.de/Pages/TaxonomyBrowser.aspx?Id=442650","urlSonstige": "http://www.lepiforum.de/lepiwiki.pl?Cydalima_perspectalis","beobachtungen": [{"datum": "2012-12-01","fundort": "Musterstadt","anzahl": 1,"stadium": "Alttier/Imago","lon": 13.69981846295817,"pruefung": "Insekten Sachsen","beobachter": "Maria Muster","lat": 51.09634009340996},{"datum": "2010-05-05","fundort": "Musterstadt","anzahl": 1,"stadium": "Alttier/Imago","lon": 13.978603726929949,"pruefung": "Insekten Sachsen","beobachter": "Max Mustermann","lat": 51.15696877528607},{"datum": "2018-10-29","fundort": "Musterstadt","anzahl": 1,"stadium": "Alttier/Imago","lon": 13.69446592921442,"pruefung": "Insekten Sachsen","beobachter": "Maria Muster","lat": 51.08475418321381},{"datum": "2013-11-26","fundort": "Musterstadt","anzahl": 1,"stadium": "Alttier/Imago","lon": 13.8217415212397,"pruefung": "Insekten Sachsen","beobachter": "Maria Muster","lat": 51.20221839828928},{"datum": "2013-04-26","fundort": "Musterstadt","anzahl": 1,"stadium": "Alttier/Imago","lon": 13.986727404750777,"pruefung": "iNaturalist","beobachter": "Max Mustermann","lat": 51.157978687774964}]},{"name": "Polygonia c-album","nameDeutsch": "C-Falter","ordnung": "Schmetterlinge","familie": "Edelfalter","urlWikipedia": "https://de.wikipedia.org/wiki/C-Falter","urlInsektenSachsen": "http://www.lepiforum.de/lepiwiki.pl?Polygonia_c-album","beobachtungen": [{"datum": "2013-01-23","fundort": "Musterstadt","anzahl": 1,"stadium": "Alttier/Imago","lon": 13.976529820290017,"pruefung": "Insekten Sachsen","beobachter": "Maria Muster","lat": 51.199481332896816}]},{"name": "Vanessa cardui","nameDeutsch": "Distelfalter","ordnung": "Schmetterlinge","familie": "Edelfalter","urlWikipedia": "https://de.wikipedia.org/wiki/Distelfalter","urlInsektenSachsen": "https://www.insekten-sachsen.de/Pages/TaxonomyBrowser.aspx?Id=441686","urlSonstige": "http://www.lepiforum.de/lepiwiki.pl?Vanessa_cardui","urlVideo": "https://youtu.be/LmWIpydHu4Y","beobachtungen": [{"datum": "2019-11-01","fundort": "Musterstadt","anzahl": 3,"stadium": "Alttier/Imago","lon": 13.970790175482671,"pruefung": "Insekten Sachsen","beobachter": "Maria Muster","lat": 51.19190271399388},{"datum": "2012-09-06","fundort": "Musterstadt","anzahl": 1,"stadium": "Alttier/Imago","lon": 13.958922020936347,"pruefung": "Insekten Sachsen","beobachter": "Maria Muster","lat": 51.191833423029145},{"datum": "2017-12-03","fundort": "Musterstadt","anzahl": 1,"stadium": "Alttier/Imago","lon": 13.844871920672754,"pruefung": "Insekten Sachsen","beobachter": "Max Mustermann","lat": 51.16532291469679},{"datum": "2017-03-05","fundort": "Musterstadt","anzahl": 1,"stadium": "Alttier/Imago","lon": 13.996072560541865,"pruefung": "Insekten Sachsen","beobachter": "Max Mustermann","lat": 51.16095005223037},{"datum": "2011-11-17","fundort": "Musterstadt","anzahl": 1,"stadium": "Alttier/Imago","lon": 13.996236720816432,"pruefung": "Insekten Sachsen","beobachter": "Max Mustermann","lat": 51.17397550195318},{"datum": "2018-03-12","fundort": "Musterstadt","anzahl": 2,"stadium": "Alttier/Imago","lon": 14.008126044379264,"pruefung": "Insekten Sachsen","beobachter": "Maria Muster","lat": 51.19277861512277},{"datum": "2011-11-28","fundort": "Musterstadt","anzahl": 1,"stadium": "Alttier/Imago","lon": 13.735347063256961,"pruefung": "iNaturalist","beobachter": "Maria Muster","lat": 51.05922870409758},{"datum": "2017-12-17","fundort": "Musterstadt","anzahl": 1,"stadium": "Alttier/Imago","lon": 7.213739382854855,"pruefung": "iNaturalist","beobachter": "Max Mustermann","lat": 53.58816725320747}]},{"name": "Plodia interpunctella","nameDeutsch": "Dörrobstmotte","ordnung": "Schmetterlinge","familie": "Zünsler","urlWikipedia": "https://de.wikipedia.org/wiki/D%C3%B6rrobstmotte","urlInsektenSachsen": "https://www.insekten-sachsen.de/Pages/TaxonomyBrowser.aspx?Id=441827","urlSonstige": "http://www.lepiforum.de/lepiwiki.pl?Plodia_interpunctella","beobachtungen": [{"datum": "2016-04-08","fundort": "Musterstadt","anzahl": 1,"stadium": "Alttier/Imago","lon": 13.944832938272526,"pruefung": "Insekten Sachsen","beobachter": "Maria Muster","lat": 51.17754850703323}]},{"name": "Eulithis prunata","nameDeutsch": "Dunkelbrauner Haarbüschelspanner","ordnung": "Schmetterlinge","familie": "Spanner","urlWikipedia": "https://de.wikipedia.org/wiki/Dunkelbrauner_Haarb%C3%BCschelspanner","urlInsektenSachsen": "https://www.insekten-sachsen.de/Pages/TaxonomyBrowser.aspx?Id=444676","urlSonstige": "http://www.lepiforum.de/lepiwiki.pl?Eulithis_prunata","beobachtungen": [{"datum": "2011-10-16","fundort": "Musterstadt","anzahl": 1,"stadium": "Alttier/Imago","lon": 13.953606170389127,"pruefung": "Insekten Sachsen","beobachter": "Maria Muster","lat": 51.1877211710805}]},{"name": "Caradrina clavipalpis","nameDeutsch": "Eindringling","ordnung": "Schmetterlinge","familie": "Eulenfalter","urlWikipedia": "https://de.wikipedia.org/wiki/Heu-Staubeule","urlInsektenSachsen": "https://www.insekten-sachsen.de/Pages/TaxonomyBrowser.aspx?Id=447310","urlSonstige": "http://www.lepiforum.de/lepiwiki.pl?Caradrina_clavipalpis","beobachtungen": [{"datum": "2016-08-30","fundort": "Musterstadt","anzahl": 1,"stadium": "Alttier/Imago","lon": 13.680943711696505,"pruefung": "Insekten Sachsen","beobachter": "Maria Muster","lat": 51.098057386197375}]},{"name": "Eudonia mercurella","nameDeutsch": "Eudonia mercurella","ordnung": "Schmetterlinge","familie": "Crambidae","urlWikipedia": "https://de.wikipedia.org/wiki/Eudonia_mercurella","urlInsektenSachsen": "https://www.insekten-sachsen.de/Pages/TaxonomyBrowser.aspx?Id=443346","urlSonstige": "http://www.lepiforum.de/lepiwiki.pl?Eudonia_mercurella","beobachtungen": [{"datum": "2015-10-30","fundort": "Musterstadt","anzahl": 2,"stadium": "Alttier/Imago","lon": 13.954415616165567,"pruefung": "Insekten Sachsen","beobachter": "Maria Muster","lat": 51.18237115488167}]},{"name": "Celastrina argiolus","nameDeutsch": "Faulbaumbläuling","ordnung": "Schmetterlinge","familie": "Bläulinge","urlWikipedia": "https://de.wikipedia.org/wiki/Faulbaum-Bl%C3%A4uling","urlInsektenSachsen": "https://www.insekten-sachsen.de/Pages/TaxonomyBrowser.aspx?Id=441106","urlSonstige": "http://www.lepiforum.de/lepiwiki.pl?Celastrina_argiolus","beobachtungen": [{"datum": "2017-08-30","fundort": "Musterstadt","anzahl": 1,"stadium": "Alttier/Imago","lon": 13.921971002877557,"pruefung": "Insekten Sachsen","beobachter": "Maria Muster","lat": 51.18792559446375}]},{"name": "Colotois pennaria","nameDeutsch": "Federfühler-Herbstspanner","ordnung": "Schmetterlinge","familie": "Spanner","urlWikipedia": "https://de.wikipedia.org/wiki/Federf%C3%BChler-Herbstspanner","urlInsektenSachsen": "https://www.insekten-sachsen.de/Pages/TaxonomyBrowser.aspx?Id=445958","urlSonstige": "http://www.lepiforum.de/lepiwiki.pl?Colotois_pennaria","beobachtungen": [{"datum": "2017-04-01","fundort": "Musterstadt","anzahl": 1,"stadium": "Alttier/Imago","lon": 13.714344234994156,"pruefung": "Insekten Sachsen","beobachter": "Maria Muster","lat": 51.093998258212984}]},{"name": "Diurnea fagella","nameDeutsch": "Frühjahrsbuchenmotte","ordnung": "Schmetterlinge","familie": "Breitflügelmotten","urlWikipedia": "https://de.wikipedia.org/wiki/Buchenmotte","urlInsektenSachsen": "https://www.insekten-sachsen.de/Pages/TaxonomyBrowser.aspx?Id=434869","urlSonstige": "http://www.lepiforum.de/lepiwiki.pl?Diurnea_fagella","beobachtungen": [{"datum": "2017-04-19","fundort": "Musterstadt","anzahl": 1,"stadium": "Alttier/Imago","lon": 13.812253157472945,"pruefung": "Insekten Sachsen","beobachter": "Maria Muster","lat": 51.192307370296575}]},{"name": "Autographa gamma","nameDeutsch": "Gammaeule","ordnung": "Schmetterlinge","familie": "Eulenfalter","urlWikipedia": "https://de.wikipedia.org/wiki/Gammaeule","urlInsektenSachsen": "https://www.insekten-sachsen.de/Pages/TaxonomyBrowser.aspx?Id=449605","urlSonstige": "http://www.lepiforum.de/lepiwiki.pl?Autographa_gamma","beobachtungen": [{"datum": "2016-06-06","fundort": "Musterstadt","anzahl": 1,"stadium": "Alttier/Imago","lon": 13.946717467110757,"pruefung": "Insekten Sachsen","beobachter": "Maria Muster","lat": 51.179370922260254},{"datum": "2019-11-13","fundort": "Musterstadt","anzahl": 3,"stadium": "Alttier/Imago","lon": 13.969306154420428,"pruefung": "Insekten Sachsen","beobachter": "Maria Muster","lat": 51.19272353046167}]},{"name": "Xanthorhoe fluctuata","nameDeutsch": "Garten-Blattspanner","ordnung": "Schmetterlinge","familie": "Spanner","urlWikipedia": "https://de.wikipedia.org/wiki/Garten-Blattspanner","urlInsektenSachsen": "https://www.insekten-sachsen.de/Pages/TaxonomyBrowser.aspx?Id=445306","urlSonstige": "http://www.lepiforum.de/lepiwiki.pl?Xanthorhoe_fluctuata","beobachtungen": [{"datum": "2016-04-15","fundort": "Musterstadt","anzahl": 1,"stadium": "Alttier/Imago","lon": 13.9500226881462,"pruefung": "Insekten Sachsen","beobachter": "Maria Muster","lat": 51.181380499884696},{"datum": "2014-08-20","fundort": "Musterstadt","anzahl": 1,"stadium": "Alttier/Imago","lon": 13.953806316333054,"pruefung": "Insekten Sachsen","beobachter": "Maria Muster","lat": 51.18222664378758}]},{"name": "Endotricha flammealis","nameDeutsch": "Geflammte Kleinzünsler","ordnung": "Schmetterlinge","familie": "Zünsler","urlWikipedia": "https://de.wikipedia.org/wiki/Geflammter_Kleinz%C3%BCnsler","urlInsektenSachsen": "https://www.insekten-sachsen.de/Pages/TaxonomyBrowser.aspx?Id=442601","urlSonstige": "http://www.lepiforum.de/lepiwiki.pl?Endotricha_flammealis","beobachtungen": [{"datum": "2012-06-17","fundort": "Musterstadt","anzahl": 1,"stadium": "Alttier/Imago","lon": 13.954578074411154,"pruefung": "Insekten Sachsen","beobachter": "Maria Muster","lat": 51.17833493946677}]},{"name": "Alucita hexadactyla","nameDeutsch": "Geißblattgeistchen","ordnung": "Schmetterlinge","familie": "Federgeistchen","urlWikipedia": "https://de.wikipedia.org/wiki/Federgeistchen_(Familie)","urlInsektenSachsen": "https://www.insekten-sachsen.de/Pages/TaxonomyBrowser.aspx?Id=437879","urlSonstige": "http://www.lepiforum.de/lepiwiki.pl?Alucita_hexadactyla","beobachtungen": [{"datum": "2015-05-06","fundort": "Musterstadt","anzahl": 1,"stadium": "Alttier/Imago","lon": 13.967369151932367,"pruefung": "Insekten Sachsen","beobachter": "Maria Muster","lat": 51.18172582738318}]},{"name": "Spilosoma lutea","nameDeutsch": "Gelbe Tigermotte","ordnung": "Schmetterlinge","familie": "Eulenfalter","urlWikipedia": "https://de.wikipedia.org/wiki/Gelber_Fleckleibb%C3%A4r","urlInsektenSachsen": "https://www.insekten-sachsen.de/Pages/TaxonomyBrowser.aspx?Id=446996","urlSonstige": "http://www.lepiforum.de/lepiwiki.pl?Spilarctia_Lutea","beobachtungen": [{"datum": "2017-02-05","fundort": "Musterstadt","anzahl": 1,"stadium": "Alttier/Imago","lon": 13.960121168554101,"pruefung": "Insekten Sachsen","beobachter": "Maria Muster","lat": 51.19397045642137}]},{"name": "Polyommatus icarus","nameDeutsch": "Gemeiner Bläuling","ordnung": "Schmetterlinge","familie": "Bläulinge","urlWikipedia": "https://de.wikipedia.org/wiki/Hauhechel-Bl%C3%A4uling","urlInsektenSachsen": "https://www.insekten-sachsen.de/Pages/TaxonomyBrowser.aspx?Id=440934","urlSonstige": "http://www.lepiforum.de/lepiwiki.pl?Polyommatus_icarus","beobachtungen": [{"datum": "2014-03-03","fundort": "Musterstadt","anzahl": 1,"stadium": "Alttier/Imago","lon": 19.22966150011774,"pruefung": "iNaturalist","beobachter": "Maria Muster","lat": 47.428276707770614},{"datum": "2010-08-03","fundort": "Musterstadt","anzahl": 1,"stadium": "Alttier/Imago","lon": 14.382767935353616,"pruefung": "Insekten Sachsen","beobachter": "Max Mustermann","lat": 51.7954711578972}]},{"name": "Euthrix potatoria","nameDeutsch": "Grasglucke","ordnung": "Schmetterlinge","familie": "Glucken","urlWikipedia": "https://de.wikipedia.org/wiki/Grasglucke","urlInsektenSachsen": "https://www.insekten-sachsen.de/Pages/TaxonomyBrowser.aspx?Id=443476","urlSonstige": "http://www.lepiforum.de/lepiwiki.pl?Euthrix_potatoria","beobachtungen": [{"datum": "2015-07-28","fundort": "Musterstadt","anzahl": 1,"stadium": "Larve","lon": 13.816623019499291,"pruefung": "Insekten Sachsen","beobachter": "Maria Muster","lat": 51.25557022350193}]},{"name": "Idaea seriata","nameDeutsch": "Grauer Zwergspanner","ordnung": "Schmetterlinge","familie": "Spanner","urlWikipedia": "https://de.wikipedia.org/wiki/Grauer_Zwergspanner","urlInsektenSachsen": "https://www.insekten-sachsen.de/Pages/TaxonomyBrowser.aspx?Id=444161","urlSonstige": "http://www.lepiforum.de/lepiwiki.pl?Idaea_seriata","beobachtungen": [{"datum": "2016-07-08","fundort": "Musterstadt","anzahl": 1,"stadium": "Alttier/Imago","lon": 13.963863931343958,"pruefung": "Insekten Sachsen","beobachter": "Maria Muster","lat": 51.17971624975874},{"datum": "2018-09-10","fundort": "Musterstadt","anzahl": 1,"stadium": "Alttier/Imago","lon": 13.968384372624318,"pruefung": "Insekten Sachsen","beobachter": "Maria Muster","lat": 51.17704880506481},{"datum": "2018-03-18","fundort": "Musterstadt","anzahl": 1,"stadium": "Alttier/Imago","lon": 13.695206173868861,"pruefung": "Insekten Sachsen","beobachter": "Maria Muster","lat": 51.090176889071884}]},{"name": "Aplocera plagiata","nameDeutsch": "Grauspanner","ordnung": "Schmetterlinge","familie": "Spanner","urlWikipedia": "https://de.wikipedia.org/wiki/Gro%C3%9Fer_Johanniskraut-Spanner","urlInsektenSachsen": "https://www.insekten-sachsen.de/Pages/TaxonomyBrowser.aspx?Id=444530","urlSonstige": "http://www.lepiforum.de/lepiwiki.pl?Aplocera_plagiata","beobachtungen": [{"datum": "2013-02-15","fundort": "Musterstadt","anzahl": 1,"stadium": "Alttier/Imago","lon": 13.803792550172547,"pruefung": "Insekten Sachsen","beobachter": "Maria Muster","lat": 51.19364335279204}]},{"name": "Pieris brassicae","nameDeutsch": "Großer Kohlweißling","ordnung": "Schmetterlinge","familie": "Weißlinge","urlWikipedia": "https://de.wikipedia.org/wiki/Gro%C3%9Fer_Kohlwei%C3%9Fling","urlInsektenSachsen": "https://www.insekten-sachsen.de/Pages/TaxonomyBrowser.aspx?Id=440880","urlSonstige": "http://www.lepiforum.de/lepiwiki.pl?Pieris_brassicae","beobachtungen": [{"datum": "2018-04-23","fundort": "Musterstadt","anzahl": 1,"stadium": "Alttier/Imago","lon": 13.955565782289147,"pruefung": "Insekten Sachsen","beobachter": "Maria Muster","lat": 51.177016016839296}]},{"name": "Apatura iris","nameDeutsch": "Großer Schillerfalter","ordnung": "Schmetterlinge","familie": "Edelfalter","urlWikipedia": "https://de.wikipedia.org/wiki/Gro%C3%9Fer_Schillerfalter","urlInsektenSachsen": "https://www.insekten-sachsen.de/Pages/TaxonomyBrowser.aspx?Id=441662","urlSonstige": "http://www.lepiforum.de/lepiwiki.pl?Apatura_iris","beobachtungen": [{"datum": "2017-09-10","fundort": "Musterstadt","anzahl": 1,"stadium": "Alttier/Imago","lon": 13.920083627246726,"pruefung": "Insekten Sachsen","beobachter": "Maria Muster","lat": 50.84903424100647}]},{"name": "Archiearis parthenias","nameDeutsch": "Großes Jungfernkind","ordnung": "Schmetterlinge","familie": "Spanner","urlWikipedia": "https://de.wikipedia.org/wiki/Gro%C3%9Fes_Jungfernkind","urlInsektenSachsen": "https://www.insekten-sachsen.de/Pages/TaxonomyBrowser.aspx?Id=446357","urlSonstige": "http://www.lepiforum.de/lepiwiki.pl?Archiearis_parthenias","beobachtungen": [{"datum": "2016-06-28","fundort": "Musterstadt","anzahl": 1,"stadium": "Alttier/Imago","lon": 13.747135644315494,"pruefung": "Insekten Sachsen","beobachter": "Maria Muster","lat": 51.147578870044654}]},{"name": "Maniola jurtina","nameDeutsch": "Großes Ochsenauge","ordnung": "Schmetterlinge","familie": "Edelfalter","urlWikipedia": "https://de.wikipedia.org/wiki/Gro%C3%9Fes_Ochsenauge","urlInsektenSachsen": "https://www.insekten-sachsen.de/Pages/TaxonomyBrowser.aspx?Id=441303","urlSonstige": "http://www.lepiforum.de/lepiwiki.pl?Maniola_jurtina","beobachtungen": [{"datum": "2010-08-05","fundort": "Musterstadt","anzahl": 1,"stadium": "Alttier/Imago","lon": 13.944071953953307,"pruefung": "Insekten Sachsen","beobachter": "Maria Muster","lat": 51.1960814217103},{"datum": "2011-09-16","fundort": "Musterstadt","anzahl": 1,"stadium": "Alttier/Imago","lon": 14.35883773344408,"pruefung": "Insekten Sachsen","beobachter": "Max Mustermann","lat": 51.791032146387856},{"datum": "2010-12-30","fundort": "Musterstadt","anzahl": 1,"stadium": "Alttier/Imago","lon": 13.811606836006801,"pruefung": "Insekten Sachsen","beobachter": "Maria Muster","lat": 51.111101699345866},{"datum": "2018-02-02","fundort": "Musterstadt","anzahl": 1,"stadium": "Alttier/Imago","lon": 13.771509541828504,"pruefung": "Insekten Sachsen","beobachter": "Max Mustermann","lat": 51.11156640211889},{"datum": "2011-05-19","fundort": "Musterstadt","anzahl": 1,"stadium": "Alttier/Imago","lon": 13.680300846113102,"pruefung": "Insekten Sachsen","beobachter": "Maria Muster","lat": 51.18046873969989},{"datum": "2014-05-05","fundort": "Musterstadt","anzahl": 1,"stadium": "Alttier/Imago","lon": 13.705387521966465,"pruefung": "Insekten Sachsen","beobachter": "Max Mustermann","lat": 51.06389177847757},{"datum": "2016-09-18","fundort": "Musterstadt","anzahl": 1,"stadium": "Alttier/Imago","lon": 13.922041307824175,"pruefung": "Insekten Sachsen","beobachter": "Maria Muster","lat": 51.194141982771086},{"datum": "2013-04-10","fundort": "Musterstadt","anzahl": 1,"stadium": "Alttier/Imago","lon": 13.757535560035704,"pruefung": "Insekten Sachsen","beobachter": "Maria Muster","lat": 51.061086456693545},{"datum": "2015-12-10","fundort": "Musterstadt","anzahl": 2,"stadium": "Alttier/Imago","lon": 13.985270715788443,"pruefung": "Insekten Sachsen","beobachter": "Maria Muster","lat": 51.24437108112643},{"datum": "2010-11-20","fundort": "Musterstadt","anzahl": 1,"stadium": "Alttier/Imago","lon": 14.367257095647865,"pruefung": "Insekten Sachsen","beobachter": "Max Mustermann","lat": 51.79479022260009}]},{"name": "Pieris napi","nameDeutsch": "Grünaderweißling","ordnung": "Schmetterlinge","familie": "Weißlinge","urlWikipedia": "https://de.wikipedia.org/wiki/Rapswei%C3%9Fling","urlInsektenSachsen": "https://www.insekten-sachsen.de/Pages/TaxonomyBrowser.aspx?Id=440887","urlSonstige": "http://www.lepiforum.de/lepiwiki.pl?Pieris_napi","beobachtungen": [{"datum": "2018-12-27","fundort": "Musterstadt","anzahl": 1,"stadium": "Alttier/Imago","lon": 13.965351638774916,"pruefung": "Insekten Sachsen","beobachter": "Maria Muster","lat": 51.17859732713127},{"datum": "2017-01-21","fundort": "Musterstadt","anzahl": 1,"stadium": "Alttier/Imago","lon": 13.683740647566506,"pruefung": "Insekten Sachsen","beobachter": "Maria Muster","lat": 51.18409624154121}]},{"name": "Trachea atriplicis","nameDeutsch": "Grüne Meldeneule","ordnung": "Schmetterlinge","familie": "Eulenfalter","urlWikipedia": "https://de.wikipedia.org/wiki/Meldeneule","urlInsektenSachsen": "https://www.insekten-sachsen.de/Pages/TaxonomyBrowser.aspx?Id=447344","urlSonstige": "http://www.lepiforum.de/lepiwiki.pl?Trachea_atriplicis","beobachtungen": [{"datum": "2016-04-04","fundort": "Musterstadt","anzahl": 1,"stadium": "Alttier/Imago","lon": 13.956734112941593,"pruefung": "Insekten Sachsen","beobachter": "Maria Muster","lat": 51.192022438786324}]},{"name": "Noctua pronuba","nameDeutsch": "Hausmutter","ordnung": "Schmetterlinge","familie": "Eulenfalter","urlWikipedia": "https://de.wikipedia.org/wiki/Hausmutter","urlInsektenSachsen": "https://www.insekten-sachsen.de/Pages/TaxonomyBrowser.aspx?Id=448843","urlSonstige": "http://www.lepiforum.de/lepiwiki.pl?Noctua_pronuba","beobachtungen": [{"datum": "2015-06-15","fundort": "Musterstadt","anzahl": 1,"stadium": "Alttier/Imago","lon": 13.943824870444482,"pruefung": "Insekten Sachsen","beobachter": "Maria Muster","lat": 51.18856999058248},{"datum": "2017-10-04","fundort": "Musterstadt","anzahl": 1,"stadium": "Alttier/Imago","lon": 9.873148685731548,"pruefung": "iNaturalist","beobachter": "Max Mustermann","lat": 52.99388977835723}]},{"name": "Diurnea lipsiella","nameDeutsch": "Herbstbuchenmotte","ordnung": "Schmetterlinge","familie": "Breitflügelmotten","urlWikipedia": "https://de.wikipedia.org/wiki/Diurnea_lipsiella","urlInsektenSachsen": "https://www.insekten-sachsen.de/Pages/TaxonomyBrowser.aspx?Id=434870","urlSonstige": "http://www.lepiforum.de/lepiwiki.pl?Diurnea_lipsiella","beobachtungen": [{"datum": "2013-12-08","fundort": "Musterstadt","anzahl": 2,"stadium": "Alttier/Imago","lon": 13.76525904210864,"pruefung": "Insekten Sachsen","beobachter": "Maria Muster","lat": 51.13419639545349},{"datum": "2011-01-07","fundort": "Musterstadt","anzahl": 3,"stadium": "Alttier/Imago","lon": 13.696785750185468,"pruefung": "Insekten Sachsen","beobachter": "Max Mustermann","lat": 51.16441841007769}]},{"name": "Idaea inquinata","nameDeutsch": "Heu-Zwergspanner","ordnung": "Schmetterlinge","familie": "Spanner","urlWikipedia": "https://de.wikipedia.org/wiki/Heu-Zwergspanner","urlInsektenSachsen": "https://www.insekten-sachsen.de/Pages/TaxonomyBrowser.aspx?Id=444128","urlSonstige": "http://www.lepiforum.de/lepiwiki.pl?Idaea_inquinata","beobachtungen": [{"datum": "2015-05-28","fundort": "Musterstadt","anzahl": 1,"stadium": "Alttier/Imago","lon": 13.958041197151063,"pruefung": "Insekten Sachsen","beobachter": "Maria Muster","lat": 51.19437817158435}]},{"name": "Hypena rostralis","nameDeutsch": "Hopfen-Schnabeleule","ordnung": "Schmetterlinge","familie": "Eulenfalter","urlWikipedia": "https://de.wikipedia.org/wiki/Hopfen-Z%C3%BCnslereule","urlInsektenSachsen": "https://www.insekten-sachsen.de/Pages/TaxonomyBrowser.aspx?Id=446826","urlSonstige": "http://www.lepiforum.de/lepiwiki.pl?Hypena_rostralis","beobachtungen": [{"datum": "2015-10-08","fundort": "Musterstadt","anzahl": 1,"stadium": "Alttier/Imago","lon": 13.676905506788875,"pruefung": "Insekten Sachsen","beobachter": "Maria Muster","lat": 51.09474172325}]},{"name": "Aphomia sociella","nameDeutsch": "Hummel-Wachsmotte","ordnung": "Schmetterlinge","familie": "Zünsler","urlWikipedia": "https://de.wikipedia.org/wiki/Hummelnestmotte","urlInsektenSachsen": "https://www.insekten-sachsen.de/Pages/TaxonomyBrowser.aspx?Id=442615","urlSonstige": "http://www.lepiforum.de/lepiwiki.pl?Aphomia_sociella","beobachtungen": [{"datum": "2012-07-06","fundort": "Musterstadt","anzahl": 1,"stadium": "Alttier/Imago","lon": 13.698469815532619,"pruefung": "Insekten Sachsen","beobachter": "Maria Muster","lat": 51.08820527491566}]},{"name": "Hemaris fuciformis","nameDeutsch": "Hummelschwärmer","ordnung": "Schmetterlinge","familie": "Schwärmer","urlWikipedia": "https://de.wikipedia.org/wiki/Hummelschw%C3%A4rmer","urlInsektenSachsen": "https://www.insekten-sachsen.de/Pages/TaxonomyBrowser.aspx?Id=443647","urlSonstige": "http://www.lepiforum.de/lepiwiki.pl?Hemaris_fuciformis","beobachtungen": [{"datum": "2015-10-30","fundort": "Musterstadt","anzahl": 1,"stadium": "Alttier/Imago","lon": 13.970219649856073,"pruefung": "Insekten Sachsen","beobachter": "Maria Muster","lat": 51.18656041295804},{"datum": "2011-06-04","fundort": "Musterstadt","anzahl": 1,"stadium": "Alttier/Imago","lon": 13.723920405691208,"pruefung": "Insekten Sachsen","beobachter": "Max Mustermann","lat": 51.06709423418512},{"datum": "2013-03-31","fundort": "Musterstadt","anzahl": 1,"stadium": "Alttier/Imago","lon": 13.983256511042622,"pruefung": "Insekten Sachsen","beobachter": "Max Mustermann","lat": 51.164794006419235}]},{"name": "Argynnis paphia","nameDeutsch": "Kaisermantel","ordnung": "Schmetterlinge","familie": "Edelfalter","urlWikipedia": "https://de.wikipedia.org/wiki/Kaisermantel","urlInsektenSachsen": "https://www.insekten-sachsen.de/Pages/TaxonomyBrowser.aspx?Id=441744","urlSonstige": "http://www.lepiforum.de/lepiwiki.pl?Argynnis_paphia","beobachtungen": [{"datum": "2017-01-16","fundort": "Musterstadt","anzahl": 1,"stadium": "Alttier/Imago","lon": 13.953528826034175,"pruefung": "Insekten Sachsen","beobachter": "Maria Muster","lat": 51.177394720509476},{"datum": "2015-06-02","fundort": "Musterstadt","anzahl": 1,"stadium": "Alttier/Imago","lon": 15.085746797065552,"pruefung": "iNaturalist","beobachter": "Maria Muster","lat": 44.541165516320746},{"datum": "2011-09-23","fundort": "Musterstadt","anzahl": 1,"stadium": "Alttier/Imago","lon": 15.587815956986733,"pruefung": "iNaturalist","beobachter": "Maria Muster","lat": 44.89084667684156},{"datum": "2016-05-09","fundort": "Musterstadt","anzahl": 1,"stadium": "Alttier/Imago","lon": 13.919583417727749,"pruefung": "Insekten Sachsen","beobachter": "Maria Muster","lat": 50.843699372770295},{"datum": "2013-11-16","fundort": "Musterstadt","anzahl": 1,"stadium": "Alttier/Imago","lon": 11.538031425769725,"pruefung": "iNaturalist","beobachter": "Max Mustermann","lat": 55.84544191143625},{"datum": "2010-05-23","fundort": "Musterstadt","anzahl": 1,"stadium": "Alttier/Imago","lon": 13.971260108353214,"pruefung": "Insekten Sachsen","beobachter": "Maria Muster","lat": 51.18000119259282},{"datum": "2014-10-28","fundort": "Musterstadt","anzahl": 1,"stadium": "Alttier/Imago","lon": 13.985100836245325,"pruefung": "Insekten Sachsen","beobachter": "Max Mustermann","lat": 51.17420182656487},{"datum": "2011-04-30","fundort": "Musterstadt","anzahl": 1,"stadium": "Alttier/Imago","lon": 13.907447725891524,"pruefung": "Insekten Sachsen","beobachter": "Maria Muster","lat": 51.18860266959543},{"datum": "2011-03-27","fundort": "Musterstadt","anzahl": 1,"stadium": "Alttier/Imago","lon": 14.086450078712286,"pruefung": "Insekten Sachsen","beobachter": "Max Mustermann","lat": 50.9043253869683}]},{"name": "Sphinx pinastri","nameDeutsch": "Kiefernschwärmer","ordnung": "Schmetterlinge","familie": "Schwärmer","urlWikipedia": "https://de.wikipedia.org/wiki/Kiefernschw%C3%A4rmer","urlInsektenSachsen": "https://www.insekten-sachsen.de/Pages/TaxonomyBrowser.aspx?Id=443881","urlSonstige": "http://www.lepiforum.de/lepiwiki.pl?Sphinx_pinastri","beobachtungen": [{"datum": "2011-02-09","fundort": "Musterstadt","anzahl": 1,"stadium": "Alttier/Imago","lon": 13.95888003862744,"pruefung": "Insekten Sachsen","beobachter": "Maria Muster","lat": 51.185998208139374},{"datum": "2013-09-13","fundort": "Musterstadt","anzahl": 1,"stadium": "Larve","lon": 14.684034804406844,"pruefung": "Insekten Sachsen","beobachter": "Maria Muster","lat": 50.855884163000205}]},{"name": "Lycaena phlaeas","nameDeutsch": "Kleiner Feuerfalter","ordnung": "Schmetterlinge","familie": "Bläulinge","urlWikipedia": "https://de.wikipedia.org/wiki/Kleiner_Feuerfalter","urlInsektenSachsen": "https://www.insekten-sachsen.de/Pages/TaxonomyBrowser.aspx?Id=441185","urlSonstige": "http://www.lepiforum.de/lepiwiki.pl?Lycaena_phlaeas","beobachtungen": [{"datum": "2017-09-24","fundort": "Musterstadt","anzahl": 1,"stadium": "Alttier/Imago","lon": 14.326345844140963,"pruefung": "Insekten Sachsen","beobachter": "Maria Muster","lat": 51.805534305205725},{"datum": "2019-12-05","fundort": "Musterstadt","anzahl": 1,"stadium": "Alttier/Imago","lon": 13.943439123454572,"pruefung": "Insekten Sachsen","beobachter": "Max Mustermann","lat": 51.18140741233076},{"datum": "2018-08-11","fundort": "Musterstadt","anzahl": 1,"stadium": "Alttier/Imago","lon": 13.936415502799532,"pruefung": "Insekten Sachsen","beobachter": "Max Mustermann","lat": 51.17681039843349},{"datum": "2014-05-18","fundort": "Musterstadt","anzahl": 1,"stadium": "Alttier/Imago","lon": 13.73002695006379,"pruefung": "Insekten Sachsen","beobachter": "Maria Muster","lat": 51.0592367146899},{"datum": "2013-10-15","fundort": "Musterstadt","anzahl": 1,"stadium": "Alttier/Imago","lon": 9.835490928907632,"pruefung": "iNaturalist","beobachter": "Maria Muster","lat": 53.00970123679959}]},{"name": "Operophtera brumata","nameDeutsch": "Kleiner Frostspanner","ordnung": "Schmetterlinge","familie": "Spanner","urlWikipedia": "https://de.wikipedia.org/wiki/Kleiner_Frostspanner","urlInsektenSachsen": "https://www.insekten-sachsen.de/Pages/TaxonomyBrowser.aspx?Id=445091","urlSonstige": "http://www.lepiforum.de/lepiwiki.pl?operophtera_brumata","beobachtungen": [{"datum": "2014-01-22","fundort": "Musterstadt","anzahl": 1,"stadium": "Alttier/Imago","lon": 13.674835402070075,"pruefung": "Insekten Sachsen","beobachter": "Maria Muster","lat": 51.09561514965881}]},{"name": "Aglais urticae","nameDeutsch": "Kleiner Fuchs","ordnung": "Schmetterlinge","familie": "Edelfalter","urlWikipedia": "https://de.wikipedia.org/wiki/Kleiner_Fuchs","urlInsektenSachsen": "https://www.insekten-sachsen.de/Pages/TaxonomyBrowser.aspx?ID=441679","urlSonstige": "http://www.lepiforum.de/lepiwiki.pl?Aglais_urticae","beobachtungen": [{"datum": "2017-03-12","fundort": "Musterstadt","anzahl": 1,"stadium": "Alttier/Imago","lon": 13.968999711707887,"pruefung": "Insekten Sachsen","beobachter": "Maria Muster","lat": 51.182478701622486},{"datum": "2013-12-14","fundort": "Musterstadt","anzahl": 1,"stadium": "Alttier/Imago","lon": 13.999487302108587,"pruefung": "Insekten Sachsen","beobachter": "Max Mustermann","lat": 51.16169678875047},{"datum": "2017-01-24","fundort": "Musterstadt","anzahl": 1,"stadium": "Alttier/Imago","lon": 13.98553409667415,"pruefung": "Insekten Sachsen","beobachter": "Max Mustermann","lat": 51.17308654240081}]},{"name": "Korscheltellus lupulina","nameDeutsch": "Kleiner Hopfenwurzelbohrer","ordnung": "Schmetterlinge","familie": "Wurzelbohrer","urlWikipedia": "https://de.wikipedia.org/wiki/Kleiner_Hopfen-Wurzelbohrer","urlInsektenSachsen": "https://www.insekten-sachsen.de/Pages/TaxonomyBrowser.aspx?Id=431755","urlSonstige": "http://www.lepiforum.de/lepiwiki.pl?Korscheltellus_lupulina","beobachtungen": [{"datum": "2017-02-12","fundort": "Musterstadt","anzahl": 1,"stadium": "Alttier/Imago","lon": 13.965319408057688,"pruefung": "Insekten Sachsen","beobachter": "Maria Muster","lat": 51.19299669287022}]},{"name": "Pieris rapae","nameDeutsch": "Kleiner Kohlweißling","ordnung": "Schmetterlinge","familie": "Weißlinge","urlWikipedia": "https://de.wikipedia.org/wiki/Kleiner_Kohlwei%C3%9Fling","urlInsektenSachsen": "https://www.insekten-sachsen.de/Pages/TaxonomyBrowser.aspx?Id=440885","urlSonstige": "http://www.lepiforum.de/lepiwiki.pl?Pieris_rapae","beobachtungen": [{"datum": "2018-08-11","fundort": "Musterstadt","anzahl": 1,"stadium": "Alttier/Imago","lon": 5.668324054534109,"pruefung": "iNaturalist","beobachter": "Maria Muster","lat": 50.79572738631259},{"datum": "2012-02-23","fundort": "Musterstadt","anzahl": 1,"stadium": "Alttier/Imago","lon": 13.975534994130655,"pruefung": "Insekten Sachsen","beobachter": "Max Mustermann","lat": 51.16237682549045},{"datum": "2013-05-21","fundort": "Musterstadt","anzahl": 1,"stadium": "Alttier/Imago","lon": 13.708622267828616,"pruefung": "iNaturalist","beobachter": "Max Mustermann","lat": 51.16356628044223},{"datum": "2019-11-07","fundort": "Musterstadt","anzahl": 1,"stadium": "Alttier/Imago","lon": 13.763343155888675,"pruefung": "iNaturalist","beobachter": "Maria Muster","lat": 51.04072384435382}]},{"name": "Issoria lathonia","nameDeutsch": "Kleiner Perlmuttfalter","ordnung": "Schmetterlinge","familie": "Edelfalter","urlWikipedia": "https://de.wikipedia.org/wiki/Kleiner_Perlmuttfalter","urlInsektenSachsen": "https://www.insekten-sachsen.de/Pages/TaxonomyBrowser.aspx?Id=441740","urlSonstige": "http://www.lepiforum.de/lepiwiki.pl?Issoria_lathonia","beobachtungen": [{"datum": "2018-01-02","fundort": "Musterstadt","anzahl": 1,"stadium": "Alttier/Imago","lon": 14.344861628646097,"pruefung": "Insekten Sachsen","beobachter": "Maria Muster","lat": 51.813410270494664},{"datum": "2017-08-31","fundort": "Musterstadt","anzahl": 1,"stadium": "Alttier/Imago","lon": 14.367769811996057,"pruefung": "Insekten Sachsen","beobachter": "Max Mustermann","lat": 51.78485576322183},{"datum": "2014-11-25","fundort": "Musterstadt","anzahl": 1,"stadium": "Alttier/Imago","lon": 14.000968890550189,"pruefung": "Insekten Sachsen","beobachter": "Max Mustermann","lat": 51.218093222089955},{"datum": "2019-10-10","fundort": "Musterstadt","anzahl": 1,"stadium": "Alttier/Imago","lon": 13.948616388951136,"pruefung": "Insekten Sachsen","beobachter": "Maria Muster","lat": 51.18153537627862}]},{"name": "Aricia agestis","nameDeutsch": "Kleiner Sonnenröschenbläuling","ordnung": "Schmetterlinge","familie": "Bläulinge","urlWikipedia": "https://de.wikipedia.org/wiki/Kleiner_Sonnenr%C3%B6schen-Bl%C3%A4uling","urlInsektenSachsen": "https://www.insekten-sachsen.de/Pages/TaxonomyBrowser.aspx?Id=441006","urlSonstige": "http://www.lepiforum.de/lepiwiki.pl?Aricia_agestis","beobachtungen": [{"datum": "2014-10-31","fundort": "Musterstadt","anzahl": 1,"stadium": "Alttier/Imago","lon": 13.738340954905645,"pruefung": "Insekten Sachsen","beobachter": "Maria Muster","lat": 51.04661445149653}]},{"name": "Coenonympha pamphilus","nameDeutsch": "Kleines Wiesenvögelchen","ordnung": "Schmetterlinge","familie": "Edelfalter","urlWikipedia": "https://de.wikipedia.org/wiki/Kleines_Wiesenv%C3%B6gelchen","urlInsektenSachsen": "https://www.insekten-sachsen.de/Pages/TaxonomyBrowser.aspx?Id=441285","urlSonstige": "http://www.lepiforum.de/lepiwiki.pl?Coenonympha_pamphilus","beobachtungen": [{"datum": "2011-01-26","fundort": "Musterstadt","anzahl": 1,"stadium": "Alttier/Imago","lon": 13.961555018604246,"pruefung": "Insekten Sachsen","beobachter": "Maria Muster","lat": 51.19081799257935},{"datum": "2015-05-11","fundort": "Musterstadt","anzahl": 1,"stadium": "Alttier/Imago","lon": 13.844670136715377,"pruefung": "Insekten Sachsen","beobachter": "Max Mustermann","lat": 51.09826198987366},{"datum": "2016-09-23","fundort": "Musterstadt","anzahl": 3,"stadium": "Alttier/Imago","lon": 13.969574003103043,"pruefung": "Insekten Sachsen","beobachter": "Maria Muster","lat": 51.24952872546011},{"datum": "2018-05-08","fundort": "Musterstadt","anzahl": 1,"stadium": "Alttier/Imago","lon": 13.785580439683633,"pruefung": "Insekten Sachsen","beobachter": "Max Mustermann","lat": 51.11762188898898},{"datum": "2019-09-25","fundort": "Musterstadt","anzahl": 1,"stadium": "Alttier/Imago","lon": 14.345346906820753,"pruefung": "Insekten Sachsen","beobachter": "Maria Muster","lat": 51.80206306686755}]},{"name": "Plutella xylostella","nameDeutsch": "Kohlmotte","ordnung": "Schmetterlinge","familie": "Schleier- und Halbmotten","urlWikipedia": "https://de.wikipedia.org/wiki/Kohlschabe","urlInsektenSachsen": "https://www.insekten-sachsen.de/Pages/TaxonomyBrowser.aspx?Id=434016","urlSonstige": "http://www.lepiforum.de/lepiwiki.pl?Plutella_xylostella","beobachtungen": [{"datum": "2018-11-11","fundort": "Musterstadt","anzahl": 1,"stadium": "Alttier/Imago","lon": 13.957833883372047,"pruefung": "Insekten Sachsen","beobachter": "Maria Muster","lat": 51.18140510649349}]},{"name": "Cupido argiades","nameDeutsch": "Kurzschwänziger Bläuling","ordnung": "Schmetterlinge","familie": "Bläulinge","urlWikipedia": "https://de.wikipedia.org/wiki/Kurzschw%C3%A4nziger_Bl%C3%A4uling","urlInsektenSachsen": "https://www.insekten-sachsen.de/Pages/TaxonomyBrowser.aspx?Id=441120","urlSonstige": "http://www.lepiforum.de/lepiwiki.pl?Cupido_argiades","beobachtungen": [{"datum": "2010-09-13","fundort": "Musterstadt","anzahl": 1,"stadium": "Alttier/Imago","lon": 13.729192639727254,"pruefung": "Insekten Sachsen","beobachter": "Maria Muster","lat": 51.04896935661946}]},{"name": "Hyles gallii","nameDeutsch": "Labkrautschwärmer","ordnung": "Schmetterlinge","familie": "Schwärmer","urlWikipedia": "https://de.wikipedia.org/wiki/Labkrautschw%C3%A4rmer","urlInsektenSachsen": "https://www.insekten-sachsen.de/Pages/TaxonomyBrowser.aspx?Id=443793","urlSonstige": "http://www.lepiforum.de/lepiwiki.pl?Hyles_gallii","beobachtungen": [{"datum": "2016-04-11","fundort": "Musterstadt","anzahl": 1,"stadium": "Alttier/Imago","lon": 13.960901562653078,"pruefung": "Insekten Sachsen","beobachter": "Maria Muster","lat": 51.179678468703045},{"datum": "2014-05-12","fundort": "Musterstadt","anzahl": 1,"stadium": "Alttier/Imago","lon": 13.9652560982299,"pruefung": "Insekten Sachsen","beobachter": "Maria Muster","lat": 51.19334954841931}]},{"name": "Junonia lemonias","nameDeutsch": "Lemon Pansy","ordnung": "Schmetterlinge","familie": "Edelfalter","urlWikipedia": "https://en.wikipedia.org/wiki/Junonia_lemonias","beobachtungen": [{"datum": "2015-03-13","fundort": "Musterstadt","anzahl": 1,"stadium": "Alttier/Imago","lon": 98.74477625170287,"pruefung": "iNaturalist","beobachter": "Maria Muster","lat": 7.791329921750775}]},{"name": "Lasiommata megera","nameDeutsch": "Mauerfuchs","ordnung": "Schmetterlinge","familie": "Edelfalter","urlWikipedia": "https://de.wikipedia.org/wiki/Mauerfuchs","urlInsektenSachsen": "https://www.insekten-sachsen.de/Pages/TaxonomyBrowser.aspx?Id=441226","urlSonstige": "http://www.lepiforum.de/lepiwiki.pl?Lasiommata_megera","beobachtungen": [{"datum": "2019-08-02","fundort": "Musterstadt","anzahl": 1,"stadium": "Alttier/Imago","lon": 13.961276645267834,"pruefung": "Insekten Sachsen","beobachter": "Maria Muster","lat": 51.18725089983087},{"datum": "2016-08-25","fundort": "Musterstadt","anzahl": 1,"stadium": "Alttier/Imago","lon": 13.952438608564405,"pruefung": "Insekten Sachsen","beobachter": "Maria Muster","lat": 51.17690852289066},{"datum": "2014-10-19","fundort": "Musterstadt","anzahl": 1,"stadium": "Alttier/Imago","lon": 13.970156606165023,"pruefung": "Insekten Sachsen","beobachter": "Maria Muster","lat": 51.178125385764545}]},{"name": "Pyralis farinalis","nameDeutsch": "Mehlzünsler","ordnung": "Schmetterlinge","familie": "Zünsler","urlWikipedia": "https://de.wikipedia.org/wiki/Mehlz%C3%BCnsler","urlInsektenSachsen": "https://www.insekten-sachsen.de/Pages/TaxonomyBrowser.aspx?Id=442568","urlSonstige": "http://www.lepiforum.de/lepiwiki.pl?Pyralis_farinalis","beobachtungen": [{"datum": "2019-06-06","fundort": "Musterstadt","anzahl": 1,"stadium": "Alttier/Imago","lon": 13.676973275624613,"pruefung": "Insekten Sachsen","beobachter": "Maria Muster","lat": 51.08914108898895}]},{"name": "Deilephila elpenor","nameDeutsch": "Mittlerer Weinschwärmer","ordnung": "Schmetterlinge","familie": "Schwärmer","urlWikipedia": "https://de.wikipedia.org/wiki/Mittlerer_Weinschw%C3%A4rmer","urlInsektenSachsen": "https://www.insekten-sachsen.de/Pages/TaxonomyBrowser.aspx?Id=443736","urlSonstige": "http://www.lepiforum.de/lepiwiki.pl?Deilephila_elpenor","beobachtungen": [{"datum": "2019-01-29","fundort": "Musterstadt","anzahl": 1,"stadium": "Alttier/Imago","lon": 13.962792971974414,"pruefung": "Insekten Sachsen","beobachter": "Maria Muster","lat": 51.247159080236685}]},{"name": "Camptogramma bilineata","nameDeutsch": "Ockergelber Blattspanner","ordnung": "Schmetterlinge","familie": "Spanner","urlWikipedia": "https://de.wikipedia.org/wiki/Ockergelber_Blattspanner","urlInsektenSachsen": "https://www.insekten-sachsen.de/Pages/TaxonomyBrowser.aspx?Id=445244","urlSonstige": "http://www.lepiforum.de/lepiwiki.pl?Camptogramma_bilineata","beobachtungen": [{"datum": "2014-09-19","fundort": "Musterstadt","anzahl": 1,"stadium": "Alttier/Imago","lon": 13.967557281612226,"pruefung": "Insekten Sachsen","beobachter": "Maria Muster","lat": 51.186522632200365},{"datum": "2014-08-05","fundort": "Musterstadt","anzahl": 1,"stadium": "Alttier/Imago","lon": 13.690951320361409,"pruefung": "Insekten Sachsen","beobachter": "Maria Muster","lat": 51.091606508573335},{"datum": "2014-11-11","fundort": "Musterstadt","anzahl": 1,"stadium": "Alttier/Imago","lon": 13.964159127824535,"pruefung": "Insekten Sachsen","beobachter": "Maria Muster","lat": 51.19584781058428}]},{"name": "Catocala elocata","nameDeutsch": "Pappelkarmin","ordnung": "Schmetterlinge","familie": "Eulenfalter","urlWikipedia": "https://de.wikipedia.org/wiki/Pappelkarmin","urlInsektenSachsen": "https://www.insekten-sachsen.de/Pages/TaxonomyBrowser.aspx?Id=446671","urlSonstige": "http://www.lepiforum.de/lepiwiki.pl?Catocala_elocata","beobachtungen": [{"datum": "2019-11-03","fundort": "Musterstadt","anzahl": 1,"stadium": "Alttier/Imago","lon": 13.6808160375204,"pruefung": "Insekten Sachsen","beobachter": "Maria Muster","lat": 51.09498688202831}]},{"name": "Campaea margaritaria","nameDeutsch": "Perlglanzspanner","ordnung": "Schmetterlinge","familie": "Spanner","urlWikipedia": "https://de.wikipedia.org/wiki/Perlglanzspanner","urlInsektenSachsen": "https://www.insekten-sachsen.de/Pages/TaxonomyBrowser.aspx?Id=445941","urlSonstige": "http://www.lepiforum.de/lepiwiki.pl?Campaea_margaritaria","beobachtungen": [{"datum": "2013-02-13","fundort": "Musterstadt","anzahl": 1,"stadium": "Alttier/Imago","lon": 13.945280347158212,"pruefung": "Insekten Sachsen","beobachter": "Maria Muster","lat": 51.18175043399198}]},{"name": "Amphipyra pyramidea","nameDeutsch": "Pyramideneule","ordnung": "Schmetterlinge","familie": "Eulenfalter","urlWikipedia": "https://de.wikipedia.org/wiki/Pyramideneule","urlInsektenSachsen": "https://www.insekten-sachsen.de/Pages/TaxonomyBrowser.aspx?Id=449277","urlSonstige": "http://www.lepiforum.de/lepiwiki.pl?Amphipyra_pyramidea","beobachtungen": [{"datum": "2016-06-17","fundort": "Musterstadt","anzahl": 1,"stadium": "Alttier/Imago","lon": 13.966611242916825,"pruefung": "Insekten Sachsen","beobachter": "Maria Muster","lat": 51.19530782465314}]},{"name": "Peribatodes rhomboidaria","nameDeutsch": "Rauten-Rindenspanner","ordnung": "Schmetterlinge","familie": "Spanner","urlWikipedia": "https://de.wikipedia.org/wiki/Rauten-Rindenspanner","urlInsektenSachsen": "https://www.insekten-sachsen.de/Pages/TaxonomyBrowser.aspx?Id=445775","urlSonstige": "http://www.lepiforum.de/lepiwiki.pl?Peribatodes_rhomboidaria","beobachtungen": [{"datum": "2015-09-12","fundort": "Musterstadt","anzahl": 1,"stadium": "Alttier/Imago","lon": 13.94541788846559,"pruefung": "Insekten Sachsen","beobachter": "Maria Muster","lat": 51.185586649406886},{"datum": "2012-07-22","fundort": "Musterstadt","anzahl": 1,"stadium": "Alttier/Imago","lon": 13.966916664855669,"pruefung": "Insekten Sachsen","beobachter": "Maria Muster","lat": 51.191830684465906}]},{"name": "Pontia edusa","nameDeutsch": "Resedafalter","ordnung": "Schmetterlinge","familie": "Weißlinge","urlWikipedia": "https://de.wikipedia.org/wiki/Resedafalter","urlInsektenSachsen": "https://www.insekten-sachsen.de/Pages/TaxonomyBrowser.aspx?Id=440878","urlSonstige": "http://www.lepiforum.de/lepiwiki.pl?Pontia_edusa","beobachtungen": [{"datum": "2014-02-26","fundort": "Musterstadt","anzahl": 2,"stadium": "Alttier/Imago","lon": 13.946827334689065,"pruefung": "Insekten Sachsen","beobachter": "Maria Muster","lat": 51.180036633506084}]},