[{"name": "Acleris forsskaleana","nameDeutsch": "Ahornwickler","ordnung": "Schmetterlinge","familie": "Wickler","urlWikipedia": "https://en.wikipedia.org/wiki/Acleris_forsskaleana","urlInsektenSachsen": "https://www.insekten-sachsen.de/Pages/TaxonomyBrowser.aspx?Id=439513","urlSonstige": "http://www.lepiforum.de/lepiwiki.pl?Acleris_forsskaleana","beobachtungen": [{"datum": "2020-09-03","fundort": "Musterstadt","anzahl": 1,"stadium": "Imago","lon": 13.727159496655615,"pruefung": "Insekten Sachsen","beobachter": "Max Mustermann","lat": 51.06465999493627}]},{"name": "Acleris variegana","nameDeutsch": "Acleris variegana","ordnung": "Schmetterlinge","familie": "Wickler","urlWikipedia": "https://en.wikipedia.org/wiki/Acleris_variegana","urlInsektenSachsen": "https://www.insekten-sachsen.de/Pages/TaxonomyBrowser.aspx?Id=439533","urlSonstige": "http://www.lepiforum.de/lepiwiki.pl?Acleris_variegana","beobachtungen": [{"datum": "2020-06-13","fundort": "Musterstadt","anzahl": 1,"stadium": "Imago","lon": 13.991432205474563,"pruefung": "Insekten Sachsen","beobachter": "Max Mustermann","lat": 51.17369178696792},{"datum": "2015-01-25","fundort": "Musterstadt","anzahl": 1,"stadium": "Imago","lon": 13.68099102216926,"pruefung": "Insekten Sachsen","beobachter": "Maria Muster","lat": 51.10199797332715}]},{"name": "Acronicta aceris","nameDeutsch": "Ahorneule","ordnung": "Schmetterlinge","familie": "Eulenfalter","urlWikipedia": "https://de.wikipedia.org/wiki/Ahorn-Rindeneule","urlInsektenSachsen": "https://www.insekten-sachsen.de/Pages/TaxonomyBrowser.aspx?Id=449422","urlSonstige": "http://www.lepiforum.de/lepiwiki.pl?Acronicta_Aceris","beobachtungen": [{"datum": "2013-12-01","fundort": "Musterstadt","anzahl": 1,"stadium": "Larve","lon": 13.99795005043214,"pruefung": "Insekten Sachsen","beobachter": "Max Mustermann","lat": 51.1672100111351},{"datum": "2013-09-22","fundort": "Musterstadt","anzahl": 1,"stadium": "Imago","lon": 13.974182904798086,"pruefung": "Insekten Sachsen","beobachter": "Max Mustermann","lat": 51.16299360170579}]},{"name": "Acronicta leporina","nameDeutsch": "Woll-Rindeneule","ordnung": "Schmetterlinge","familie": "Eulenfalter","urlWikipedia": "https://de.wikipedia.org/wiki/Woll-Rindeneule","urlInsektenSachsen": "https://www.insekten-sachsen.de/Pages/TaxonomyBrowser.aspx?Id=449425","urlSonstige": "http://www.lepiforum.de/lepiwiki.pl?Acronicta_leporina","beobachtungen": [{"datum": "2014-03-06","fundort": "Musterstadt","anzahl": 1,"stadium": "Imago","lon": 13.697685740794327,"pruefung": "Insekten Sachsen","beobachter": "Max Mustermann","lat": 51.07074645946944}]},{"name": "Acronicta rumicis","nameDeutsch": "Ampfereule","ordnung": "Schmetterlinge","familie": "Eulenfalter","urlWikipedia": "https://de.wikipedia.org/wiki/Ampfer-Rindeneule","urlInsektenSachsen": "https://www.insekten-sachsen.de/Pages/TaxonomyBrowser.aspx?Id=449434","urlSonstige": "http://www.lepiforum.de/lepiwiki.pl?Acronicta_rumicis","beobachtungen": [{"datum": "2018-08-08","fundort": "Musterstadt","anzahl": 1,"stadium": "Imago","lon": 13.703235906917907,"pruefung": "Insekten Sachsen","beobachter": "Max Mustermann","lat": 51.07469132142706}]},{"name": "Adalia bipunctata","nameDeutsch": "Zweipunkt-Marienkäfer","ordnung": "Käfer","familie": "Marienkäfer","urlWikipedia": "https://de.wikipedia.org/wiki/Zweipunkt-Marienk%C3%A4fer","urlInsektenSachsen": "https://www.insekten-sachsen.de/Pages/TaxonomyBrowser.aspx?Id=230472","beobachtungen": [{"datum": "2019-02-05","fundort": "Musterstadt","anzahl": 1,"stadium": "Imago","lon": 13.71639836561053,"pruefung": "Insekten Sachsen","beobachter": "Max Mustermann","lat": 51.06505510571414}]},{"name": "Adalia decempunctata","nameDeutsch": "Zehnpunkt-Marienkäfer","ordnung": "Käfer","familie": "Marienkäfer","urlWikipedia": "https://de.wikipedia.org/wiki/Zehnpunkt-Marienk%C3%A4fer","urlInsektenSachsen": "https://www.insekten-sachsen.de/Pages/TaxonomyBrowser.aspx?Id=230476","beobachtungen": [{"datum": "2014-06-18","fundort": "Musterstadt","anzahl": 1,"stadium": "Imago","lon": 13.995925133046896,"pruefung": "Insekten Sachsen","beobachter": "Max Mustermann","lat": 51.17438244226292},{"datum": "2014-09-24","fundort": "Musterstadt","anzahl": 1,"stadium": "Imago","lon": 13.848465415132589,"pruefung": "Insekten Sachsen","beobachter": "Max Mustermann","lat": 51.17315257617715}]},{"name": "Aedia funesta","nameDeutsch": "Zaunwinden-Trauereule","ordnung": "Schmetterlinge","familie": "Eulenfalter","urlWikipedia": "https://de.wikipedia.org/wiki/Zaunwinden-Trauereule","urlInsektenSachsen": "https://www.insekten-sachsen.de/Pages/TaxonomyBrowser.aspx?Id=449486","urlSonstige": "http://www.lepiforum.de/lepiwiki.pl?Aedia_funesta","beobachtungen": [{"datum": "2018-12-23","fundort": "Musterstadt","anzahl": 1,"stadium": "Imago","lon": 13.991669746781941,"pruefung": "Insekten Sachsen","beobachter": "Max Mustermann","lat": 51.15742800238282}]},{"name": "Aelia acuminata","nameDeutsch": "Spitzling","ordnung": "Schnabelkerfen","familie": "Baumwanzen","urlWikipedia": "https://de.wikipedia.org/wiki/Getreidewanze","urlInsektenSachsen": "https://www.insekten-sachsen.de/Pages/TaxonomyBrowser.aspx?Id=454059","beobachtungen": [{"datum": "2015-07-28","fundort": "Musterstadt","anzahl": 1,"stadium": "Imago","lon": 13.977390961829771,"pruefung": "Insekten Sachsen","beobachter": "Max Mustermann","lat": 51.175356037093884},{"datum": "2017-04-20","fundort": "Musterstadt","anzahl": 1,"stadium": "Imago","lon": 13.97913092198651,"pruefung": "Insekten Sachsen","beobachter": "Max Mustermann","lat": 51.16307986539563},{"datum": "2017-03-28","fundort": "Musterstadt","anzahl": 1,"stadium": "Imago","lon": 13.72339453467819,"pruefung": "Insekten Sachsen","beobachter": "Max Mustermann","lat": 51.064344990574895}]},{"name": "Aeshna cyanea","nameDeutsch": "Blaugrüne Mosaikjungfer","ordnung": "Libellen","familie": "Edellibellen","urlWikipedia": "https://de.wikipedia.org/wiki/Blaugr%C3%BCne_Mosaikjungfer","urlInsektenSachsen": "https://www.insekten-sachsen.de/Pages/TaxonomyBrowser.aspx?Id=214303","urlSonstige": "https://libellenwissen.de/libellenarten/grosslibellen/edellibellen-aeshnidae/blaugruene-mosaikjungfer/","beobachtungen": [{"datum": "2014-11-19","fundort": "Musterstadt","anzahl": 1,"stadium": "Imago","lon": 13.95859988430856,"pruefung": "Insekten Sachsen","beobachter": "Max Mustermann","lat": 51.18126514917747}]},{"name": "Aeshna mixta","nameDeutsch": "Herbst-Mosaikjungfer","ordnung": "Libellen","familie": "Edellibellen","urlWikipedia": "https://de.wikipedia.org/wiki/Herbst-Mosaikjungfer","urlInsektenSachsen": "https://www.insekten-sachsen.de/Pages/TaxonomyBrowser.aspx?Id=214308","urlSonstige": "https://libellenwissen.de/libellenarten/grosslibellen/edellibellen-aeshnidae/herbst-mosaikjungfer/","beobachtungen": [{"datum": "2020-10-03","fundort": "Musterstadt","anzahl": 1,"stadium": "Imago","lon": 14.374262343001181,"pruefung": "Insekten Sachsen","beobachter": "Max Mustermann","lat": 51.787628933762576},{"datum": "2017-10-14","fundort": "Musterstadt","anzahl": 1,"stadium": "Imago","lon": 14.362626630302932,"pruefung": "Insekten Sachsen","beobachter": "Max Mustermann","lat": 51.77674616552742}]},{"name": "Aglais io","nameDeutsch": "Tagpfauenauge","ordnung": "Schmetterlinge","familie": "Edelfalter","urlWikipedia": "https://de.wikipedia.org/wiki/Tagpfauenauge","urlInsektenSachsen": "https://www.insekten-sachsen.de/Pages/TaxonomyBrowser.aspx?Id=441678","urlSonstige": "http://www.lepiforum.de/lepiwiki.pl?Aglais_Io","beobachtungen": [{"datum": "2013-08-25","fundort": "Musterstadt","anzahl": 1,"stadium": "Imago","lon": 6.654610776765215,"pruefung": "iNaturalist","beobachter": "Max Mustermann","lat": 49.43293197121833},{"datum": "2013-09-25","fundort": "Musterstadt","anzahl": 1,"stadium": "Imago","lon": 13.484031083899136,"pruefung": "Insekten Sachsen","beobachter": "Max Mustermann","lat": 50.65108297842353},{"datum": "2016-10-07","fundort": "Musterstadt","anzahl": 1,"stadium": "Imago","lon": 13.768023087851574,"pruefung": "Insekten Sachsen","beobachter": "Max Mustermann","lat": 51.02433401665085},{"datum": "2015-11-23","fundort": "Musterstadt","anzahl": 1,"stadium": "Imago","lon": 13.95529543834873,"pruefung": "Insekten Sachsen","beobachter": "Max Mustermann","lat": 50.81890185936513},{"datum": "2020-01-28","fundort": "Musterstadt","anzahl": 3,"stadium": "Imago","lon": 14.356570980525634,"pruefung": "Insekten Sachsen","beobachter": "Max Mustermann","lat": 51.78475069580114},{"datum": "2018-11-14","fundort": "Musterstadt","anzahl": 1,"stadium": "Imago","lon": 14.000107230001365,"pruefung": "Insekten Sachsen","beobachter": "Max Mustermann","lat": 51.1657229686967},{"datum": "2014-08-28","fundort": "Musterstadt","anzahl": 1,"stadium": "Imago","lon": 12.416042026950315,"pruefung": "iNaturalist","beobachter": "Max Mustermann","lat": 54.33356218648845},{"datum": "2015-02-06","fundort": "Musterstadt","anzahl": 1,"stadium": "Imago","lon": 13.943974763662322,"pruefung": "Insekten Sachsen","beobachter": "Maria Muster","lat": 51.18646542281491},{"datum": "2016-08-21","fundort": "Musterstadt","anzahl": 1,"stadium": "Imago","lon": 13.970896150592008,"pruefung": "Insekten Sachsen","beobachter": "Maria Muster","lat": 51.190351697688996},{"datum": "2012-04-29","fundort": "Musterstadt","anzahl": 1,"stadium": "Imago","lon": 13.960999483971527,"pruefung": "Insekten Sachsen","beobachter": "Maria Muster","lat": 51.18875106171441},{"datum": "2015-01-28","fundort": "Musterstadt","anzahl": 1,"stadium": "Imago","lon": 14.382399230226591,"pruefung": "iNaturalist","beobachter": "Max Mustermann","lat": 51.77725360507143}]},{"name": "Aglais urticae","nameDeutsch": "Kleiner Fuchs","ordnung": "Schmetterlinge","familie": "Edelfalter","urlWikipedia": "https://de.wikipedia.org/wiki/Kleiner_Fuchs","urlInsektenSachsen": "https://www.insekten-sachsen.de/Pages/TaxonomyBrowser.aspx?ID=441679","urlSonstige": "http://www.lepiforum.de/lepiwiki.pl?Aglais_urticae","beobachtungen": [{"datum": "2014-04-11","fundort": "Musterstadt","anzahl": 1,"stadium": "Imago","lon": 13.987806624042033,"pruefung": "Insekten Sachsen","beobachter": "Max Mustermann","lat": 51.161484770265254},{"datum": "2012-11-21","fundort": "Musterstadt","anzahl": 1,"stadium": "Imago","lon": 13.992031408618459,"pruefung": "Insekten Sachsen","beobachter": "Max Mustermann","lat": 51.17228920507537},{"datum": "2020-06-05","fundort": "Musterstadt","anzahl": 1,"stadium": "Imago","lon": 13.98678019419834,"pruefung": "Insekten Sachsen","beobachter": "Max Mustermann","lat": 51.16001206910078},{"datum": "2015-12-31","fundort": "Musterstadt","anzahl": 1,"stadium": "Imago","lon": 14.570107733016503,"pruefung": "Insekten Sachsen","beobachter": "Maria Muster","lat": 51.0201408756653},{"datum": "2017-08-21","fundort": "Musterstadt","anzahl": 1,"stadium": "Imago","lon": 14.576060701994201,"pruefung": "Insekten Sachsen","beobachter": "Max Mustermann","lat": 50.99358684177698},{"datum": "2019-10-01","fundort": "Musterstadt","anzahl": 3,"stadium": "Imago","lon": 13.952015938629819,"pruefung": "Insekten Sachsen","beobachter": "Max Mustermann","lat": 50.828053107155576}]},{"name": "Agriopis marginaria","nameDeutsch": "Graugelber Breitflügelspanner","ordnung": "Schmetterlinge","familie": "Spanner","urlWikipedia": "https://de.wikipedia.org/wiki/Graugelber_Breitfl%C3%BCgelspanner","urlInsektenSachsen": "https://www.insekten-sachsen.de/Pages/TaxonomyBrowser.aspx?Id=445603","urlSonstige": "http://www.lepiforum.de/lepiwiki.pl?Agriopis_marginaria","beobachtungen": [{"datum": "2019-03-10","fundort": "Musterstadt","anzahl": 1,"stadium": "Imago","lon": 13.990492480974835,"pruefung": "Insekten Sachsen","beobachter": "Max Mustermann","lat": 51.14086608055722}]},{"name": "Agriphila geniculea","nameDeutsch": "Agriphila geniculea","ordnung": "Schmetterlinge","familie": "Crambidae","urlWikipedia": "https://en.wikipedia.org/wiki/Agriphila_geniculea","urlInsektenSachsen": "https://www.insekten-sachsen.de/Pages/TaxonomyBrowser.aspx?Id=443235","urlSonstige": "http://www.lepiforum.de/lepiwiki.pl?Agriphila_geniculea","beobachtungen": [{"datum": "2016-09-15","fundort": "Musterstadt","anzahl": 1,"stadium": "Imago","lon": 13.980146016294599,"pruefung": "Insekten Sachsen","beobachter": "Max Mustermann","lat": 51.162420753058726}]},{"name": "Agriphila inquinatella","nameDeutsch": "Agriphila inquinatella","ordnung": "Schmetterlinge","familie": "Crambidae","urlWikipedia": "https://en.wikipedia.org/wiki/Agriphila_inquinatella","urlInsektenSachsen": "https://www.insekten-sachsen.de/Pages/TaxonomyBrowser.aspx?Id=443218","urlSonstige": "http://www.lepiforum.de/lepiwiki.pl?Agriphila_Inquinatella","beobachtungen": [{"datum": "2019-09-02","fundort": "Musterstadt","anzahl": 1,"stadium": "Imago","lon": 13.993037093815811,"pruefung": "Insekten Sachsen","beobachter": "Max Mustermann","lat": 51.165911640975146}]},{"name": "Agrochola lychnidis","nameDeutsch": "Veränderliche Herbsteule","ordnung": "Schmetterlinge","familie": "Eulenfalter","urlWikipedia": "https://de.wikipedia.org/wiki/Ver%C3%A4nderliche_Herbsteule","urlInsektenSachsen": "https://www.insekten-sachsen.de/Pages/TaxonomyBrowser.aspx?Id=447737","urlSonstige": "http://www.lepiforum.de/lepiwiki.pl?Agrochola_lychnidis","beobachtungen": [{"datum": "2020-12-25","fundort": "Musterstadt","anzahl": 1,"stadium": "Imago","lon": 13.703890630029644,"pruefung": "Insekten Sachsen","beobachter": "Max Mustermann","lat": 51.07186631347666}]},{"name": "Agrotis exclamationis","nameDeutsch": "Ausrufungszeichen","ordnung": "Schmetterlinge","familie": "Eulenfalter","urlWikipedia": "https://de.wikipedia.org/wiki/Ausrufungszeichen","urlInsektenSachsen": "https://www.insekten-sachsen.de/Pages/TaxonomyBrowser.aspx?Id=448466","urlSonstige": "http://www.lepiforum.de/lepiwiki.pl?Agrotis_exclamationis","beobachtungen": [{"datum": "2017-06-21","fundort": "Musterstadt","anzahl": 1,"stadium": "Imago","lon": 13.997017397913044,"pruefung": "Insekten Sachsen","beobachter": "Max Mustermann","lat": 51.175393649429395},{"datum": "2020-03-17","fundort": "Musterstadt","anzahl": 1,"stadium": "Imago","lon": 13.727561772887656,"pruefung": "Insekten Sachsen","beobachter": "Max Mustermann","lat": 51.07293132961261}]},{"name": "Agrotis ipsilon","nameDeutsch": "Ypsilon-Eule","ordnung": "Schmetterlinge","familie": "Eulenfalter","urlWikipedia": "https://de.wikipedia.org/wiki/Ypsiloneule","urlInsektenSachsen": "https://www.insekten-sachsen.de/Pages/TaxonomyBrowser.aspx?Id=448502","urlSonstige": "http://www.lepiforum.de/lepiwiki.pl?Agrotis_ipsilon","beobachtungen": [{"datum": "2012-06-03","fundort": "Musterstadt","anzahl": 1,"stadium": "Imago","lon": 13.979808474987221,"pruefung": "Insekten Sachsen","beobachter": "Max Mustermann","lat": 51.158684537345806}]},{"name": "Agrotis segetum","nameDeutsch": "Wintersaateule","ordnung": "Schmetterlinge","familie": "Eulenfalter","urlWikipedia": "https://de.wikipedia.org/wiki/Saateule","urlInsektenSachsen": "https://www.insekten-sachsen.de/Pages/TaxonomyBrowser.aspx?Id=448472","urlSonstige": "http://www.lepiforum.de/lepiwiki.pl?Agrotis_segetum","urlVideo": "https://youtu.be/96tLXJ72NSY","beobachtungen": [{"datum": "2020-12-18","fundort": "Musterstadt","anzahl": 1,"stadium": "Imago","lon": 13.825826641776457,"pruefung": "Insekten Sachsen","beobachter": "Maria Muster","lat": 51.18419846698547},{"datum": "2015-07-18","fundort": "Musterstadt","anzahl": 1,"stadium": "Larve","lon": 13.683393436763364,"pruefung": "Insekten Sachsen","beobachter": "Maria Muster","lat": 51.093147067572716},{"datum": "2014-09-24","fundort": "Musterstadt","anzahl": 1,"stadium": "Imago","lon": 13.710354723818732,"pruefung": "Insekten Sachsen","beobachter": "Max Mustermann","lat": 51.078834186860895}]},{"name": "Agrypnus murinus","nameDeutsch": "Mausgrauer Schnellkäfer","ordnung": "Käfer","familie": "Schnellkäfer","urlWikipedia": "https://de.wikipedia.org/wiki/Mausgrauer_Schnellk%C3%A4fer","urlInsektenSachsen": "https://www.insekten-sachsen.de/Pages/TaxonomyBrowser.aspx?Id=235467","beobachtungen": [{"datum": "2020-02-22","fundort": "Musterstadt","anzahl": 1,"stadium": "Imago","lon": 13.829882028041409,"pruefung": "Insekten Sachsen","beobachter": "Maria Muster","lat": 51.20105290656754},{"datum": "2015-04-25","fundort": "Musterstadt","anzahl": 1,"stadium": "Imago","lon": 13.945458618897963,"pruefung": "Insekten Sachsen","beobachter": "Maria Muster","lat": 51.18246813013936}]},{"name": "Alosterna tabacicolor","nameDeutsch": "Feldahornbock","ordnung": "Käfer","familie": "Bockkäfer","urlWikipedia": "https://de.wikipedia.org/wiki/Feldahorn-Bock","urlInsektenSachsen": "https://www.insekten-sachsen.de/Pages/TaxonomyBrowser.aspx?Id=114871","beobachtungen": [{"datum": "2016-07-19","fundort": "Musterstadt","anzahl": 2,"stadium": "Imago","lon": 13.698946337679223,"pruefung": "Insekten Sachsen","beobachter": "Maria Muster","lat": 51.18031645793517}]},{"name": "Alucita hexadactyla","nameDeutsch": "Geißblattgeistchen","ordnung": "Schmetterlinge","familie": "Federgeistchen","urlWikipedia": "https://de.wikipedia.org/wiki/Federgeistchen_(Familie)","urlInsektenSachsen": "https://www.insekten-sachsen.de/Pages/TaxonomyBrowser.aspx?Id=437879","urlSonstige": "http://www.lepiforum.de/lepiwiki.pl?Alucita_hexadactyla","beobachtungen": [{"datum": "2019-11-13","fundort": "Musterstadt","anzahl": 1,"stadium": "Imago","lon": 13.95591064687,"pruefung": "Insekten Sachsen","beobachter": "Maria Muster","lat": 51.18168000989885},{"datum": "2017-10-07","fundort": "Musterstadt","anzahl": 2,"stadium": "Imago","lon": 13.96426291058154,"pruefung": "Insekten Sachsen","beobachter": "Maria Muster","lat": 51.18160182970955}]},{"name": "Alydus calcaratus","nameDeutsch": "Rotrückiger Irrwisch","ordnung": "Schnabelkerfen","familie": "Krummfühlerwanzen","urlWikipedia": "https://de.wikipedia.org/wiki/Alydus_calcaratus","urlInsektenSachsen": "https://www.insekten-sachsen.de/Pages/TaxonomyBrowser.aspx?Id=453680","beobachtungen": [{"datum": "2015-10-30","fundort": "Musterstadt","anzahl": 1,"stadium": "Imago","lon": 13.955060481193454,"pruefung": "Insekten Sachsen","beobachter": "Maria Muster","lat": 51.18673514794123}]},{"name": "Amara aenea","nameDeutsch": "Erzfarbener Kanalkäfer","ordnung": "Käfer","familie": "Laufkäfer","urlWikipedia": "https://de.wikipedia.org/wiki/Erzfarbener_Kanalk%C3%A4fer","urlInsektenSachsen": "https://www.insekten-sachsen.de/Pages/TaxonomyBrowser.aspx?Id=382134","beobachtungen": [{"datum": "2016-05-15","fundort": "Musterstadt","anzahl": 1,"stadium": "Imago","lon": 13.690933713310054,"pruefung": "Insekten Sachsen","beobachter": "Maria Muster","lat": 51.083507811690474}]},{"name": "Ampedus balteatus","nameDeutsch": "Gegürtelter Schnellkäfer","ordnung": "Käfer","familie": "Schnellkäfer","urlWikipedia": "https://de.wikipedia.org/wiki/Geg%C3%BCrtelter_Schnellk%C3%A4fer","urlInsektenSachsen": "https://www.insekten-sachsen.de/Pages/TaxonomyBrowser.aspx?Id=235484","beobachtungen": [{"datum": "2013-12-05","fundort": "Musterstadt","anzahl": 1,"stadium": "Imago","lon": 13.963771254617432,"pruefung": "Insekten Sachsen","beobachter": "Maria Muster","lat": 51.18064402740339}]},{"name": "Ampedus sanguineus","nameDeutsch": "Blutroter Schnellkäfer","ordnung": "Käfer","familie": "Schnellkäfer","urlWikipedia": "https://de.wikipedia.org/wiki/Blutroter_Schnellk%C3%A4fer","urlInsektenSachsen": "https://www.insekten-sachsen.de/Pages/TaxonomyBrowser.aspx?Id=235543","beobachtungen": [{"datum": "2011-02-02","fundort": "Musterstadt","anzahl": 1,"stadium": "Imago","lon": 13.972644486734033,"pruefung": "Insekten Sachsen","beobachter": "Maria Muster","lat": 51.19081669085461}]},{"name": "Amphimallon solstitiale","nameDeutsch": "Junikäfer","ordnung": "Käfer","familie": "Blatthornkäfer","urlWikipedia": "https://de.wikipedia.org/wiki/Gerippter_Brachk%C3%A4fer","urlInsektenSachsen": "https://www.insekten-sachsen.de/Pages/TaxonomyBrowser.aspx?Id=257482","beobachtungen": [{"datum": "2015-07-18","fundort": "Musterstadt","anzahl": 1,"stadium": "Imago","lon": 13.959579745528622,"pruefung": "Insekten Sachsen","beobachter": "Maria Muster","lat": 51.1873954756427},{"datum": "2011-02-19","fundort": "Musterstadt","anzahl": 11,"stadium": "Imago","lon": 13.98964567233858,"pruefung": "Insekten Sachsen","beobachter": "Max Mustermann","lat": 51.17026556972885},{"datum": "2020-05-19","fundort": "Musterstadt","anzahl": 2,"stadium": "Imago","lon": 13.976833608284604,"pruefung": "Insekten Sachsen","beobachter": "Max Mustermann","lat": 51.16963561807385}]},{"name": "Amphipyra berbera","nameDeutsch": "Svenssons Pyramideneule","ordnung": "Schmetterlinge","familie": "Eulenfalter","urlWikipedia": "https://de.wikipedia.org/wiki/Svenssons_Pyramideneule","urlInsektenSachsen": "https://www.insekten-sachsen.de/Pages/TaxonomyBrowser.aspx?Id=449278","urlSonstige": "http://www.lepiforum.de/lepiwiki.pl?Amphipyra_berbera","beobachtungen": [{"datum": "2020-10-05","fundort": "Musterstadt","anzahl": 1,"stadium": "Imago","lon": 13.709978658398192,"pruefung": "Insekten Sachsen","beobachter": "Maria Muster","lat": 51.09224309572562}]},{"name": "Amphipyra pyramidea","nameDeutsch": "Pyramideneule","ordnung": "Schmetterlinge","familie": "Eulenfalter","urlWikipedia": "https://de.wikipedia.org/wiki/Pyramideneule","urlInsektenSachsen": "https://www.insekten-sachsen.de/Pages/TaxonomyBrowser.aspx?Id=449277","urlSonstige": "http://www.lepiforum.de/lepiwiki.pl?Amphipyra_pyramidea","beobachtungen": [{"datum": "2011-11-16","fundort": "Musterstadt","anzahl": 1,"stadium": "Imago","lon": 13.969718476188557,"pruefung": "Insekten Sachsen","beobachter": "Maria Muster","lat": 51.180009598768386}]},{"name": "Anacridium aegyptium","nameDeutsch": "Ägyptische Wanderheuschrecke","ordnung": "Heuschrecken","familie": "Feldheuschrecken","urlWikipedia": "https://de.wikipedia.org/wiki/%C3%84gyptische_Wanderheuschrecke","urlSonstige": "http://www.orthoptera.ch/arten/item/anacridium-aegyptium","beobachtungen": [{"datum": "2012-02-23","fundort": "Musterstadt","anzahl": 1,"stadium": "Imago","lon": 3.3684971903935796,"pruefung": "iNaturalist","beobachter": "Maria Muster","lat": 39.609223962456475}]},{"name": "Anania hortulata","nameDeutsch": "Brennnesselzünsler","ordnung": "Schmetterlinge","familie": "Crambidae","urlWikipedia": "https://de.wikipedia.org/wiki/Brennnesselz%C3%BCnsler","urlInsektenSachsen": "https://www.insekten-sachsen.de/Pages/TaxonomyBrowser.aspx?Id=442814","urlSonstige": "http://www.lepiforum.de/lepiwiki.pl?Anania_hortulata","beobachtungen": [{"datum": "2013-01-11","fundort": "Musterstadt","anzahl": 1,"stadium": "Imago","lon": 13.96554353006888,"pruefung": "Insekten Sachsen","beobachter": "Maria Muster","lat": 51.18676160291869},{"datum": "2018-05-07","fundort": "Musterstadt","anzahl": 1,"stadium": "Imago","lon": 14.598632960988613,"pruefung": "Insekten Sachsen","beobachter": "Max Mustermann","lat": 50.996167583748154},{"datum": "2017-11-23","fundort": "Musterstadt","anzahl": 1,"stadium": "Imago","lon": 13.964068913374907,"pruefung": "Insekten Sachsen","beobachter": "Maria Muster","lat": 51.181586806745884}]},{"name": "Anania verbascalis","nameDeutsch": "Anania verbascalis","ordnung": "Schmetterlinge","familie": "Crambidae","urlWikipedia": "https://de.wikipedia.org/wiki/Anania_verbascalis","urlInsektenSachsen": "https://www.insekten-sachsen.de/Pages/TaxonomyBrowser.aspx?Id=442823","urlSonstige": "http://www.lepiforum.de/lepiwiki.pl?Anania_verbascalis","beobachtungen": [{"datum": "2015-05-22","fundort": "Musterstadt","anzahl": 1,"stadium": "Imago","lon": 14.5846168789866,"pruefung": "Insekten Sachsen","beobachter": "Maria Muster","lat": 51.025985673648094}]},{"name": "Andrena gravida","nameDeutsch": "Schwere Sandbiene","ordnung": "Hautflügler","familie": "Andrenidae","urlWikipedia": "https://de.wikipedia.org/wiki/Andrena_gravida","urlInsektenSachsen": "https://www.insekten-sachsen.de/Pages/TaxonomyBrowser.aspx?Id=231443","beobachtungen": [{"datum": "2014-01-11","fundort": "Musterstadt","anzahl": 1,"stadium": "Imago","lon": 13.695021420293978,"pruefung": "Insekten Sachsen","beobachter": "Maria Muster","lat": 51.09888888906299}]},{"name": "Anisodactylus binotatus","nameDeutsch": "Gewöhnlicher Rotstirnläufer","ordnung": "Käfer","familie": "Laufkäfer","urlWikipedia": "https://en.wikipedia.org/wiki/Anisodactylus_binotatus","urlInsektenSachsen": "https://www.insekten-sachsen.de/Pages/TaxonomyBrowser.aspx?Id=379468","beobachtungen": [{"datum": "2012-03-17","fundort": "Musterstadt","anzahl": 1,"stadium": "Imago","lon": 13.943594652410578,"pruefung": "Insekten Sachsen","beobachter": "Maria Muster","lat": 51.18576155281224}]},{"name": "Anoplotrupes stercorosus","nameDeutsch": "Waldmistkäfer","ordnung": "Käfer","familie": "Mistkäfer","urlWikipedia": "https://de.wikipedia.org/wiki/Waldmistk%C3%A4fer","urlInsektenSachsen": "https://www.insekten-sachsen.de/Pages/TaxonomyBrowser.aspx?Id=188514","beobachtungen": [{"datum": "2014-11-29","fundort": "Musterstadt","anzahl": 1,"stadium": "Imago","lon": 13.924603575336402,"pruefung": "Insekten Sachsen","beobachter": "Maria Muster","lat": 51.19167066519385},{"datum": "2014-04-29","fundort": "Musterstadt","anzahl": 1,"stadium": "Imago","lon": 14.75110265301068,"pruefung": "Insekten Sachsen","beobachter": "Max Mustermann","lat": 50.830691620786155}]},{"name": "Anthophila fabriciana","nameDeutsch": "Brennnessel-Spreizflügelfalter","ordnung": "Schmetterlinge","familie": "Spreizflügelfalter","urlWikipedia": "https://en.wikipedia.org/wiki/Anthophila_fabriciana","urlInsektenSachsen": "https://www.insekten-sachsen.de/Pages/TaxonomyBrowser.aspx?Id=438467","urlSonstige": "http://www.lepiforum.de/lepiwiki.pl?Anthophila_fabriciana","beobachtungen": [{"datum": "2019-03-10","fundort": "Musterstadt","anzahl": 1,"stadium": "Imago","lon": 14.574467884974213,"pruefung": "Insekten Sachsen","beobachter": "Maria Muster","lat": 51.03033421656148},{"datum": "2016-08-30","fundort": "Musterstadt","anzahl": 1,"stadium": "Imago","lon": 14.744350506945374,"pruefung": "Insekten Sachsen","beobachter": "Max Mustermann","lat": 50.84107477115007}]},{"name": "Anthophora plumipes","nameDeutsch": "Frühlings-Pelzbiene","ordnung": "Hautflügler","familie": "Echte Bienen","urlWikipedia": "https://de.wikipedia.org/wiki/Gemeine_Pelzbiene","urlInsektenSachsen": "https://www.insekten-sachsen.de/Pages/TaxonomyBrowser.aspx?Id=231817","beobachtungen": [{"datum": "2013-11-05","fundort": "Musterstadt","anzahl": 1,"stadium": "Imago","lon": 13.966207786696549,"pruefung": "Insekten Sachsen","beobachter": "Maria Muster","lat": 51.17797280724992}]},{"name": "Anthrax anthrax","nameDeutsch": "Gemeiner Trauerschweber","ordnung": "Zweiflügler","familie": "Wollschweber","urlWikipedia": "https://de.wikipedia.org/wiki/Anthrax_anthrax","urlInsektenSachsen": "https://www.insekten-sachsen.de/Pages/TaxonomyBrowser.aspx?Id=130025","beobachtungen": [{"datum": "2014-09-12","fundort": "Musterstadt","anzahl": 1,"stadium": "Imago","lon": 13.802019901595948,"pruefung": "Insekten Sachsen","beobachter": "Maria Muster","lat": 51.194578845599665},{"datum": "2018-11-09","fundort": "Musterstadt","anzahl": 1,"stadium": "Imago","lon": 13.691279913615087,"pruefung": "Insekten Sachsen","beobachter": "Maria Muster","lat": 51.095433515260446}]},{"name": "Anthrenus scrophulariae","nameDeutsch": "Teppichkäfer","ordnung": "Käfer","familie": "Speckkäfer","urlWikipedia": "https://de.wikipedia.org/wiki/Teppichk%C3%A4fer","urlInsektenSachsen": "https://www.insekten-sachsen.de/Pages/TaxonomyBrowser.aspx?Id=413712","beobachtungen": [{"datum": "2012-04-10","fundort": "Musterstadt","anzahl": 1,"stadium": "Imago","lon": 13.69378421123376,"pruefung": "Insekten Sachsen","beobachter": "Maria Muster","lat": 51.088342397563345}]},{"name": "Anthrenus verbasci","nameDeutsch": "Wollkrautblütenkäfer","ordnung": "Käfer","familie": "Speckkäfer","urlWikipedia": "https://de.wikipedia.org/wiki/Wollkrautbl%C3%BCtenk%C3%A4fer","urlInsektenSachsen": "https://www.insekten-sachsen.de/Pages/TaxonomyBrowser.aspx?Id=413742","beobachtungen": [{"datum": "2019-02-15","fundort": "Musterstadt","anzahl": 1,"stadium": "Imago","lon": 13.958025818875038,"pruefung": "Insekten Sachsen","beobachter": "Maria Muster","lat": 51.1953206462302},{"datum": "2019-09-13","fundort": "Musterstadt","anzahl": 1,"stadium": "Imago","lon": 13.994215795148369,"pruefung": "Insekten Sachsen","beobachter": "Max Mustermann","lat": 51.16543278487134},{"datum": "2019-03-14","fundort": "Musterstadt","anzahl": 1,"stadium": "Imago","lon": 13.988022986847898,"pruefung": "Insekten Sachsen","beobachter": "Max Mustermann","lat": 51.16059792539319},{"datum": "2018-04-22","fundort": "Musterstadt","anzahl": 1,"stadium": "Imago","lon": 13.716980243557101,"pruefung": "Insekten Sachsen","beobachter": "Max Mustermann","lat": 51.07271360776886}]},{"name": "Apamea monoglypha","nameDeutsch": "Wurzelfresser","ordnung": "Schmetterlinge","familie": "Eulenfalter","urlWikipedia": "https://de.wikipedia.org/wiki/Gro%C3%9Fe_Grasb%C3%BCscheleule","urlInsektenSachsen": "https://www.insekten-sachsen.de/Pages/TaxonomyBrowser.aspx?Id=447443","urlSonstige": "http://www.lepiforum.de/lepiwiki.pl?Apamea_monoglypha","beobachtungen": [{"datum": "2013-05-26","fundort": "Musterstadt","anzahl": 1,"stadium": "Imago","lon": 13.944544818534158,"pruefung": "Insekten Sachsen","beobachter": "Maria Muster","lat": 51.18080641476986},{"datum": "2016-04-06","fundort": "Musterstadt","anzahl": 1,"stadium": "Imago","lon": 13.946597403280585,"pruefung": "Insekten Sachsen","beobachter": "Maria Muster","lat": 51.185174540789085}]},{"name": "Apatura iris","nameDeutsch": "Großer Schillerfalter","ordnung": "Schmetterlinge","familie": "Edelfalter","urlWikipedia": "https://de.wikipedia.org/wiki/Gro%C3%9Fer_Schillerfalter","urlInsektenSachsen": "https://www.insekten-sachsen.de/Pages/TaxonomyBrowser.aspx?Id=441662","urlSonstige": "http://www.lepiforum.de/lepiwiki.pl?Apatura_iris","beobachtungen": [{"datum": "2016-04-22","fundort": "Musterstadt","anzahl": 1,"stadium": "Imago","lon": 13.92620912817197,"pruefung": "Insekten Sachsen","beobachter": "Maria Muster","lat": 50.85306996643553}]},{"name": "Aphantopus hyperantus","nameDeutsch": "Schornsteinfeger","ordnung": "Schmetterlinge","familie": "Edelfalter","urlWikipedia": "https://de.wikipedia.org/wiki/Brauner_Waldvogel","urlInsektenSachsen": "https://www.insekten-sachsen.de/Pages/TaxonomyBrowser.aspx?Id=441309","urlSonstige": "http://www.lepiforum.de/lepiwiki.pl?Aphantopus_hyperantus","beobachtungen": [{"datum": "2012-05-12","fundort": "Musterstadt","anzahl": 1,"stadium": "Imago","lon": 13.957973437809782,"pruefung": "Insekten Sachsen","beobachter": "Maria Muster","lat": 51.188133518101175},{"datum": "2016-10-11","fundort": "Musterstadt","anzahl": 1,"stadium": "Imago","lon": 13.981498305035837,"pruefung": "Insekten Sachsen","beobachter": "Max Mustermann","lat": 51.168991759342696},{"datum": "2020-05-26","fundort": "Musterstadt","anzahl": 1,"stadium": "Imago","lon": 13.675157780276905,"pruefung": "Insekten Sachsen","beobachter": "Max Mustermann","lat": 50.730504605082345},{"datum": "2020-04-01","fundort": "Musterstadt","anzahl": 1,"stadium": "Imago","lon": 14.031659469741397,"pruefung": "Insekten Sachsen","beobachter": "Max Mustermann","lat": 51.16443530951436},{"datum": "2015-01-14","fundort": "Musterstadt","anzahl": 1,"stadium": "Imago","lon": 13.948909019890147,"pruefung": "Insekten Sachsen","beobachter": "Max Mustermann","lat": 51.17503181934133},{"datum": "2013-12-07","fundort": "Musterstadt","anzahl": 3,"stadium": "Imago","lon": 13.946721092566339,"pruefung": "Insekten Sachsen","beobachter": "Max Mustermann","lat": 50.82218654863937},{"datum": "2013-01-22","fundort": "Musterstadt","anzahl": 1,"stadium": "Imago","lon": 13.680386065703194,"pruefung": "iNaturalist","beobachter": "Maria Muster","lat": 51.09191068363446}]},{"name": "Aphomia sociella","nameDeutsch": "Hummel-Wachsmotte","ordnung": "Schmetterlinge","familie": "Zünsler","urlWikipedia": "https://de.wikipedia.org/wiki/Hummelnestmotte","urlInsektenSachsen": "https://www.insekten-sachsen.de/Pages/TaxonomyBrowser.aspx?Id=442615","urlSonstige": "http://www.lepiforum.de/lepiwiki.pl?Aphomia_sociella","beobachtungen": [{"datum": "2019-07-07","fundort": "Musterstadt","anzahl": 1,"stadium": "Imago","lon": 13.694734376910306,"pruefung": "Insekten Sachsen","beobachter": "Maria Muster","lat": 51.10338725922294}]},{"name": "Aplocera plagiata","nameDeutsch": "Grauspanner","ordnung": "Schmetterlinge","familie": "Spanner","urlWikipedia": "https://de.wikipedia.org/wiki/Gro%C3%9Fer_Johanniskraut-Spanner","urlInsektenSachsen": "https://www.insekten-sachsen.de/Pages/TaxonomyBrowser.aspx?Id=444530","urlSonstige": "http://www.lepiforum.de/lepiwiki.pl?Aplocera_plagiata","beobachtungen": [{"datum": "2016-11-15","fundort": "Musterstadt","anzahl": 1,"stadium": "Imago","lon": 13.811580841143506,"pruefung": "Insekten Sachsen","beobachter": "Maria Muster","lat": 51.18383258701946},{"datum": "2014-09-21","fundort": "Musterstadt","anzahl": 1,"stadium": "Imago","lon": 13.678275297212188,"pruefung": "Insekten Sachsen","beobachter": "Maria Muster","lat": 51.09849358903841},{"datum": "2013-05-20","fundort": "Musterstadt","anzahl": 1,"stadium": "Imago","lon": 13.689065856916738,"pruefung": "Insekten Sachsen","beobachter": "Maria Muster","lat": 51.091816388524435}]},{"name": "Archiearis parthenias","nameDeutsch": "Großes Jungfernkind","ordnung": "Schmetterlinge","familie": "Spanner","urlWikipedia": "https://de.wikipedia.org/wiki/Gro%C3%9Fes_Jungfernkind","urlInsektenSachsen": "https://www.insekten-sachsen.de/Pages/TaxonomyBrowser.aspx?Id=446357","urlSonstige": "http://www.lepiforum.de/lepiwiki.pl?Archiearis_parthenias","beobachtungen": [{"datum": "2011-11-13","fundort": "Musterstadt","anzahl": 1,"stadium": "Imago","lon": 13.745062995738895,"pruefung": "Insekten Sachsen","beobachter": "Maria Muster","lat": 51.14891436285229}]},{"name": "Arctia caja","nameDeutsch": "Brauner Bär","ordnung": "Schmetterlinge","familie": "Erebidae","urlWikipedia": "https://de.wikipedia.org/wiki/Brauner_B%C3%A4r_(Schmetterling)","urlInsektenSachsen": "https://www.insekten-sachsen.de/Pages/TaxonomyBrowser.aspx?Id=446959","urlSonstige": "http://www.lepiforum.de/lepiwiki.pl?Arctia_caja","beobachtungen": [{"datum": "2017-10-30","fundort": "Musterstadt","anzahl": 1,"stadium": "Imago","lon": 13.945462703512138,"pruefung": "Insekten Sachsen","beobachter": "Maria Muster","lat": 51.195787665933885},{"datum": "2013-04-10","fundort": "Musterstadt","anzahl": 1,"stadium": "Imago","lon": 14.332062423502558,"pruefung": "Insekten Sachsen","beobachter": "Maria Muster","lat": 51.812092489731796}]},{"name": "Argynnis paphia","nameDeutsch": "Kaisermantel","ordnung": "Schmetterlinge","familie": "Edelfalter","urlWikipedia": "https://de.wikipedia.org/wiki/Kaisermantel","urlInsektenSachsen": "https://www.insekten-sachsen.de/Pages/TaxonomyBrowser.aspx?Id=441744","urlSonstige": "http://www.lepiforum.de/lepiwiki.pl?Argynnis_paphia","beobachtungen": [{"datum": "2014-01-13","fundort": "Musterstadt","anzahl": 1,"stadium": "Imago","lon": 13.949793386964828,"pruefung": "Insekten Sachsen","beobachter": "Maria Muster","lat": 51.19257670481676},{"datum": "2011-12-03","fundort": "Musterstadt","anzahl": 1,"stadium": "Imago","lon": 15.09199926199012,"pruefung": "iNaturalist","beobachter": "Maria Muster","lat": 44.55101011599844},{"datum": "2012-02-11","fundort": "Musterstadt","anzahl": 1,"stadium": "Imago","lon": 15.59121096826227,"pruefung": "iNaturalist","beobachter": "Maria Muster","lat": 44.87854084938498},{"datum": "2018-09-18","fundort": "Musterstadt","anzahl": 1,"stadium": "Imago","lon": 13.962025137429094,"pruefung": "Insekten Sachsen","beobachter": "Max Mustermann","lat": 50.81782512769824},{"datum": "2015-06-17","fundort": "Musterstadt","anzahl": 1,"stadium": "Imago","lon": 11.504659070749035,"pruefung": "iNaturalist","beobachter": "Maria Muster","lat": 55.8647594149174},{"datum": "2012-02-18","fundort": "Musterstadt","anzahl": 1,"stadium": "Imago","lon": 13.954278521940212,"pruefung": "Insekten Sachsen","beobachter": "Maria Muster","lat": 51.18271446287987},{"datum": "2011-02-03","fundort": "Musterstadt","anzahl": 1,"stadium": "Imago","lon": 13.989216167929971,"pruefung": "Insekten Sachsen","beobachter": "Max Mustermann","lat": 51.17038633947288},{"datum": "2014-03-05","fundort": "Musterstadt","anzahl": 1,"stadium": "Imago","lon": 13.951263666554581,"pruefung": "Insekten Sachsen","beobachter": "Max Mustermann","lat": 51.16989706247821},{"datum": "2020-10-15","fundort": "Musterstadt","anzahl": 1,"stadium": "Imago","lon": 14.042244679541048,"pruefung": "Insekten Sachsen","beobachter": "Maria Muster","lat": 50.921200305819596},{"datum": "2020-10-23","fundort": "Musterstadt","anzahl": 3,"stadium": "Imago","lon": 13.940159040242207,"pruefung": "Insekten Sachsen","beobachter": "Max Mustermann","lat": 50.818748220774204},{"datum": "2014-03-18","fundort": "Musterstadt","anzahl": 1,"stadium": "Imago","lon": 14.335001124085828,"pruefung": "iNaturalist","beobachter": "Maria Muster","lat": 51.80693562185283},{"datum": "2019-04-11","fundort": "Musterstadt","anzahl": 1,"stadium": "Imago","lon": 14.378995259140773,"pruefung": "iNaturalist","beobachter": "Max Mustermann","lat": 51.726047980467484}]},{"name": "Aricia agestis","nameDeutsch": "Kleiner Sonnenröschenbläuling","ordnung": "Schmetterlinge","familie": "Bläulinge","urlWikipedia": "https://de.wikipedia.org/wiki/Kleiner_Sonnenr%C3%B6schen-Bl%C3%A4uling","urlInsektenSachsen": "https://www.insekten-sachsen.de/Pages/TaxonomyBrowser.aspx?Id=441006","urlSonstige": "http://www.lepiforum.de/lepiwiki.pl?Aricia_agestis","beobachtungen": [{"datum": "2017-05-22","fundort": "Musterstadt","anzahl": 1,"stadium": "Imago","lon": 13.745133049262767,"pruefung": "Insekten Sachsen","beobachter": "Maria Muster","lat": 51.043028364158},{"datum": "2016-06-23","fundort": "Musterstadt","anzahl": 1,"stadium": "Imago","lon": 13.706576920361764,"pruefung": "Insekten Sachsen","beobachter": "Maria Muster","lat": 51.09792472199958}]},{"name": "Arocatus longiceps","nameDeutsch": "Platanenwanze","ordnung": "Schnabelkerfen","familie": "Bodenwanzen","urlWikipedia": "https://de.wikipedia.org/wiki/Arocatus_longiceps","urlInsektenSachsen": "https://www.insekten-sachsen.de/Pages/TaxonomyBrowser.aspx?Id=453527","beobachtungen": [{"datum": "2013-06-26","fundort": "Musterstadt","anzahl": 1,"stadium": "Imago","lon": 13.691788435974757,"pruefung": "Insekten Sachsen","beobachter": "Maria Muster","lat": 51.10098280374007}]},{"name": "Aromia moschata","nameDeutsch": "Moschusbock","ordnung": "Käfer","familie": "Bockkäfer","urlWikipedia": "https://de.wikipedia.org/wiki/Moschusbock","urlInsektenSachsen": "https://www.insekten-sachsen.de/Pages/TaxonomyBrowser.aspx?Id=114600","beobachtungen": [{"datum": "2017-11-27","fundort": "Musterstadt","anzahl": 1,"stadium": "Imago","lon": 13.972761668091358,"pruefung": "Insekten Sachsen","beobachter": "Maria Muster","lat": 51.18445546719129},{"datum": "2020-10-06","fundort": "Musterstadt","anzahl": 1,"stadium": "Imago","lon": 13.958381211598308,"pruefung": "Insekten Sachsen","beobachter": "Maria Muster","lat": 51.18655842156977},{"datum": "2015-05-08","fundort": "Musterstadt","anzahl": 1,"stadium": "Imago","lon": 13.986271585511059,"pruefung": "Insekten Sachsen","beobachter": "Max Mustermann","lat": 51.16788953345276}]},{"name": "Asteroscopus sphinx","nameDeutsch": "Sphinxeule","ordnung": "Schmetterlinge","familie": "Eulenfalter","urlWikipedia": "https://de.wikipedia.org/wiki/Herbst-Rauhaareule","urlInsektenSachsen": "https://www.insekten-sachsen.de/Pages/TaxonomyBrowser.aspx?Id=449260","urlSonstige": "http://www.lepiforum.de/lepiwiki.pl?Asteroscopus_sphinx","beobachtungen": [{"datum": "2013-04-30","fundort": "Musterstadt","anzahl": 2,"stadium": "Imago","lon": 13.683202579936022,"pruefung": "Insekten Sachsen","beobachter": "Maria Muster","lat": 51.0991014934481}]},{"name": "Autographa gamma","nameDeutsch": "Gammaeule","ordnung": "Schmetterlinge","familie": "Eulenfalter","urlWikipedia": "https://de.wikipedia.org/wiki/Gammaeule","urlInsektenSachsen": "https://www.insekten-sachsen.de/Pages/TaxonomyBrowser.aspx?Id=449605","urlSonstige": "http://www.lepiforum.de/lepiwiki.pl?Autographa_gamma","beobachtungen": [{"datum": "2014-09-28","fundort": "Musterstadt","anzahl": 1,"stadium": "Imago","lon": 13.946666888679767,"pruefung": "Insekten Sachsen","beobachter": "Maria Muster","lat": 51.18626504511376},{"datum": "2020-01-07","fundort": "Musterstadt","anzahl": 3,"stadium": "Imago","lon": 13.973918625594997,"pruefung": "Insekten Sachsen","beobachter": "Max Mustermann","lat": 51.15743846510431},{"datum": "2013-02-19","fundort": "Musterstadt","anzahl": 1,"stadium": "Imago","lon": 13.682390300515289,"pruefung": "iNaturalist","beobachter": "Maria Muster","lat": 51.09672171512121},{"datum": "2015-12-13","fundort": "Musterstadt","anzahl": 1,"stadium": "Imago","lon": 13.989675502784012,"pruefung": "Insekten Sachsen","beobachter": "Max Mustermann","lat": 51.1715611724604}]},{"name": "Bombus pascuorum","nameDeutsch": "Ackerhummel","ordnung": "Hautflügler","familie": "Echte Bienen","urlWikipedia": "https://de.wikipedia.org/wiki/Ackerhummel","urlInsektenSachsen": "https://www.insekten-sachsen.de/Pages/TaxonomyBrowser.aspx?Id=231899","beobachtungen": [{"datum": "2013-03-20","fundort": "Musterstadt","anzahl": 1,"stadium": "Imago","lon": 13.970610096055056,"pruefung": "Insekten Sachsen","beobachter": "Maria Muster","lat": 51.197711589089494},{"datum": "2018-03-27","fundort": "Musterstadt","anzahl": 1,"stadium": "Imago","lon": 13.985414334358452,"pruefung": "Insekten Sachsen","beobachter": "Max Mustermann","lat": 51.158004765534116}]},{"name": "Bombylius major","nameDeutsch": "Großer Wollschweber","ordnung": "Zweiflügler","familie": "Wollschweber","urlWikipedia": "https://de.wikipedia.org/wiki/Gro%C3%9Fer_Wollschweber","urlInsektenSachsen": "https://www.insekten-sachsen.de/Pages/TaxonomyBrowser.aspx?Id=130317","beobachtungen": [{"datum": "2018-05-12","fundort": "Musterstadt","anzahl": 1,"stadium": "Imago","lon": 13.948085773332716,"pruefung": "Insekten Sachsen","beobachter": "Maria Muster","lat": 51.192587647559805},{"datum": "2020-04-24","fundort": "Musterstadt","anzahl": 1,"stadium": "Imago","lon": 14.003179841212374,"pruefung": "Insekten Sachsen","beobachter": "Max Mustermann","lat": 51.174432054156554},{"datum": "2015-07-09","fundort": "Musterstadt","anzahl": 2,"stadium": "Imago","lon": 13.979221254665607,"pruefung": "Insekten Sachsen","beobachter": "Max Mustermann","lat": 51.17127712801774},{"datum": "2012-10-14","fundort": "Musterstadt","anzahl": 1,"stadium": "Imago","lon": 13.965751789084543,"pruefung": "Insekten Sachsen","beobachter": "Maria Muster","lat": 51.18171478424491},{"datum": "2012-08-21","fundort": "Musterstadt","anzahl": 1,"stadium": "Imago","lon": 13.674967627042198,"pruefung": "Insekten Sachsen","beobachter": "Maria Muster","lat": 51.08420188170073},{"datum": "2017-12-01","fundort": "Musterstadt","anzahl": 1,"stadium": "Imago","lon": 13.693864240644332,"pruefung": "iNaturalist","beobachter": "Maria Muster","lat": 51.107147537653375},{"datum": "2015-01-16","fundort": "Musterstadt","anzahl": 1,"stadium": "Imago","lon": 13.947919647823586,"pruefung": "Insekten Sachsen","beobachter": "Maria Muster","lat": 51.196899253299485}]},{"name": "Brachycarenus tigrinus","nameDeutsch": "Brachycarenus tigrinus","ordnung": "Schnabelkerfen","familie": "Glasflügelwanzen","urlWikipedia": "https://de.wikipedia.org/wiki/Brachycarenus_tigrinus","urlInsektenSachsen": "https://www.insekten-sachsen.de/Pages/TaxonomyBrowser.aspx?Id=453630","beobachtungen": [{"datum": "2015-07-24","fundort": "Musterstadt","anzahl": 1,"stadium": "Imago","lon": 13.675667220926927,"pruefung": "Insekten Sachsen","beobachter": "Maria Muster","lat": 51.10295476902901}]},{"name": "Bruchidius ater","nameDeutsch": "Zottiger Ginster-Samenkäfer","ordnung": "Käfer","familie": "Blattkäfer","urlWikipedia": "https://de.wikipedia.org/wiki/Ginster-Samenk%C3%A4fer","urlInsektenSachsen": "https://www.insekten-sachsen.de/Pages/TaxonomyBrowser.aspx?Id=243623","beobachtungen": [{"datum": "2015-12-27","fundort": "Musterstadt","anzahl": 1,"stadium": "Imago","lon": 13.973299209398736,"pruefung": "Insekten Sachsen","beobachter": "Maria Muster","lat": 51.18799168290421}]},{"name": "Bruchus luteicornis","nameDeutsch": "Gelbfühler-Samenkäfer","ordnung": "Käfer","familie": "Samenkäfer","urlWikipedia": "https://de.wikipedia.org/wiki/Bruchus_luteicornis","urlInsektenSachsen": "https://www.insekten-sachsen.de/Pages/TaxonomyBrowser.aspx?Id=243599","beobachtungen": [{"datum": "2013-12-20","fundort": "Musterstadt","anzahl": 1,"stadium": "Imago","lon": 13.679072441515336,"pruefung": "Insekten Sachsen","beobachter": "Maria Muster","lat": 51.08496434665346}]},{"name": "Brumus quadripustulatus","nameDeutsch": "Vierfleckiger Schildlaus-Marienkäfer","ordnung": "Käfer","familie": "Marienkäfer","urlWikipedia": "https://de.wikipedia.org/wiki/Vierfleckiger_Kugelmarienk%C3%A4fer","urlInsektenSachsen": "https://www.insekten-sachsen.de/Pages/TaxonomyBrowser.aspx?Id=230190","beobachtungen": [{"datum": "2018-08-19","fundort": "Musterstadt","anzahl": 1,"stadium": "Imago","lon": 13.955990286919947,"pruefung": "Insekten Sachsen","beobachter": "Maria Muster","lat": 51.19138257082062}]},{"name": "Buprestis cupressi","nameDeutsch": "Buprestis cupressi","ordnung": "Käfer","familie": "Prachtkäfer","urlWikipedia": "https://en.wikipedia.org/wiki/Buprestis","beobachtungen": [{"datum": "2016-02-03","fundort": "Musterstadt","anzahl": 1,"stadium": "Imago","lon": 15.011527431527325,"pruefung": "iNaturalist","beobachter": "Maria Muster","lat": 44.57603215903553}]},{"name": "Callidium violaceum","nameDeutsch": "Blauvioletter Scheibenbock","ordnung": "Käfer","familie": "Bockkäfer","urlWikipedia": "https://de.wikipedia.org/wiki/Blauvioletter_Scheibenbock","urlInsektenSachsen": "https://www.insekten-sachsen.de/Pages/TaxonomyBrowser.aspx?Id=114570","beobachtungen": [{"datum": "2014-03-25","fundort": "Musterstadt","anzahl": 1,"stadium": "Imago","lon": 13.957801060343925,"pruefung": "Insekten Sachsen","beobachter": "Maria Muster","lat": 51.18439144998477}]},{"name": "Calliptamus italicus","nameDeutsch": "Italienische Schönschrecke","ordnung": "Heuschrecken","familie": "Feldheuschrecken","urlWikipedia": "https://de.wikipedia.org/wiki/Italienische_Sch%C3%B6nschrecke","urlInsektenSachsen": "https://www.insekten-sachsen.de/Pages/TaxonomyBrowser.aspx?Id=402751","urlSonstige": "https://www.orthoptera.ch/arten/item/calliptamus-italicus","beobachtungen": [{"datum": "2011-04-21","fundort": "Musterstadt","anzahl": 1,"stadium": "Imago","lon": 15.00764337256975,"pruefung": "iNaturalist","beobachter": "Maria Muster","lat": 44.56300466976836},{"datum": "2011-02-24","fundort": "Musterstadt","anzahl": 1,"stadium": "Imago","lon": 14.001597168965244,"pruefung": "Insekten Sachsen","beobachter": "Max Mustermann","lat": 51.1610699666573}]},{"name": "Calliteara pudibunda","nameDeutsch": "Buchen-Streckfuß","ordnung": "Schmetterlinge","familie": "Eulenfalter","urlWikipedia": "https://de.wikipedia.org/wiki/Buchen-Streckfu%C3%9F","urlInsektenSachsen": "https://www.insekten-sachsen.de/Pages/TaxonomyBrowser.aspx?Id=447103","urlSonstige": "http://www.lepiforum.de/lepiwiki.pl?Calliteara_pudibunda","beobachtungen": [{"datum": "2016-12-06","fundort": "Musterstadt","anzahl": 1,"stadium": "Larve","lon": 13.97523533510907,"pruefung": "Insekten Sachsen","beobachter": "Maria Muster","lat": 51.18900559366097},{"datum": "2017-11-26","fundort": "Musterstadt","anzahl": 1,"stadium": "Larve","lon": 14.09803497761823,"pruefung": "Insekten Sachsen","beobachter": "Max Mustermann","lat": 50.94558723552557},{"datum": "2018-07-07","fundort": "Musterstadt","anzahl": 1,"stadium": "Imago","lon": 14.581564845111584,"pruefung": "Insekten Sachsen","beobachter": "Maria Muster","lat": 51.02719413984317},{"datum": "2017-11-17","fundort": "Musterstadt","anzahl": 1,"stadium": "Imago","lon": 14.734275734265477,"pruefung": "Insekten Sachsen","beobachter": "Maria Muster","lat": 50.84723581723181},{"datum": "2017-04-29","fundort": "Musterstadt","anzahl": 1,"stadium": "Larve","lon": 13.658390614134905,"pruefung": "Insekten Sachsen","beobachter": "Max Mustermann","lat": 51.10552100265075}]},{"name": "Calopteryx splendens","nameDeutsch": "Gebänderte Prachtlibelle","ordnung": "Libellen","familie": "Prachtlibellen","urlWikipedia": "https://de.wikipedia.org/wiki/Geb%C3%A4nderte_Prachtlibelle","urlInsektenSachsen": "https://www.insekten-sachsen.de/Pages/TaxonomyBrowser.aspx?Id=214240","urlSonstige": "https://libellenwissen.de/libellenarten/kleinlibellen/prachtlibellen-calopterygidae/gebaenderte-prachtlibelle/","beobachtungen": [{"datum": "2014-05-23","fundort": "Musterstadt","anzahl": 10,"stadium": "Imago","lon": 14.327217387050508,"pruefung": "Insekten Sachsen","beobachter": "Maria Muster","lat": 51.80619963098663},{"datum": "2013-09-13","fundort": "Musterstadt","anzahl": 1,"stadium": "Imago","lon": 14.335876433729815,"pruefung": "Insekten Sachsen","beobachter": "Maria Muster","lat": 51.78771538202182},{"datum": "2020-05-25","fundort": "Musterstadt","anzahl": 1,"stadium": "Imago","lon": 13.990834270422543,"pruefung": "Insekten Sachsen","beobachter": "Max Mustermann","lat": 51.16276042864585},{"datum": "2016-05-24","fundort": "Musterstadt","anzahl": 2,"stadium": "Imago","lon": 14.803910853874733,"pruefung": "Insekten Sachsen","beobachter": "Maria Muster","lat": 50.913347039204716}]},{"name": "Calopteryx virgo","nameDeutsch": "Blauflügel-Prachtlibelle","ordnung": "Libellen","familie": "Prachtlibellen","urlWikipedia": "https://de.wikipedia.org/wiki/Blaufl%C3%BCgel-Prachtlibelle","urlInsektenSachsen": "https://www.insekten-sachsen.de/Pages/TaxonomyBrowser.aspx?Id=214241","urlSonstige": "https://libellenwissen.de/libellenarten/kleinlibellen/prachtlibellen-calopterygidae/blaufluegel-prachtlibelle/","beobachtungen": [{"datum": "2016-09-20","fundort": "Musterstadt","anzahl": 1,"stadium": "Imago","lon": 11.409721696241286,"pruefung": "iNaturalist","beobachter": "Maria Muster","lat": 49.527701182354264},{"datum": "2015-04-04","fundort": "Musterstadt","anzahl": 1,"stadium": "Imago","lon": 13.926228579348088,"pruefung": "Insekten Sachsen","beobachter": "Maria Muster","lat": 51.19713223195593},{"datum": "2018-07-08","fundort": "Musterstadt","anzahl": 1,"stadium": "Imago","lon": 13.910504242496641,"pruefung": "Insekten Sachsen","beobachter": "Maria Muster","lat": 51.196341479836754},{"datum": "2014-05-22","fundort": "Musterstadt","anzahl": 1,"stadium": "Imago","lon": 14.056843347581143,"pruefung": "Insekten Sachsen","beobachter": "Maria Muster","lat": 50.96256866810456}]},{"name": "Cameraria ohridella","nameDeutsch": "Rosskastanienminiermotte","ordnung": "Schmetterlinge","familie": "Miniermotten","urlWikipedia": "https://de.wikipedia.org/wiki/Rosskastanienminiermotte","urlInsektenSachsen": "https://www.insekten-sachsen.de/Pages/TaxonomyBrowser.aspx?Id=433542","urlSonstige": "http://www.lepiforum.de/lepiwiki.pl?Cameraria_ohridella","beobachtungen": [{"datum": "2019-07-06","fundort": "Musterstadt","anzahl": 1,"stadium": "Imago","lon": 13.714177994350905,"pruefung": "Insekten Sachsen","beobachter": "Maria Muster","lat": 51.04446364819315}]},{"name": "Campaea margaritaria","nameDeutsch": "Perlglanzspanner","ordnung": "Schmetterlinge","familie": "Spanner","urlWikipedia": "https://de.wikipedia.org/wiki/Perlglanzspanner","urlInsektenSachsen": "https://www.insekten-sachsen.de/Pages/TaxonomyBrowser.aspx?Id=445941","urlSonstige": "http://www.lepiforum.de/lepiwiki.pl?Campaea_margaritaria","beobachtungen": [{"datum": "2016-01-31","fundort": "Musterstadt","anzahl": 1,"stadium": "Imago","lon": 13.966151226467504,"pruefung": "Insekten Sachsen","beobachter": "Maria Muster","lat": 51.180236311942394},{"datum": "2016-06-01","fundort": "Musterstadt","anzahl": 1,"stadium": "Imago","lon": 14.72938088732602,"pruefung": "Insekten Sachsen","beobachter": "Maria Muster","lat": 50.85545219491794}]},{"name": "Camptogramma bilineata","nameDeutsch": "Ockergelber Blattspanner","ordnung": "Schmetterlinge","familie": "Spanner","urlWikipedia": "https://de.wikipedia.org/wiki/Ockergelber_Blattspanner","urlInsektenSachsen": "https://www.insekten-sachsen.de/Pages/TaxonomyBrowser.aspx?Id=445244","urlSonstige": "http://www.lepiforum.de/lepiwiki.pl?Camptogramma_bilineata","beobachtungen": [{"datum": "2014-05-01","fundort": "Musterstadt","anzahl": 1,"stadium": "Imago","lon": 13.957715536105317,"pruefung": "Insekten Sachsen","beobachter": "Maria Muster","lat": 51.19379986360805},{"datum": "2011-11-07","fundort": "Musterstadt","anzahl": 1,"stadium": "Imago","lon": 13.704866967055708,"pruefung": "Insekten Sachsen","beobachter": "Max Mustermann","lat": 51.06343095514796},{"datum": "2013-04-15","fundort": "Musterstadt","anzahl": 1,"stadium": "Imago","lon": 13.998290179832711,"pruefung": "Insekten Sachsen","beobachter": "Max Mustermann","lat": 51.17296567712206},{"datum": "2015-06-01","fundort": "Musterstadt","anzahl": 1,"stadium": "Imago","lon": 14.593844748193762,"pruefung": "Insekten Sachsen","beobachter": "Maria Muster","lat": 51.012280558836075},{"datum": "2016-04-16","fundort": "Musterstadt","anzahl": 1,"stadium": "Imago","lon": 13.989276053840628,"pruefung": "Insekten Sachsen","beobachter": "Max Mustermann","lat": 51.16394028163739}]},{"name": "Cantharis fusca","nameDeutsch": "Gemeiner Weichkäfer","ordnung": "Käfer","familie": "Weichkäfer","urlWikipedia": "https://de.wikipedia.org/wiki/Gemeiner_Weichk%C3%A4fer","urlInsektenSachsen": "https://www.insekten-sachsen.de/Pages/TaxonomyBrowser.aspx?Id=104016","beobachtungen": [{"datum": "2018-07-01","fundort": "Musterstadt","anzahl": 1,"stadium": "Imago","lon": 13.696112166015062,"pruefung": "Insekten Sachsen","beobachter": "Maria Muster","lat": 51.08499005306416},{"datum": "2013-07-14","fundort": "Musterstadt","anzahl": 1,"stadium": "Imago","lon": 14.592876271370155,"pruefung": "Insekten Sachsen","beobachter": "Maria Muster","lat": 51.0223122686959}]},{"name": "Cantharis nigricans","nameDeutsch": "Graugelber Weichkäfer","ordnung": "Käfer","familie": "Weichkäfer","urlWikipedia": "https://de.wikipedia.org/wiki/Cantharis_nigricans","urlInsektenSachsen": "https://www.insekten-sachsen.de/Pages/TaxonomyBrowser.aspx?Id=104102","beobachtungen": [{"datum": "2012-01-31","fundort": "Musterstadt","anzahl": 1,"stadium": "Imago","lon": 13.705076475205841,"pruefung": "Insekten Sachsen","beobachter": "Maria Muster","lat": 51.17095360472982}]},{"name": "Cantharis pellucida","nameDeutsch": "Rotschwarzer Weichkäfer","ordnung": "Käfer","familie": "Weichkäfer","urlWikipedia": "https://de.wikipedia.org/wiki/Cantharis_pellucida","urlInsektenSachsen": "https://www.insekten-sachsen.de/Pages/TaxonomyBrowser.aspx?Id=104146","beobachtungen": [{"datum": "2016-03-29","fundort": "Musterstadt","anzahl": 1,"stadium": "Imago","lon": 14.583214016960254,"pruefung": "Insekten Sachsen","beobachter": "Maria Muster","lat": 51.00958982014472}]},{"name": "Cantharis rustica","nameDeutsch": "Soldatenkäfer","ordnung": "Käfer","familie": "Weichkäfer","urlWikipedia": "https://de.wikipedia.org/wiki/Cantharis_rustica","urlInsektenSachsen": "https://www.insekten-sachsen.de/Pages/TaxonomyBrowser.aspx?Id=104211","beobachtungen": [{"datum": "2019-06-13","fundort": "Musterstadt","anzahl": 1,"stadium": "Imago","lon": 13.946487248629818,"pruefung": "Insekten Sachsen","beobachter": "Maria Muster","lat": 51.196562484191986},{"datum": "2015-04-04","fundort": "Musterstadt","anzahl": 1,"stadium": "Imago","lon": 14.033758781257623,"pruefung": "Insekten Sachsen","beobachter": "Maria Muster","lat": 51.21617124316726},{"datum": "2011-03-24","fundort": "Musterstadt","anzahl": 1,"stadium": "Imago","lon": 13.711171970280112,"pruefung": "Insekten Sachsen","beobachter": "Maria Muster","lat": 51.078057224669315},{"datum": "2019-06-09","fundort": "Musterstadt","anzahl": 1,"stadium": "Imago","lon": 13.689830666412197,"pruefung": "Insekten Sachsen","beobachter": "Maria Muster","lat": 51.082112108316416},{"datum": "2020-12-27","fundort": "Musterstadt","anzahl": 6,"stadium": "Imago","lon": 13.999963416053319,"pruefung": "Insekten Sachsen","beobachter": "Max Mustermann","lat": 51.1607246080156},{"datum": "2020-08-22","fundort": "Musterstadt","anzahl": 1,"stadium": "Imago","lon": 13.949020139403371,"pruefung": "Insekten Sachsen","beobachter": "Maria Muster","lat": 51.19647021396259}]},{"name": "Carabus auratus","nameDeutsch": "Goldlaufkäfer","ordnung": "Käfer","familie": "Laufkäfer","urlWikipedia": "https://de.wikipedia.org/wiki/Goldlaufk%C3%A4fer","urlInsektenSachsen": "https://www.insekten-sachsen.de/Pages/TaxonomyBrowser.aspx?Id=386617","beobachtungen": [{"datum": "2014-05-13","fundort": "Musterstadt","anzahl": 1,"stadium": "Imago","lon": 13.966955924429485,"pruefung": "Insekten Sachsen","beobachter": "Maria Muster","lat": 51.19523693715802},{"datum": "2011-12-30","fundort": "Musterstadt","anzahl": 1,"stadium": "Imago","lon": 13.964545907100957,"pruefung": "Insekten Sachsen","beobachter": "Maria Muster","lat": 51.194470143860634}]},{"name": "Carabus granulatus","nameDeutsch": "Körniger Laufkäfer","ordnung": "Käfer","familie": "Laufkäfer","urlWikipedia": "https://de.wikipedia.org/wiki/K%C3%B6rniger_Laufk%C3%A4fer","urlInsektenSachsen": "https://www.insekten-sachsen.de/Pages/TaxonomyBrowser.aspx?Id=386535","beobachtungen": [{"datum": "2017-09-17","fundort": "Musterstadt","anzahl": 1,"stadium": "Imago","lon": 13.954166965784975,"pruefung": "Insekten Sachsen","beobachter": "Maria Muster","lat": 51.1917981561052}]},{"name": "Caradrina clavipalpis","nameDeutsch": "Eindringling","ordnung": "Schmetterlinge","familie": "Eulenfalter","urlWikipedia": "https://de.wikipedia.org/wiki/Heu-Staubeule","urlInsektenSachsen": "https://www.insekten-sachsen.de/Pages/TaxonomyBrowser.aspx?Id=447310","urlSonstige": "http://www.lepiforum.de/lepiwiki.pl?Caradrina_clavipalpis","beobachtungen": [{"datum": "2015-10-08","fundort": "Musterstadt","anzahl": 1,"stadium": "Imago","lon": 13.68998354673944,"pruefung": "Insekten Sachsen","beobachter": "Maria Muster","lat": 51.08856294973285}]},{"name": "Caradrina kadenii","nameDeutsch": "Kadens Staubeule","ordnung": "Schmetterlinge","familie": "Eulenfalter","urlWikipedia": "https://de.wikipedia.org/wiki/Caradrina_kadenii","urlInsektenSachsen": "https://www.insekten-sachsen.de/Pages/TaxonomyBrowser.aspx?Id=447241","urlSonstige": "http://www.lepiforum.de/lepiwiki.pl?Caradrina_kadenii","beobachtungen": [{"datum": "2020-08-20","fundort": "Musterstadt","anzahl": 1,"stadium": "Imago","lon": 13.950130011419676,"pruefung": "Insekten Sachsen","beobachter": "Maria Muster","lat": 51.18230827723133}]},{"name": "Carpocoris fuscispinus","nameDeutsch": "Nördliche Fruchtwanze","ordnung": "Schnabelkerfen","familie": "Baumwanzen","urlWikipedia": "https://de.wikipedia.org/wiki/N%C3%B6rdliche_Fruchtwanze","urlInsektenSachsen": "https://www.insekten-sachsen.de/Pages/TaxonomyBrowser.aspx?Id=454124","beobachtungen": [{"datum": "2019-01-15","fundort": "Musterstadt","anzahl": 1,"stadium": "Imago","lon": 14.039738933898462,"pruefung": "Insekten Sachsen","beobachter": "Maria Muster","lat": 51.203017389612945},{"datum": "2016-08-18","fundort": "Musterstadt","anzahl": 1,"stadium": "Imago","lon": 13.936862838178826,"pruefung": "Insekten Sachsen","beobachter": "Max Mustermann","lat": 51.17620036860566},{"datum": "2014-01-04","fundort": "Musterstadt","anzahl": 1,"stadium": "Imago","lon": 13.669909958638202,"pruefung": "iNaturalist","beobachter": "Maria Muster","lat": 51.09548078046721},{"datum": "2018-03-20","fundort": "Musterstadt","anzahl": 1,"stadium": "Imago","lon": 13.965827320171611,"pruefung": "Insekten Sachsen","beobachter": "Maria Muster","lat": 51.19685718459801}]},{"name": "Cataclysta lemnata","nameDeutsch": "Wasserlinsenzünsler","ordnung": "Schmetterlinge","familie": "Crambidae","urlWikipedia": "https://de.wikipedia.org/wiki/Cataclysta_lemnata","urlInsektenSachsen": "https://www.insekten-sachsen.de/Pages/TaxonomyBrowser.aspx?Id=443044","urlSonstige": "http://www.lepiforum.de/lepiwiki.pl?Cataclysta_lemnata","beobachtungen": [{"datum": "2011-12-01","fundort": "Musterstadt","anzahl": 1,"stadium": "Imago","lon": 14.029457302600727,"pruefung": "Insekten Sachsen","beobachter": "Maria Muster","lat": 51.2138764854977}]},{"name": "Catocala elocata","nameDeutsch": "Pappelkarmin","ordnung": "Schmetterlinge","familie": "Eulenfalter","urlWikipedia": "https://de.wikipedia.org/wiki/Pappelkarmin","urlInsektenSachsen": "https://www.insekten-sachsen.de/Pages/TaxonomyBrowser.aspx?Id=446671","urlSonstige": "http://www.lepiforum.de/lepiwiki.pl?Catocala_elocata","beobachtungen": [{"datum": "2013-08-13","fundort": "Musterstadt","anzahl": 1,"stadium": "Larve","lon": 13.947221612238538,"pruefung": "Insekten Sachsen","beobachter": "Maria Muster","lat": 51.18354003716336},{"datum": "2012-04-26","fundort": "Musterstadt","anzahl": 1,"stadium": "Imago","lon": 13.721613523007182,"pruefung": "Insekten Sachsen","beobachter": "Max Mustermann","lat": 51.07678919890452},{"datum": "2015-07-27","fundort": "Musterstadt","anzahl": 1,"stadium": "Imago","lon": 13.68297675847354,"pruefung": "Insekten Sachsen","beobachter": "Maria Muster","lat": 51.089248440862264},{"datum": "2014-01-17","fundort": "Musterstadt","anzahl": 1,"stadium": "Imago","lon": 13.968697554204075,"pruefung": "Insekten Sachsen","beobachter": "Maria Muster","lat": 51.180387249104335}]},{"name": "Celastrina argiolus","nameDeutsch": "Faulbaumbläuling","ordnung": "Schmetterlinge","familie": "Bläulinge","urlWikipedia": "https://de.wikipedia.org/wiki/Faulbaum-Bl%C3%A4uling","urlInsektenSachsen": "https://www.insekten-sachsen.de/Pages/TaxonomyBrowser.aspx?Id=441106","urlSonstige": "http://www.lepiforum.de/lepiwiki.pl?Celastrina_argiolus","beobachtungen": [{"datum": "2018-11-17","fundort": "Musterstadt","anzahl": 1,"stadium": "Imago","lon": 13.914376998503492,"pruefung": "Insekten Sachsen","beobachter": "Maria Muster","lat": 51.18929447674543},{"datum": "2017-01-12","fundort": "Musterstadt","anzahl": 1,"stadium": "Imago","lon": 13.719648340425548,"pruefung": "Insekten Sachsen","beobachter": "Max Mustermann","lat": 51.0823681366359},{"datum": "2017-08-18","fundort": "Musterstadt","anzahl": 1,"stadium": "Imago","lon": 13.676074899399003,"pruefung": "Insekten Sachsen","beobachter": "Maria Muster","lat": 51.08435082631652},{"datum": "2019-09-05","fundort": "Musterstadt","anzahl": 1,"stadium": "Imago","lon": 13.962704420666535,"pruefung": "Insekten Sachsen","beobachter": "Maria Muster","lat": 51.235909285527164},{"datum": "2012-06-05","fundort": "Musterstadt","anzahl": 1,"stadium": "Imago","lon": 14.107054546397519,"pruefung": "Insekten Sachsen","beobachter": "Max Mustermann","lat": 50.962666507458394}]},{"name": "Cercopis vulnerata","nameDeutsch": "Gemeine Blutzikade","ordnung": "Schnabelkerfen","familie": "Blutzikaden","urlWikipedia": "https://de.wikipedia.org/wiki/Blutzikaden#Gemeine_Blutzikade","urlInsektenSachsen": "https://www.insekten-sachsen.de/Pages/TaxonomyBrowser.aspx?Id=239422","beobachtungen": [{"datum": "2014-10-05","fundort": "Musterstadt","anzahl": 1,"stadium": "Imago","lon": 12.285740081884525,"pruefung": "iNaturalist","beobachter": "Maria Muster","lat": 49.88830130455498}]},{"name": "Cetonia aurata","nameDeutsch": "Goldglänzender Rosenkäfer","ordnung": "Käfer","familie": "Blatthornkäfer","urlWikipedia": "https://de.wikipedia.org/wiki/Goldgl%C3%A4nzender_Rosenk%C3%A4fer","urlInsektenSachsen": "https://www.insekten-sachsen.de/Pages/TaxonomyBrowser.aspx?Id=247075","beobachtungen": [{"datum": "2018-10-06","fundort": "Musterstadt","anzahl": 1,"stadium": "Imago","lon": 14.037417910348159,"pruefung": "Insekten Sachsen","beobachter": "Maria Muster","lat": 51.21284050270422},{"datum": "2012-05-10","fundort": "Musterstadt","anzahl": 3,"stadium": "Imago","lon": 13.980000323684159,"pruefung": "Insekten Sachsen","beobachter": "Max Mustermann","lat": 51.17248187324409},{"datum": "2015-08-11","fundort": "Musterstadt","anzahl": 1,"stadium": "Imago","lon": 14.012935059899762,"pruefung": "Insekten Sachsen","beobachter": "Max Mustermann","lat": 51.175562056090136},{"datum": "2017-10-25","fundort": "Musterstadt","anzahl": 3,"stadium": "Imago","lon": 14.036887341501027,"pruefung": "Insekten Sachsen","beobachter": "Maria Muster","lat": 51.210610288963096},{"datum": "2016-02-14","fundort": "Musterstadt","anzahl": 1,"stadium": "Imago","lon": 13.989658405292579,"pruefung": "Insekten Sachsen","beobachter": "Max Mustermann","lat": 51.176252074112796}]},{"name": "Ceutorhynchus obstrictus","nameDeutsch": "Rapsschotenrüssler","ordnung": "Käfer","familie": "Rüsselkäfer","urlWikipedia": "https://en.wikipedia.org/wiki/Ceutorhynchus_obstrictus","urlInsektenSachsen": "https://www.insekten-sachsen.de/Pages/TaxonomyBrowser.aspx?Id=256503","beobachtungen": [{"datum": "2013-09-01","fundort": "Musterstadt","anzahl": 1,"stadium": "Imago","lon": 13.972528683772138,"pruefung": "Insekten Sachsen","beobachter": "Maria Muster","lat": 51.18274938186836}]},{"name": "Ceutorhynchus pallidactylus","nameDeutsch": "Gefleckter Kohltriebrüssler","ordnung": "Käfer","familie": "Rüsselkäfer","urlWikipedia": "https://de.wikipedia.org/wiki/Gefleckter_Kohltriebr%C3%BCssler","urlInsektenSachsen": "https://www.insekten-sachsen.de/Pages/TaxonomyBrowser.aspx?Id=256511","beobachtungen": [{"datum": "2011-10-30","fundort": "Musterstadt","anzahl": 1,"stadium": "Imago","lon": 13.803746528729713,"pruefung": "Insekten Sachsen","beobachter": "Maria Muster","lat": 51.20266760603553}]},{"name": "Chilocorus bipustulatus","nameDeutsch": "Strichfleckiger Schildlaus-Marienkäfer","ordnung": "Käfer","familie": "Marienkäfer","urlWikipedia": "https://de.wikipedia.org/wiki/Strichfleckiger_Marienk%C3%A4fer","urlInsektenSachsen": "https://www.insekten-sachsen.de/Pages/TaxonomyBrowser.aspx?Id=230176","beobachtungen": [{"datum": "2020-03-28","fundort": "Musterstadt","anzahl": 1,"stadium": "Imago","lon": 13.969498545798483,"pruefung": "Insekten Sachsen","beobachter": "Maria Muster","lat": 51.188212235371736}]},{"name": "Chrysanthia geniculata","nameDeutsch": "Chrysanthia geniculata","ordnung": "Käfer","familie": "Scheinbockkäfer","urlWikipedia": "https://de.wikipedia.org/wiki/Chrysanthia_geniculata","urlInsektenSachsen": "https://www.insekten-sachsen.de/Pages/TaxonomyBrowser.aspx?Id=124464","beobachtungen": [{"datum": "2015-03-20","fundort": "Musterstadt","anzahl": 1,"stadium": "Imago","lon": 14.319771777915085,"pruefung": "Insekten Sachsen","beobachter": "Maria Muster","lat": 51.791184898822955}]},{"name": "Chrysolina coerulans","nameDeutsch": "Blauer Minzen-Blattkäfer","ordnung": "Käfer","familie": "Blattkäfer","urlWikipedia": "https://de.wikipedia.org/wiki/Himmelblauer_Blattk%C3%A4fer","urlInsektenSachsen": "https://www.insekten-sachsen.de/Pages/TaxonomyBrowser.aspx?Id=242207","beobachtungen": [{"datum": "2018-12-31","fundort": "Musterstadt","anzahl": 3,"stadium": "Imago","lon": 14.572689623319697,"pruefung": "Insekten Sachsen","beobachter": "Maria Muster","lat": 51.02550312328815}]},{"name": "Chrysolina fastuosa","nameDeutsch": "Prächtiger Blattkäfer","ordnung": "Käfer","familie": "Blattkäfer","urlWikipedia": "https://de.wikipedia.org/wiki/Pr%C3%A4chtiger_Blattk%C3%A4fer","urlInsektenSachsen": "https://www.insekten-sachsen.de/Pages/TaxonomyBrowser.aspx?Id=242038","beobachtungen": [{"datum": "2011-12-06","fundort": "Musterstadt","anzahl": 1,"stadium": "Imago","lon": 13.687199122787472,"pruefung": "Insekten Sachsen","beobachter": "Maria Muster","lat": 51.191455620076454},{"datum": "2020-09-17","fundort": "Musterstadt","anzahl": 2,"stadium": "Imago","lon": 14.602483321097646,"pruefung": "Insekten Sachsen","beobachter": "Max Mustermann","lat": 50.999550187693195}]},{"name": "Chrysolina sturmi","nameDeutsch": "Violetter Gundermann-Blattkäfer","ordnung": "Käfer","familie": "Blattkäfer","urlWikipedia": "https://de.wikipedia.org/wiki/Chrysolina_sturmi","urlInsektenSachsen": "https://www.insekten-sachsen.de/Pages/TaxonomyBrowser.aspx?Id=242007","beobachtungen": [{"datum": "2018-06-27","fundort": "Musterstadt","anzahl": 1,"stadium": "Imago","lon": 13.956645010031686,"pruefung": "Insekten Sachsen","beobachter": "Maria Muster","lat": 51.18855756287022}]},{"name": "Chrysomela vigintipunctata","nameDeutsch": "Gefleckter Weidenblattkäfer","ordnung": "Käfer","familie": "Blattkäfer","urlWikipedia": "https://de.wikipedia.org/wiki/Gefleckter_Weidenblattk%C3%A4fer","urlInsektenSachsen": "https://www.insekten-sachsen.de/Pages/TaxonomyBrowser.aspx?Id=241659","beobachtungen": [{"datum": "2012-10-14","fundort": "Musterstadt","anzahl": 1,"stadium": "Imago","lon": 13.944090230387486,"pruefung": "Insekten Sachsen","beobachter": "Maria Muster","lat": 51.18884509803731}]},{"name": "Cirrhia icteritia","nameDeutsch": "Bleich-Gelbeule","ordnung": "Schmetterlinge","familie": "Eulenfalter","urlWikipedia": "https://en.wikipedia.org/wiki/Cirrhia","urlInsektenSachsen": "https://www.insekten-sachsen.de/Pages/TaxonomyBrowser.aspx?Id=447793","urlSonstige": "http://www.lepiforum.de/lepiwiki.pl?Cirrhia_icteritia","beobachtungen": [{"datum": "2020-04-18","fundort": "Musterstadt","anzahl": 1,"stadium": "Imago","lon": 13.70421824170125,"pruefung": "Insekten Sachsen","beobachter": "Maria Muster","lat": 51.082930226321444}]},{"name": "Closterotomus biclavatus","nameDeutsch": "Zweikeulen-Weichwanze","ordnung": "Schnabelkerfen","familie": "Weichwanzen","urlWikipedia": "https://de.wikipedia.org/wiki/Zweikeulen-Weichwanze","urlInsektenSachsen": "https://www.insekten-sachsen.de/Pages/TaxonomyBrowser.aspx?Id=452170","beobachtungen": [{"datum": "2020-06-09","fundort": "Musterstadt","anzahl": 1,"stadium": "Imago","lon": 13.960150230620094,"pruefung": "Insekten Sachsen","beobachter": "Maria Muster","lat": 51.19076714049468},{"datum": "2016-05-08","fundort": "Musterstadt","anzahl": 1,"stadium": "Imago","lon": 13.960990768676396,"pruefung": "Insekten Sachsen","beobachter": "Maria Muster","lat": 51.18314450096369}]},{"name": "Clytra laeviuscula","nameDeutsch": "Ameisensackkäfer","ordnung": "Käfer","familie": "Blattkäfer","urlWikipedia": "https://de.wikipedia.org/wiki/Ameisensackk%C3%A4fer","urlInsektenSachsen": "https://www.insekten-sachsen.de/Pages/TaxonomyBrowser.aspx?Id=241062","beobachtungen": [{"datum": "2015-08-16","fundort": "Musterstadt","anzahl": 1,"stadium": "Imago","lon": 13.821368076024704,"pruefung": "Insekten Sachsen","beobachter": "Maria Muster","lat": 51.190485364661846}]},{"name": "Clytus arietis","nameDeutsch": "Buchen-Widderbock","ordnung": "Käfer","familie": "Bockkäfer","urlWikipedia": "https://de.wikipedia.org/wiki/Echter_Widderbock","urlInsektenSachsen": "https://www.insekten-sachsen.de/Pages/TaxonomyBrowser.aspx?Id=114513","beobachtungen": [{"datum": "2017-06-28","fundort": "Musterstadt","anzahl": 1,"stadium": "Imago","lon": 14.038605617332083,"pruefung": "Insekten Sachsen","beobachter": "Maria Muster","lat": 51.21152158007674},{"datum": "2015-02-22","fundort": "Musterstadt","anzahl": 1,"stadium": "Imago","lon": 13.996544049189005,"pruefung": "Insekten Sachsen","beobachter": "Max Mustermann","lat": 51.17333443676768},{"datum": "2012-10-05","fundort": "Musterstadt","anzahl": 1,"stadium": "Imago","lon": 13.988448075656699,"pruefung": "Insekten Sachsen","beobachter": "Max Mustermann","lat": 51.16294535671825}]},{"name": "Coccinella septempunctata","nameDeutsch": "Siebenpunkt-Marienkäfer","ordnung": "Käfer","familie": "Marienkäfer","urlWikipedia": "https://de.wikipedia.org/wiki/Siebenpunkt-Marienk%C3%A4fer","urlInsektenSachsen": "https://www.insekten-sachsen.de/Pages/TaxonomyBrowser.aspx?Id=230443","beobachtungen": [{"datum": "2017-03-24","fundort": "Musterstadt","anzahl": 2,"stadium": "Imago","lon": 13.940669926969896,"pruefung": "Insekten Sachsen","beobachter": "Maria Muster","lat": 51.185985131742406},{"datum": "2012-03-30","fundort": "Musterstadt","anzahl": 1,"stadium": "Imago","lon": 13.644208096429265,"pruefung": "Insekten Sachsen","beobachter": "Maria Muster","lat": 50.7508824128684},{"datum": "2015-01-04","fundort": "Musterstadt","anzahl": 1,"stadium": "Imago","lon": 13.677210873362485,"pruefung": "iNaturalist","beobachter": "Maria Muster","lat": 51.09380878786436},{"datum": "2016-12-20","fundort": "Musterstadt","anzahl": 1,"stadium": "Larve","lon": 13.67470090044466,"pruefung": "Insekten Sachsen","beobachter": "Maria Muster","lat": 51.08864217252472},{"datum": "2016-01-30","fundort": "Musterstadt","anzahl": 1,"stadium": "Imago","lon": 13.99565438683893,"pruefung": "Insekten Sachsen","beobachter": "Max Mustermann","lat": 51.15922058927646}]},{"name": "Coenagrion puella","nameDeutsch": "Hufeisen-Azurjungfer","ordnung": "Libellen","familie": "Schlanklibellen","urlWikipedia": "https://de.wikipedia.org/wiki/Hufeisen-Azurjungfer","urlInsektenSachsen": "https://www.insekten-sachsen.de/Pages/TaxonomyBrowser.aspx?Id=214272","urlSonstige": "https://libellenwissen.de/libellenarten/kleinlibellen/schlanklibellen-coenagrionidae/hufeisen-azurjungfer/","beobachtungen": [{"datum": "2016-02-14","fundort": "Musterstadt","anzahl": 1,"stadium": "Imago","lon": 5.638395988207707,"pruefung": "iNaturalist","beobachter": "Maria Muster","lat": 50.855503615306084},{"datum": "2015-11-04","fundort": "Musterstadt","anzahl": 1,"stadium": "Imago","lon": 12.299221860047538,"pruefung": "iNaturalist","beobachter": "Maria Muster","lat": 49.88911665170251},{"datum": "2016-08-10","fundort": "Musterstadt","anzahl": 3,"stadium": "Imago","lon": 13.974271050712401,"pruefung": "Insekten Sachsen","beobachter": "Max Mustermann","lat": 51.17004153975302},{"datum": "2019-05-28","fundort": "Musterstadt","anzahl": 2,"stadium": "Imago","lon": 14.727633606295962,"pruefung": "Insekten Sachsen","beobachter": "Max Mustermann","lat": 50.830280197979384},{"datum": "2020-07-20","fundort": "Musterstadt","anzahl": 1,"stadium": "Imago","lon": 14.66847433301393,"pruefung": "Insekten Sachsen","beobachter": "Maria Muster","lat": 51.051648050216855}]},{"name": "Coenonympha pamphilus","nameDeutsch": "Kleines Wiesenvögelchen","ordnung": "Schmetterlinge","familie": "Edelfalter","urlWikipedia": "https://de.wikipedia.org/wiki/Kleines_Wiesenv%C3%B6gelchen","urlInsektenSachsen": "https://www.insekten-sachsen.de/Pages/TaxonomyBrowser.aspx?Id=441285","urlSonstige": "http://www.lepiforum.de/lepiwiki.pl?Coenonympha_pamphilus","beobachtungen": [{"datum": "2019-02-18","fundort": "Musterstadt","anzahl": 1,"stadium": "Imago","lon": 13.953080620578241,"pruefung": "Insekten Sachsen","beobachter": "Maria Muster","lat": 51.18647886257936},{"datum": "2018-10-19","fundort": "Musterstadt","anzahl": 1,"stadium": "Imago","lon": 13.821790443957074,"pruefung": "Insekten Sachsen","beobachter": "Maria Muster","lat": 51.117338274311855},{"datum": "2020-08-17","fundort": "Musterstadt","anzahl": 3,"stadium": "Imago","lon": 13.995003322928929,"pruefung": "Insekten Sachsen","beobachter": "Max Mustermann","lat": 51.21732579462244},{"datum": "2013-11-26","fundort": "Musterstadt","anzahl": 1,"stadium": "Imago","lon": 13.787768287464909,"pruefung": "Insekten Sachsen","beobachter": "Max Mustermann","lat": 51.11921475806555},{"datum": "2014-05-09","fundort": "Musterstadt","anzahl": 1,"stadium": "Imago","lon": 14.330003271464768,"pruefung": "Insekten Sachsen","beobachter": "Maria Muster","lat": 51.8112810756642},{"datum": "2016-02-20","fundort": "Musterstadt","anzahl": 1,"stadium": "Imago","lon": 13.955936486509211,"pruefung": "iNaturalist","beobachter": "Maria Muster","lat": 51.18917617258462},{"datum": "2012-08-01","fundort": "Musterstadt","anzahl": 6,"stadium": "Imago","lon": 13.976751238316425,"pruefung": "Insekten Sachsen","beobachter": "Max Mustermann","lat": 51.159139557544236},{"datum": "2013-03-31","fundort": "Musterstadt","anzahl": 6,"stadium": "Imago","lon": 13.879505102004568,"pruefung": "Insekten Sachsen","beobachter": "Max Mustermann","lat": 51.16231053381191},{"datum": "2018-06-24","fundort": "Musterstadt","anzahl": 1,"stadium": "Imago","lon": 14.630663579191209,"pruefung": "Insekten Sachsen","beobachter": "Max Mustermann","lat": 51.018678247512675}]},{"name": "Colotois pennaria","nameDeutsch": "Federfühler-Herbstspanner","ordnung": "Schmetterlinge","familie": "Spanner","urlWikipedia": "https://de.wikipedia.org/wiki/Federf%C3%BChler-Herbstspanner","urlInsektenSachsen": "https://www.insekten-sachsen.de/Pages/TaxonomyBrowser.aspx?Id=445958","urlSonstige": "http://www.lepiforum.de/lepiwiki.pl?Colotois_pennaria","beobachtungen": [{"datum": "2019-08-15","fundort": "Musterstadt","anzahl": 1,"stadium": "Imago","lon": 13.712868408271865,"pruefung": "Insekten Sachsen","beobachter": "Maria Muster","lat": 51.09847508857709},{"datum": "2017-01-19","fundort": "Musterstadt","anzahl": 1,"stadium": "Imago","lon": 13.679294735193617,"pruefung": "Insekten Sachsen","beobachter": "Maria Muster","lat": 51.089371973882045}]},{"name": "Conistra rubiginosa","nameDeutsch": "Schwarzgefleckte Wintereule","ordnung": "Schmetterlinge","familie": "Eulenfalter","urlWikipedia": "https://de.wikipedia.org/wiki/Feldholz-Wintereule","urlInsektenSachsen": "https://www.insekten-sachsen.de/Pages/TaxonomyBrowser.aspx?Id=447715","urlSonstige": "http://www.lepiforum.de/lepiwiki.pl?Conistra_rubiginosa","beobachtungen": [{"datum": "2011-10-08","fundort": "Musterstadt","anzahl": 1,"stadium": "Imago","lon": 13.966705949579243,"pruefung": "Insekten Sachsen","beobachter": "Maria Muster","lat": 51.17741130399199}]},{"name": "Coreus marginatus","nameDeutsch": "Lederwanze","ordnung": "Schnabelkerfen","familie": "Randwanzen","urlWikipedia": "https://de.wikipedia.org/wiki/Lederwanze","urlInsektenSachsen": "https://www.insekten-sachsen.de/Pages/TaxonomyBrowser.aspx?Id=453725","beobachtungen": [{"datum": "2018-01-04","fundort": "Musterstadt","anzahl": 1,"stadium": "Imago","lon": 13.97077695310612,"pruefung": "Insekten Sachsen","beobachter": "Maria Muster","lat": 51.190598472207164},{"datum": "2020-05-20","fundort": "Musterstadt","anzahl": 1,"stadium": "Imago","lon": 14.34465991777525,"pruefung": "Insekten Sachsen","beobachter": "Maria Muster","lat": 51.79459303644869},{"datum": "2011-02-10","fundort": "Musterstadt","anzahl": 1,"stadium": "Imago","lon": 13.696371842940831,"pruefung": "Insekten Sachsen","beobachter": "Maria Muster","lat": 51.088780407797046},{"datum": "2019-05-09","fundort": "Musterstadt","anzahl": 3,"stadium": "Larve","lon": 13.993630434930731,"pruefung": "Insekten Sachsen","beobachter": "Max Mustermann","lat": 51.21223746354501}]},{"name": "Coriomeris denticulatus","nameDeutsch": "Coriomeris denticulatus","ordnung": "Schnabelkerfen","familie": "Randwanzen","urlWikipedia": "https://de.wikipedia.org/wiki/Coriomeris_denticulatus","urlInsektenSachsen": "https://www.insekten-sachsen.de/Pages/TaxonomyBrowser.aspx?Id=453761","beobachtungen": [{"datum": "2011-08-16","fundort": "Musterstadt","anzahl": 1,"stadium": "Imago","lon": 13.801029015572263,"pruefung": "Insekten Sachsen","beobachter": "Maria Muster","lat": 51.19993910578361}]},{"name": "Corizus hyoscyami","nameDeutsch": "Zimtwanze","ordnung": "Schnabelkerfen","familie": "Glasflügelwanzen","urlWikipedia": "https://de.wikipedia.org/wiki/Zimtwanze","urlInsektenSachsen": "https://www.insekten-sachsen.de/Pages/TaxonomyBrowser.aspx?Id=453633","beobachtungen": [{"datum": "2014-12-12","fundort": "Musterstadt","anzahl": 1,"stadium": "Imago","lon": 13.67574686052984,"pruefung": "Insekten Sachsen","beobachter": "Maria Muster","lat": 51.09265732995078}]},{"name": "Cossus cossus","nameDeutsch": "Weidenbohrer","ordnung": "Schmetterlinge","familie": "Holzbohrer","urlWikipedia": "https://de.wikipedia.org/wiki/Weidenbohrer","urlInsektenSachsen": "https://www.insekten-sachsen.de/Pages/TaxonomyBrowser.aspx?Id=439949","urlSonstige": "http://www.lepiforum.de/lepiwiki.pl?Cossus_cossus","beobachtungen": [{"datum": "2014-02-25","fundort": "Musterstadt","anzahl": 1,"stadium": "Larve","lon": 13.965862387435275,"pruefung": "Insekten Sachsen","beobachter": "Maria Muster","lat": 51.186182657404466},{"datum": "2016-06-21","fundort": "Musterstadt","anzahl": 1,"stadium": "Larve","lon": 13.906812225753184,"pruefung": "Insekten Sachsen","beobachter": "Maria Muster","lat": 51.133212999410695}]},{"name": "Cucullia umbratica","nameDeutsch": "Schattenmönch","ordnung": "Schmetterlinge","familie": "Eulenfalter","urlWikipedia": "https://de.wikipedia.org/wiki/Schatten-M%C3%B6nch","urlInsektenSachsen": "https://www.insekten-sachsen.de/Pages/TaxonomyBrowser.aspx?Id=449318","urlSonstige": "http://www.lepiforum.de/lepiwiki.pl?Cucullia_umbratica","beobachtungen": [{"datum": "2019-12-18","fundort": "Musterstadt","anzahl": 1,"stadium": "Imago","lon": 13.952902247688863,"pruefung": "Insekten Sachsen","beobachter": "Maria Muster","lat": 51.182811769532854}]},{"name": "Cupido argiades","nameDeutsch": "Kurzschwänziger Bläuling","ordnung": "Schmetterlinge","familie": "Bläulinge","urlWikipedia": "https://de.wikipedia.org/wiki/Kurzschw%C3%A4nziger_Bl%C3%A4uling","urlInsektenSachsen": "https://www.insekten-sachsen.de/Pages/TaxonomyBrowser.aspx?Id=441120","urlSonstige": "http://www.lepiforum.de/lepiwiki.pl?Cupido_argiades","beobachtungen": [{"datum": "2020-07-10","fundort": "Musterstadt","anzahl": 1,"stadium": "Imago","lon": 13.755648711475029,"pruefung": "Insekten Sachsen","beobachter": "Maria Muster","lat": 51.049057097031344}]},{"name": "Curculio glandium","nameDeutsch": "Gewöhnlicher Eichelbohrer","ordnung": "Käfer","familie": "Rüsselkäfer","urlWikipedia": "https://de.wikipedia.org/wiki/Eichelbohrer","urlInsektenSachsen": "https://www.insekten-sachsen.de/Pages/TaxonomyBrowser.aspx?Id=250619","urlVideo": "https://youtu.be/HlUue1n3lbw","beobachtungen": [{"datum": "2019-02-23","fundort": "Musterstadt","anzahl": 1,"stadium": "Imago","lon": 13.848566557326675,"pruefung": "Insekten Sachsen","beobachter": "Maria Muster","lat": 51.19887532149654}]},{"name": "Cydalima perspectalis","nameDeutsch": "Buchsbaumzünsler","ordnung": "Schmetterlinge","familie": "Crambidae","urlWikipedia": "https://de.wikipedia.org/wiki/Buchsbaumz%C3%BCnsler","urlInsektenSachsen": "https://www.insekten-sachsen.de/Pages/TaxonomyBrowser.aspx?Id=442650","urlSonstige": "http://www.lepiforum.de/lepiwiki.pl?Cydalima_perspectalis","beobachtungen": [{"datum": "2015-08-19","fundort": "Musterstadt","anzahl": 1,"stadium": "Imago","lon": 13.6933542643106,"pruefung": "Insekten Sachsen","beobachter": "Maria Muster","lat": 51.10235639886906},{"datum": "2015-07-18","fundort": "Musterstadt","anzahl": 1,"stadium": "Imago","lon": 13.946507609350283,"pruefung": "Insekten Sachsen","beobachter": "Maria Muster","lat": 51.180673073188665},{"datum": "2018-01-28","fundort": "Musterstadt","anzahl": 1,"stadium": "Imago","lon": 13.6873047772953,"pruefung": "Insekten Sachsen","beobachter": "Maria Muster","lat": 51.0919894735365},{"datum": "2011-04-09","fundort": "Musterstadt","anzahl": 1,"stadium": "Imago","lon": 14.001944342283975,"pruefung": "Insekten Sachsen","beobachter": "Max Mustermann","lat": 51.16279372507865},{"datum": "2020-07-24","fundort": "Musterstadt","anzahl": 1,"stadium": "Imago","lon": 13.830254969712337,"pruefung": "Insekten Sachsen","beobachter": "Max Mustermann","lat": 51.17944180868728},{"datum": "2017-11-16","fundort": "Musterstadt","anzahl": 1,"stadium": "Imago","lon": 13.963516372453107,"pruefung": "iNaturalist","beobachter": "Maria Muster","lat": 51.17921598004185},{"datum": "2016-08-02","fundort": "Musterstadt","anzahl": 1,"stadium": "Imago","lon": 13.719407430707111,"pruefung": "Insekten Sachsen","beobachter": "Max Mustermann","lat": 51.07213130302749}]},{"name": "Cydia pomonella","nameDeutsch": "Apfelwickler","ordnung": "Schmetterlinge","familie": "Wickler","urlWikipedia": "https://de.wikipedia.org/wiki/Apfelwickler","urlInsektenSachsen": "https://www.insekten-sachsen.de/Pages/TaxonomyBrowser.aspx?Id=439192","urlSonstige": "http://www.lepiforum.de/lepiwiki.pl?Cydia_pomonella","beobachtungen": [{"datum": "2016-01-07","fundort": "Musterstadt","anzahl": 6,"stadium": "Imago","lon": 13.958782883139188,"pruefung": "Insekten Sachsen","beobachter": "Maria Muster","lat": 51.18218350190235}]},{"name": "Cyphocleonus dealbatus","nameDeutsch": "Gefleckter Langrüssler","ordnung": "Käfer","familie": "Rüsselkäfer","urlInsektenSachsen": "https://www.insekten-sachsen.de/Pages/TaxonomyBrowser.aspx?Id=248707","beobachtungen": [{"datum": "2020-01-27","fundort": "Musterstadt","anzahl": 1,"stadium": "Imago","lon": 14.332920424893599,"pruefung": "Insekten Sachsen","beobachter": "Maria Muster","lat": 51.798019717615276}]},{"name": "Cyphostethus tristriatus","nameDeutsch": "Buntrock","ordnung": "Schnabelkerfen","familie": "Stachelwanzen","urlWikipedia": "https://de.wikipedia.org/wiki/Buntrock","urlInsektenSachsen": "https://www.insekten-sachsen.de/Pages/TaxonomyBrowser.aspx?Id=453905","beobachtungen": [{"datum": "2018-12-07","fundort": "Musterstadt","anzahl": 2,"stadium": "Imago","lon": 13.961138270298212,"pruefung": "Insekten Sachsen","beobachter": "Maria Muster","lat": 51.18063794148442}]},{"name": "Deilephila elpenor","nameDeutsch": "Mittlerer Weinschwärmer","ordnung": "Schmetterlinge","familie": "Schwärmer","urlWikipedia": "https://de.wikipedia.org/wiki/Mittlerer_Weinschw%C3%A4rmer","urlInsektenSachsen": "https://www.insekten-sachsen.de/Pages/TaxonomyBrowser.aspx?Id=443736","urlSonstige": "http://www.lepiforum.de/lepiwiki.pl?Deilephila_elpenor","beobachtungen": [{"datum": "2014-01-02","fundort": "Musterstadt","anzahl": 1,"stadium": "Imago","lon": 13.975170258770019,"pruefung": "Insekten Sachsen","beobachter": "Maria Muster","lat": 51.24517485565765}]},{"name": "Deraeocoris ruber","nameDeutsch": "Rote Weichwanze","ordnung": "Schnabelkerfen","familie": "Weichwanzen","urlWikipedia": "https://de.wikipedia.org/wiki/Rote_Weichwanze","urlInsektenSachsen": "https://www.insekten-sachsen.de/Pages/TaxonomyBrowser.aspx?Id=452358","beobachtungen": [{"datum": "2013-09-26","fundort": "Musterstadt","anzahl": 1,"stadium": "Imago","lon": 14.343088104174631,"pruefung": "Insekten Sachsen","beobachter": "Maria Muster","lat": 51.80369307982482},{"datum": "2016-06-06","fundort": "Musterstadt","anzahl": 1,"stadium": "Imago","lon": 13.949512062946487,"pruefung": "Insekten Sachsen","beobachter": "Maria Muster","lat": 51.189609886084774}]},{"name": "Dictyophara europaea","nameDeutsch": "Europäischer Laternenträger","ordnung": "Schnabelkerfen","familie": "Dictyopharidae","urlWikipedia": "https://de.wikipedia.org/wiki/Europ%C3%A4ischer_Laternentr%C3%A4ger","urlInsektenSachsen": "https://www.insekten-sachsen.de/Pages/TaxonomyBrowser.aspx?Id=239663","beobachtungen": [{"datum": "2013-04-02","fundort": "Musterstadt","anzahl": 1,"stadium": "Imago","lon": 13.967852413365408,"pruefung": "Insekten Sachsen","beobachter": "Maria Muster","lat": 51.235556631490475}]},{"name": "Dioctria hyalipennis","nameDeutsch": "Dioctria hyalipennis","ordnung": "Zweiflügler","familie": "Raubfliegen","urlWikipedia": "https://en.wikipedia.org/wiki/Dioctria_hyalipennis","urlInsektenSachsen": "https://www.insekten-sachsen.de/Pages/TaxonomyBrowser.aspx?Id=60054","beobachtungen": [{"datum": "2014-10-05","fundort": "Musterstadt","anzahl": 1,"stadium": "Imago","lon": 13.971398878045644,"pruefung": "Insekten Sachsen","beobachter": "Maria Muster","lat": 51.17810195898896}]},{"name": "Diurnea fagella","nameDeutsch": "Frühjahrsbuchenmotte","ordnung": "Schmetterlinge","familie": "Breitflügelmotten","urlWikipedia": "https://de.wikipedia.org/wiki/Buchenmotte","urlInsektenSachsen": "https://www.insekten-sachsen.de/Pages/TaxonomyBrowser.aspx?Id=434869","urlSonstige": "http://www.lepiforum.de/lepiwiki.pl?Diurnea_fagella","beobachtungen": [{"datum": "2013-04-04","fundort": "Musterstadt","anzahl": 1,"stadium": "Imago","lon": 13.80727210971521,"pruefung": "Insekten Sachsen","beobachter": "Maria Muster","lat": 51.19477462273821}]},{"name": "Diurnea lipsiella","nameDeutsch": "Herbstbuchenmotte","ordnung": "Schmetterlinge","familie": "Breitflügelmotten","urlWikipedia": "https://de.wikipedia.org/wiki/Diurnea_lipsiella","urlInsektenSachsen": "https://www.insekten-sachsen.de/Pages/TaxonomyBrowser.aspx?Id=434870","urlSonstige": "http://www.lepiforum.de/lepiwiki.pl?Diurnea_lipsiella","beobachtungen": [{"datum": "2018-05-25","fundort": "Musterstadt","anzahl": 2,"stadium": "Imago","lon": 13.757189955119822,"pruefung": "Insekten Sachsen","beobachter": "Maria Muster","lat": 51.12809284690538},{"datum": "2019-05-13","fundort": "Musterstadt","anzahl": 3,"stadium": "Imago","lon": 13.693044536267989,"pruefung": "Insekten Sachsen","beobachter": "Max Mustermann","lat": 51.15524377674544}]},{"name": "Dolycoris baccarum","nameDeutsch": "Beerenwanze","ordnung": "Schnabelkerfen","familie": "Baumwanzen","urlWikipedia": "https://de.wikipedia.org/wiki/Beerenwanze","urlInsektenSachsen": "https://www.insekten-sachsen.de/Pages/TaxonomyBrowser.aspx?Id=454109","beobachtungen": [{"datum": "2017-09-24","fundort": "Musterstadt","anzahl": 1,"stadium": "Imago","lon": 13.952852936663062,"pruefung": "Insekten Sachsen","beobachter": "Maria Muster","lat": 51.20079750320807},{"datum": "2020-01-17","fundort": "Musterstadt","anzahl": 2,"stadium": "Imago","lon": 13.978512548849215,"pruefung": "Insekten Sachsen","beobachter": "Max Mustermann","lat": 51.17147051924703},{"datum": "2011-11-12","fundort": "Musterstadt","anzahl": 1,"stadium": "Imago","lon": 13.706651921592089,"pruefung": "Insekten Sachsen","beobachter": "Max Mustermann","lat": 51.07341740238398},{"datum": "2014-01-29","fundort": "Musterstadt","anzahl": 1,"stadium": "Imago","lon": 13.727645294532723,"pruefung": "iNaturalist","beobachter": "Max Mustermann","lat": 51.073155955092865},{"datum": "2012-12-19","fundort": "Musterstadt","anzahl": 1,"stadium": "Imago","lon": 13.98874728013151,"pruefung": "Insekten Sachsen","beobachter": "Max Mustermann","lat": 51.15728161822692}]},{"name": "Drepanepteryx phalaenoides","nameDeutsch": "Totes Blatt","ordnung": "Netzflügler","familie": "Taghafte","urlWikipedia": "https://de.wikipedia.org/wiki/Totes_Blatt_(Netzfl%C3%BCgler)","urlInsektenSachsen": "https://www.insekten-sachsen.de/Pages/TaxonomyBrowser.aspx?Id=85543","beobachtungen": [{"datum": "2012-01-29","fundort": "Musterstadt","anzahl": 1,"stadium": "Imago","lon": 13.95128155549165,"pruefung": "Insekten Sachsen","beobachter": "Maria Muster","lat": 51.1826246068374}]},{"name": "Dysstroma truncata","nameDeutsch": "Möndchenflecken-Bindenspanner","ordnung": "Schmetterlinge","familie": "Spanner","urlWikipedia": "https://de.wikipedia.org/wiki/M%C3%B6ndchenflecken-Bindenspanner","urlInsektenSachsen": "https://www.insekten-sachsen.de/Pages/TaxonomyBrowser.aspx?Id=444655","urlSonstige": "http://www.lepiforum.de/lepiwiki.pl?Dysstroma_truncata","beobachtungen": [{"datum": "2011-05-08","fundort": "Musterstadt","anzahl": 1,"stadium": "Imago","lon": 13.683119097246063,"pruefung": "Insekten Sachsen","beobachter": "Maria Muster","lat": 51.09236082225231}]},{"name": "Ectropis crepuscularia","nameDeutsch": "Zackenbindiger Rindenspanner","ordnung": "Schmetterlinge","familie": "Spanner","urlWikipedia": "https://de.wikipedia.org/wiki/Zackenbindiger_Rindenspanner","urlInsektenSachsen": "https://www.insekten-sachsen.de/Pages/TaxonomyBrowser.aspx?Id=445706","urlSonstige": "http://www.lepiforum.de/lepiwiki.pl?Ectropis_crepuscularia","beobachtungen": [{"datum": "2020-05-23","fundort": "Musterstadt","anzahl": 1,"stadium": "Imago","lon": 13.955736942650674,"pruefung": "Insekten Sachsen","beobachter": "Maria Muster","lat": 51.17957904641948}]},{"name": "Elasmucha grisea","nameDeutsch": "Fleckige Brutwanze","ordnung": "Schnabelkerfen","familie": "Stachelwanzen","urlWikipedia": "https://de.wikipedia.org/wiki/Fleckige_Brutwanze","urlInsektenSachsen": "https://www.insekten-sachsen.de/Pages/TaxonomyBrowser.aspx?Id=453898","beobachtungen": [{"datum": "2020-08-26","fundort": "Musterstadt","anzahl": 1,"stadium": "Imago","lon": 13.968695699452917,"pruefung": "Insekten Sachsen","beobachter": "Maria Muster","lat": 51.22434329654544}]},{"name": "Emmelina monodactyla","nameDeutsch": "Windengeistchen","ordnung": "Schmetterlinge","familie": "Federmotten","urlWikipedia": "https://de.wikipedia.org/wiki/Emmelina_monodactyla","urlInsektenSachsen": "https://www.insekten-sachsen.de/Pages/TaxonomyBrowser.aspx?Id=437911","urlSonstige": "http://www.lepiforum.de/lepiwiki.pl?Emmelina_monodactyla","beobachtungen": [{"datum": "2013-10-18","fundort": "Musterstadt","anzahl": 1,"stadium": "Imago","lon": 13.972233240760294,"pruefung": "Insekten Sachsen","beobachter": "Maria Muster","lat": 51.18507951196034}]},{"name": "Enallagma cyathigerum","nameDeutsch": "Gemeine Becherjungfer","ordnung": "Libellen","familie": "Schlanklibellen","urlWikipedia": "https://de.wikipedia.org/wiki/Gemeine_Becherjungfer","urlInsektenSachsen": "https://www.insekten-sachsen.de/Pages/TaxonomyBrowser.aspx?Id=214276","urlSonstige": "https://libellenwissen.de/libellenarten/kleinlibellen/schlanklibellen-coenagrionidae/gemeine-becherjungfer/","beobachtungen": [{"datum": "2018-07-26","fundort": "Musterstadt","anzahl": 1,"stadium": "Imago","lon": 15.575551047617871,"pruefung": "iNaturalist","beobachter": "Maria Muster","lat": 44.87383126272751}]},{"name": "Enarmonia formosana","nameDeutsch": "Obstbaumrindenwickler","ordnung": "Schmetterlinge","familie": "Wickler","urlWikipedia": "https://en.wikipedia.org/wiki/Enarmonia_formosana","urlInsektenSachsen": "https://www.insekten-sachsen.de/Pages/TaxonomyBrowser.aspx?Id=438717","urlSonstige": "http://www.lepiforum.de/lepiwiki.pl?Enarmonia_formosana","beobachtungen": [{"datum": "2013-02-07","fundort": "Musterstadt","anzahl": 1,"stadium": "Imago","lon": 13.708397550398107,"pruefung": "Insekten Sachsen","beobachter": "Maria Muster","lat": 51.082643063626},{"datum": "2016-08-28","fundort": "Musterstadt","anzahl": 1,"stadium": "Imago","lon": 13.997377730983814,"pruefung": "Insekten Sachsen","beobachter": "Max Mustermann","lat": 51.16839158151565}]},{"name": "Endotricha flammealis","nameDeutsch": "Geflammter Kleinzünsler","ordnung": "Schmetterlinge","familie": "Zünsler","urlWikipedia": "https://de.wikipedia.org/wiki/Geflammter_Kleinz%C3%BCnsler","urlInsektenSachsen": "https://www.insekten-sachsen.de/Pages/TaxonomyBrowser.aspx?Id=442601","urlSonstige": "http://www.lepiforum.de/lepiwiki.pl?Endotricha_flammealis","beobachtungen": [{"datum": "2018-04-10","fundort": "Musterstadt","anzahl": 1,"stadium": "Imago","lon": 13.955361859588884,"pruefung": "Insekten Sachsen","beobachter": "Maria Muster","lat": 51.19210661529165},{"datum": "2014-05-09","fundort": "Musterstadt","anzahl": 1,"stadium": "Imago","lon": 13.95837441463446,"pruefung": "Insekten Sachsen","beobachter": "Maria Muster","lat": 51.194625268418456}]},{"name": "Ennomos erosaria","nameDeutsch": "Birken-Zackenrandspanner","ordnung": "Schmetterlinge","familie": "Spanner","urlWikipedia": "https://de.wikipedia.org/wiki/Birken-Zackenrandspanner","urlInsektenSachsen": "https://www.insekten-sachsen.de/Pages/TaxonomyBrowser.aspx?Id=445977","urlSonstige": "http://www.lepiforum.de/lepiwiki.pl?Ennomos_erosaria","beobachtungen": [{"datum": "2013-07-15","fundort": "Musterstadt","anzahl": 1,"stadium": "Imago","lon": 13.826340644541053,"pruefung": "Insekten Sachsen","beobachter": "Maria Muster","lat": 51.200978580580596}]},{"name": "Epirrhoe alternata","nameDeutsch": "Graubinden-Labkrautspanner","ordnung": "Schmetterlinge","familie": "Spanner","urlWikipedia": "https://de.wikipedia.org/wiki/Graubinden-Labkrautspanner","urlInsektenSachsen": "https://www.insekten-sachsen.de/Pages/TaxonomyBrowser.aspx?Id=445269","urlSonstige": "http://www.lepiforum.de/lepiwiki.pl?Epirrhoe_alternata","beobachtungen": [{"datum": "2020-06-12","fundort": "Musterstadt","anzahl": 1,"stadium": "Imago","lon": 13.85151387621062,"pruefung": "Insekten Sachsen","beobachter": "Maria Muster","lat": 51.185651244627856}]},{"name": "Episyrphus balteatus","nameDeutsch": "Hainschwebfliege","ordnung": "Zweiflügler","familie": "Schwebfliegen","urlWikipedia": "https://de.wikipedia.org/wiki/Hainschwebfliege","urlInsektenSachsen": "https://www.insekten-sachsen.de/Pages/TaxonomyBrowser.aspx?Id=65463","beobachtungen": [{"datum": "2018-05-15","fundort": "Musterstadt","anzahl": 1,"stadium": "Imago","lon": 5.658073027589408,"pruefung": "iNaturalist","beobachter": "Maria Muster","lat": 50.84514933381144},{"datum": "2014-07-02","fundort": "Musterstadt","anzahl": 1,"stadium": "Imago","lon": 13.975230201321407,"pruefung": "Insekten Sachsen","beobachter": "Max Mustermann","lat": 51.15731465780357},{"datum": "2015-01-30","fundort": "Musterstadt","anzahl": 1,"stadium": "Imago","lon": 13.722045680889433,"pruefung": "Insekten Sachsen","beobachter": "Max Mustermann","lat": 51.06689974906881}]},{"name": "Erannis defoliaria","nameDeutsch": "Großer Frostspanner","ordnung": "Schmetterlinge","familie": "Spanner","urlWikipedia": "https://de.wikipedia.org/wiki/Gro%C3%9Fer_Frostspanner","urlInsektenSachsen": "https://www.insekten-sachsen.de/Pages/TaxonomyBrowser.aspx?Id=445589","urlSonstige": "http://www.lepiforum.de/lepiwiki.pl?Erannis_defoliaria","beobachtungen": [{"datum": "2013-04-21","fundort": "Musterstadt","anzahl": 1,"stadium": "Larve","lon": 13.86008710832722,"pruefung": "Insekten Sachsen","beobachter": "Maria Muster","lat": 51.19822390807908},{"datum": "2013-07-11","fundort": "Musterstadt","anzahl": 1,"stadium": "Imago","lon": 13.853078055703136,"pruefung": "Insekten Sachsen","beobachter": "Max Mustermann","lat": 51.174297808167495},{"datum": "2016-07-07","fundort": "Musterstadt","anzahl": 4,"stadium": "Imago","lon": 13.671192831135683,"pruefung": "Insekten Sachsen","beobachter": "Maria Muster","lat": 51.095702159711834}]},{"name": "Eristalinus aeneus","nameDeutsch": "Glänzende Faulschlammschwebfliege","ordnung": "Zweiflügler","familie": "Schwebfliegen","urlWikipedia": "https://de.wikipedia.org/wiki/Gl%C3%A4nzende_Faulschlammschwebfliege","urlInsektenSachsen": "https://www.insekten-sachsen.de/Pages/TaxonomyBrowser.aspx?Id=65468","beobachtungen": [{"datum": "2014-09-08","fundort": "Musterstadt","anzahl": 1,"stadium": "Imago","lon": 13.960292328915628,"pruefung": "Insekten Sachsen","beobachter": "Maria Muster","lat": 51.19663348600155}]},{"name": "Eristalis pertinax","nameDeutsch": "Gemeine Keilfleckschwebfliege","ordnung": "Zweiflügler","familie": "Schwebfliegen","urlWikipedia": "https://en.wikipedia.org/wiki/Eristalis_pertinax","urlInsektenSachsen": "https://www.insekten-sachsen.de/Pages/TaxonomyBrowser.aspx?Id=65485 ","beobachtungen": [{"datum": "2012-09-22","fundort": "Musterstadt","anzahl": 1,"stadium": "Imago","lon": 13.940110174320239,"pruefung": "Insekten Sachsen","beobachter": "Maria Muster","lat": 51.20105171016872}]},{"name": "Euclidia glyphica","nameDeutsch": "Braune Tageule","ordnung": "Schmetterlinge","familie": "Eulenfalter","urlWikipedia": "https://de.wikipedia.org/wiki/Braune_Tageule","urlInsektenSachsen": "https://www.insekten-sachsen.de/Pages/TaxonomyBrowser.aspx?Id=446607","urlSonstige": "http://www.lepiforum.de/lepiwiki.pl?Euclidia_glyphica","beobachtungen": [{"datum": "2015-10-26","fundort": "Musterstadt","anzahl": 1,"stadium": "Imago","lon": 13.964947716074652,"pruefung": "Insekten Sachsen","beobachter": "Maria Muster","lat": 51.193687925583625},{"datum": "2018-11-19","fundort": "Musterstadt","anzahl": 1,"stadium": "Imago","lon": 13.898912711208876,"pruefung": "Insekten Sachsen","beobachter": "Max Mustermann","lat": 51.165073632274925},{"datum": "2012-07-15","fundort": "Musterstadt","anzahl": 1,"stadium": "Imago","lon": 14.736380475212508,"pruefung": "Insekten Sachsen","beobachter": "Max Mustermann","lat": 50.850906428757966},{"datum": "2013-07-01","fundort": "Musterstadt","anzahl": 1,"stadium": "Imago","lon": 14.56303828942659,"pruefung": "iNaturalist","beobachter": "Max Mustermann","lat": 50.98825297322666},