[{"name": "Acilius sulcatus","nameDeutsch": "Gemeiner Furchenschwimmer","ordnung": "Käfer","familie": "Schwimmkäfer","urlWikipedia": "https://de.wikipedia.org/wiki/Gemeiner_Furchenschwimmer","urlInsektenSachsen": "https://www.insekten-sachsen.de/Pages/TaxonomyBrowser.aspx?Id=119190","beobachtungen": [{"datum": "2014-05-26","fundort": "Musterstadt","anzahl": 1,"stadium": "Imago","lon": 13.956649906771725,"pruefung": "Insekten Sachsen","beobachter": "Maria Muster","lat": 51.19667320360651}]},{"name": "Acleris forsskaleana","nameDeutsch": "Ahornwickler","ordnung": "Schmetterlinge","familie": "Wickler","urlWikipedia": "https://en.wikipedia.org/wiki/Acleris_forsskaleana","urlInsektenSachsen": "https://www.insekten-sachsen.de/Pages/TaxonomyBrowser.aspx?Id=439513","urlSonstige": "http://www.lepiforum.de/lepiwiki.pl?Acleris_forsskaleana","beobachtungen": [{"datum": "2017-01-27","fundort": "Musterstadt","anzahl": 1,"stadium": "Imago","lon": 13.692493000914672,"pruefung": "Insekten Sachsen","beobachter": "Maria Muster","lat": 51.095708720561106}]},{"name": "Acleris variegana","nameDeutsch": "Acleris variegana","ordnung": "Schmetterlinge","familie": "Wickler","urlWikipedia": "https://en.wikipedia.org/wiki/Acleris_variegana","urlInsektenSachsen": "https://www.insekten-sachsen.de/Pages/TaxonomyBrowser.aspx?Id=439533","urlSonstige": "http://www.lepiforum.de/lepiwiki.pl?Acleris_variegana","beobachtungen": [{"datum": "2018-09-21","fundort": "Musterstadt","anzahl": 1,"stadium": "Imago","lon": 13.97120377433865,"pruefung": "Insekten Sachsen","beobachter": "Maria Muster","lat": 51.18621760002327},{"datum": "2021-03-21","fundort": "Musterstadt","anzahl": 1,"stadium": "Imago","lon": 13.69316948279526,"pruefung": "Insekten Sachsen","beobachter": "Maria Muster","lat": 51.083620489382525}]},{"name": "Acronicta aceris","nameDeutsch": "Ahorneule","ordnung": "Schmetterlinge","familie": "Eulenfalter","urlWikipedia": "https://de.wikipedia.org/wiki/Ahorn-Rindeneule","urlInsektenSachsen": "https://www.insekten-sachsen.de/Pages/TaxonomyBrowser.aspx?Id=449422","urlSonstige": "http://www.lepiforum.de/lepiwiki.pl?Acronicta_Aceris","beobachtungen": [{"datum": "2011-05-10","fundort": "Musterstadt","anzahl": 1,"stadium": "Larve","lon": 13.964117918299916,"pruefung": "Insekten Sachsen","beobachter": "Maria Muster","lat": 51.185136289731304},{"datum": "2020-07-26","fundort": "Musterstadt","anzahl": 1,"stadium": "Imago","lon": 13.969856608191561,"pruefung": "Insekten Sachsen","beobachter": "Maria Muster","lat": 51.1795193900759}]},{"name": "Acronicta leporina","nameDeutsch": "Woll-Rindeneule","ordnung": "Schmetterlinge","familie": "Eulenfalter","urlWikipedia": "https://de.wikipedia.org/wiki/Woll-Rindeneule","urlInsektenSachsen": "https://www.insekten-sachsen.de/Pages/TaxonomyBrowser.aspx?Id=449425","urlSonstige": "http://www.lepiforum.de/lepiwiki.pl?Acronicta_leporina","beobachtungen": [{"datum": "2015-02-22","fundort": "Musterstadt","anzahl": 1,"stadium": "Imago","lon": 13.685655459607293,"pruefung": "Insekten Sachsen","beobachter": "Maria Muster","lat": 51.085972505444225}]},{"name": "Acronicta rumicis","nameDeutsch": "Ampfereule","ordnung": "Schmetterlinge","familie": "Eulenfalter","urlWikipedia": "https://de.wikipedia.org/wiki/Ampfer-Rindeneule","urlInsektenSachsen": "https://www.insekten-sachsen.de/Pages/TaxonomyBrowser.aspx?Id=449434","urlSonstige": "http://www.lepiforum.de/lepiwiki.pl?Acronicta_rumicis","beobachtungen": [{"datum": "2014-10-01","fundort": "Musterstadt","anzahl": 1,"stadium": "Imago","lon": 13.694710846319282,"pruefung": "Insekten Sachsen","beobachter": "Maria Muster","lat": 51.0919269450263}]},{"name": "Adalia bipunctata","nameDeutsch": "Zweipunkt-Marienkäfer","ordnung": "Käfer","familie": "Marienkäfer","urlWikipedia": "https://de.wikipedia.org/wiki/Zweipunkt-Marienk%C3%A4fer","urlInsektenSachsen": "https://www.insekten-sachsen.de/Pages/TaxonomyBrowser.aspx?Id=230472","beobachtungen": [{"datum": "2017-06-18","fundort": "Musterstadt","anzahl": 1,"stadium": "Imago","lon": 13.696407476229028,"pruefung": "Insekten Sachsen","beobachter": "Maria Muster","lat": 51.081317134482404},{"datum": "2015-10-24","fundort": "Musterstadt","anzahl": 1,"stadium": "Imago","lon": 13.971156283472238,"pruefung": "Insekten Sachsen","beobachter": "Maria Muster","lat": 51.18011316342407}]},{"name": "Adalia decempunctata","nameDeutsch": "Zehnpunkt-Marienkäfer","ordnung": "Käfer","familie": "Marienkäfer","urlWikipedia": "https://de.wikipedia.org/wiki/Zehnpunkt-Marienk%C3%A4fer","urlInsektenSachsen": "https://www.insekten-sachsen.de/Pages/TaxonomyBrowser.aspx?Id=230476","beobachtungen": [{"datum": "2015-06-13","fundort": "Musterstadt","anzahl": 1,"stadium": "Imago","lon": 13.954845017983441,"pruefung": "Insekten Sachsen","beobachter": "Maria Muster","lat": 51.18455334989731},{"datum": "2013-01-01","fundort": "Musterstadt","anzahl": 1,"stadium": "Imago","lon": 13.853952461360509,"pruefung": "Insekten Sachsen","beobachter": "Max Mustermann","lat": 51.16795734904223}]},{"name": "Aedia funesta","nameDeutsch": "Zaunwinden-Trauereule","ordnung": "Schmetterlinge","familie": "Eulenfalter","urlWikipedia": "https://de.wikipedia.org/wiki/Zaunwinden-Trauereule","urlInsektenSachsen": "https://www.insekten-sachsen.de/Pages/TaxonomyBrowser.aspx?Id=449486","urlSonstige": "http://www.lepiforum.de/lepiwiki.pl?Aedia_funesta","beobachtungen": [{"datum": "2018-03-09","fundort": "Musterstadt","anzahl": 1,"stadium": "Imago","lon": 13.959500404695431,"pruefung": "Insekten Sachsen","beobachter": "Maria Muster","lat": 51.181507789479376}]},{"name": "Aelia acuminata","nameDeutsch": "Spitzling","ordnung": "Schnabelkerfe","familie": "Baumwanzen","urlWikipedia": "https://de.wikipedia.org/wiki/Getreidewanze","urlInsektenSachsen": "https://www.insekten-sachsen.de/Pages/TaxonomyBrowser.aspx?Id=454059","beobachtungen": [{"datum": "2017-01-27","fundort": "Musterstadt","anzahl": 1,"stadium": "Imago","lon": 13.96280562528384,"pruefung": "Insekten Sachsen","beobachter": "Maria Muster","lat": 51.183517367103825},{"datum": "2011-12-04","fundort": "Musterstadt","anzahl": 1,"stadium": "Imago","lon": 13.99358711686625,"pruefung": "Insekten Sachsen","beobachter": "Max Mustermann","lat": 51.174733173447684},{"datum": "2019-03-24","fundort": "Musterstadt","anzahl": 1,"stadium": "Imago","lon": 13.678112928961385,"pruefung": "Insekten Sachsen","beobachter": "Maria Muster","lat": 51.089024584909595}]},{"name": "Aeshna cyanea","nameDeutsch": "Blaugrüne Mosaikjungfer","ordnung": "Libellen","familie": "Edellibellen","urlWikipedia": "https://de.wikipedia.org/wiki/Blaugr%C3%BCne_Mosaikjungfer","urlInsektenSachsen": "https://www.insekten-sachsen.de/Pages/TaxonomyBrowser.aspx?Id=214303","urlSonstige": "https://libellenwissen.de/libellenarten/grosslibellen/edellibellen-aeshnidae/blaugruene-mosaikjungfer/","beobachtungen": [{"datum": "2018-09-29","fundort": "Musterstadt","anzahl": 1,"stadium": "Imago","lon": 13.93557885740044,"pruefung": "Insekten Sachsen","beobachter": "Maria Muster","lat": 51.20299003085307}]},{"name": "Aeshna mixta","nameDeutsch": "Herbst-Mosaikjungfer","ordnung": "Libellen","familie": "Edellibellen","urlWikipedia": "https://de.wikipedia.org/wiki/Herbst-Mosaikjungfer","urlInsektenSachsen": "https://www.insekten-sachsen.de/Pages/TaxonomyBrowser.aspx?Id=214308","urlSonstige": "https://libellenwissen.de/libellenarten/grosslibellen/edellibellen-aeshnidae/herbst-mosaikjungfer/","beobachtungen": [{"datum": "2019-08-02","fundort": "Musterstadt","anzahl": 1,"stadium": "Imago","lon": 14.35290410658581,"pruefung": "Insekten Sachsen","beobachter": "Maria Muster","lat": 51.815507323640496},{"datum": "2012-10-01","fundort": "Musterstadt","anzahl": 1,"stadium": "Imago","lon": 14.374000478101898,"pruefung": "Insekten Sachsen","beobachter": "Max Mustermann","lat": 51.77444361243404}]},{"name": "Aglais io","nameDeutsch": "Tagpfauenauge","ordnung": "Schmetterlinge","familie": "Edelfalter","urlWikipedia": "https://de.wikipedia.org/wiki/Tagpfauenauge","urlInsektenSachsen": "https://www.insekten-sachsen.de/Pages/TaxonomyBrowser.aspx?Id=441678","urlSonstige": "http://www.lepiforum.de/lepiwiki.pl?Aglais_Io","beobachtungen": [{"datum": "2020-09-05","fundort": "Musterstadt","anzahl": 1,"stadium": "Imago","lon": 6.6297473193144,"pruefung": "iNaturalist","beobachter": "Maria Muster","lat": 49.45880078376983},{"datum": "2017-12-09","fundort": "Musterstadt","anzahl": 1,"stadium": "Imago","lon": 13.453903813134644,"pruefung": "Insekten Sachsen","beobachter": "Maria Muster","lat": 50.66939008713615},{"datum": "2018-11-14","fundort": "Musterstadt","anzahl": 1,"stadium": "Imago","lon": 13.768926780447362,"pruefung": "Insekten Sachsen","beobachter": "Max Mustermann","lat": 51.02455012754675},{"datum": "2011-12-02","fundort": "Musterstadt","anzahl": 1,"stadium": "Imago","lon": 13.951612061211875,"pruefung": "Insekten Sachsen","beobachter": "Max Mustermann","lat": 50.82662469751094},{"datum": "2013-05-27","fundort": "Musterstadt","anzahl": 3,"stadium": "Imago","lon": 14.347967626103232,"pruefung": "Insekten Sachsen","beobachter": "Maria Muster","lat": 51.80502825299174},{"datum": "2016-04-27","fundort": "Musterstadt","anzahl": 1,"stadium": "Imago","lon": 13.971251436532695,"pruefung": "Insekten Sachsen","beobachter": "Maria Muster","lat": 51.1918045105285},{"datum": "2019-03-16","fundort": "Musterstadt","anzahl": 1,"stadium": "Imago","lon": 12.413487048029735,"pruefung": "iNaturalist","beobachter": "Max Mustermann","lat": 54.325775994271346},{"datum": "2011-09-24","fundort": "Musterstadt","anzahl": 1,"stadium": "Imago","lon": 13.944805853136204,"pruefung": "Insekten Sachsen","beobachter": "Maria Muster","lat": 51.19054062858714},{"datum": "2011-06-26","fundort": "Musterstadt","anzahl": 1,"stadium": "Imago","lon": 13.954152540558205,"pruefung": "Insekten Sachsen","beobachter": "Maria Muster","lat": 51.18569821085627},{"datum": "2016-03-11","fundort": "Musterstadt","anzahl": 1,"stadium": "Imago","lon": 13.943465732174298,"pruefung": "Insekten Sachsen","beobachter": "Maria Muster","lat": 51.19215482804515},{"datum": "2012-06-19","fundort": "Musterstadt","anzahl": 1,"stadium": "Imago","lon": 14.35921685862165,"pruefung": "iNaturalist","beobachter": "Max Mustermann","lat": 51.77651418470207},{"datum": "2018-01-05","fundort": "Musterstadt","anzahl": 1,"stadium": "Imago","lon": 13.694471975164257,"pruefung": "Insekten Sachsen","beobachter": "Maria Muster","lat": 51.09553305380296}]},{"name": "Aglais urticae","nameDeutsch": "Kleiner Fuchs","ordnung": "Schmetterlinge","familie": "Edelfalter","urlWikipedia": "https://de.wikipedia.org/wiki/Kleiner_Fuchs","urlInsektenSachsen": "https://www.insekten-sachsen.de/Pages/TaxonomyBrowser.aspx?ID=441679","urlSonstige": "http://www.lepiforum.de/lepiwiki.pl?Aglais_urticae","beobachtungen": [{"datum": "2020-09-20","fundort": "Musterstadt","anzahl": 1,"stadium": "Imago","lon": 13.956529546821672,"pruefung": "Insekten Sachsen","beobachter": "Maria Muster","lat": 51.186475764826305},{"datum": "2014-04-29","fundort": "Musterstadt","anzahl": 1,"stadium": "Imago","lon": 13.967240254596657,"pruefung": "Insekten Sachsen","beobachter": "Maria Muster","lat": 51.191200157828696},{"datum": "2011-05-30","fundort": "Musterstadt","anzahl": 1,"stadium": "Imago","lon": 13.98433938874492,"pruefung": "Insekten Sachsen","beobachter": "Max Mustermann","lat": 51.16746225194344},{"datum": "2015-06-03","fundort": "Musterstadt","anzahl": 1,"stadium": "Imago","lon": 14.60043478628863,"pruefung": "Insekten Sachsen","beobachter": "Max Mustermann","lat": 50.996660407893785},{"datum": "2014-12-26","fundort": "Musterstadt","anzahl": 1,"stadium": "Imago","lon": 14.554976336200447,"pruefung": "Insekten Sachsen","beobachter": "Maria Muster","lat": 51.02719643506898},{"datum": "2018-11-01","fundort": "Musterstadt","anzahl": 3,"stadium": "Imago","lon": 13.945464943941607,"pruefung": "Insekten Sachsen","beobachter": "Max Mustermann","lat": 50.825484999421356}]},{"name": "Agriopis leucophaearia","nameDeutsch": "Weißgrauer Breitflügelspanner","ordnung": "Schmetterlinge","familie": "Spanner","urlWikipedia": "https://de.wikipedia.org/wiki/Wei%C3%9Fgrauer_Breitfl%C3%BCgelspanner","urlInsektenSachsen": "https://www.insekten-sachsen.de/Pages/TaxonomyBrowser.aspx?Id=445595","urlSonstige": "http://www.lepiforum.de/lepiwiki.pl?Agriopis_leucophaearia","beobachtungen": [{"datum": "2020-12-16","fundort": "Musterstadt","anzahl": 1,"stadium": "Imago","lon": 13.67251355236225,"pruefung": "Insekten Sachsen","beobachter": "Maria Muster","lat": 51.0968573077397}]},{"name": "Agriopis marginaria","nameDeutsch": "Graugelber Breitflügelspanner","ordnung": "Schmetterlinge","familie": "Spanner","urlWikipedia": "https://de.wikipedia.org/wiki/Graugelber_Breitfl%C3%BCgelspanner","urlInsektenSachsen": "https://www.insekten-sachsen.de/Pages/TaxonomyBrowser.aspx?Id=445603","urlSonstige": "http://www.lepiforum.de/lepiwiki.pl?Agriopis_marginaria","beobachtungen": [{"datum": "2012-02-08","fundort": "Musterstadt","anzahl": 1,"stadium": "Imago","lon": 13.953572309164493,"pruefung": "Insekten Sachsen","beobachter": "Maria Muster","lat": 51.17022155786565},{"datum": "2015-06-14","fundort": "Musterstadt","anzahl": 2,"stadium": "Imago","lon": 13.713668328323465,"pruefung": "Insekten Sachsen","beobachter": "Max Mustermann","lat": 51.06756724160971}]},{"name": "Agriphila geniculea","nameDeutsch": "Agriphila geniculea","ordnung": "Schmetterlinge","familie": "Crambidae","urlWikipedia": "https://en.wikipedia.org/wiki/Agriphila_geniculea","urlInsektenSachsen": "https://www.insekten-sachsen.de/Pages/TaxonomyBrowser.aspx?Id=443235","urlSonstige": "http://www.lepiforum.de/lepiwiki.pl?Agriphila_geniculea","beobachtungen": [{"datum": "2013-07-06","fundort": "Musterstadt","anzahl": 1,"stadium": "Imago","lon": 13.969483082588471,"pruefung": "Insekten Sachsen","beobachter": "Maria Muster","lat": 51.186030437327815}]},{"name": "Agriphila inquinatella","nameDeutsch": "Agriphila inquinatella","ordnung": "Schmetterlinge","familie": "Crambidae","urlWikipedia": "https://en.wikipedia.org/wiki/Agriphila_inquinatella","urlInsektenSachsen": "https://www.insekten-sachsen.de/Pages/TaxonomyBrowser.aspx?Id=443218","urlSonstige": "http://www.lepiforum.de/lepiwiki.pl?Agriphila_Inquinatella","beobachtungen": [{"datum": "2014-05-01","fundort": "Musterstadt","anzahl": 1,"stadium": "Imago","lon": 13.956592005514294,"pruefung": "Insekten Sachsen","beobachter": "Maria Muster","lat": 51.18273954941141}]},{"name": "Agrochola lychnidis","nameDeutsch": "Veränderliche Herbsteule","ordnung": "Schmetterlinge","familie": "Eulenfalter","urlWikipedia": "https://de.wikipedia.org/wiki/Ver%C3%A4nderliche_Herbsteule","urlInsektenSachsen": "https://www.insekten-sachsen.de/Pages/TaxonomyBrowser.aspx?Id=447737","urlSonstige": "http://www.lepiforum.de/lepiwiki.pl?Agrochola_lychnidis","beobachtungen": [{"datum": "2021-04-25","fundort": "Musterstadt","anzahl": 1,"stadium": "Imago","lon": 13.693465237630894,"pruefung": "Insekten Sachsen","beobachter": "Maria Muster","lat": 51.099212212862625}]},{"name": "Agrotis exclamationis","nameDeutsch": "Ausrufungszeichen","ordnung": "Schmetterlinge","familie": "Eulenfalter","urlWikipedia": "https://de.wikipedia.org/wiki/Ausrufungszeichen","urlInsektenSachsen": "https://www.insekten-sachsen.de/Pages/TaxonomyBrowser.aspx?Id=448466","urlSonstige": "http://www.lepiforum.de/lepiwiki.pl?Agrotis_exclamationis","beobachtungen": [{"datum": "2012-04-10","fundort": "Musterstadt","anzahl": 1,"stadium": "Imago","lon": 13.94934402213603,"pruefung": "Insekten Sachsen","beobachter": "Maria Muster","lat": 51.19498417844959},{"datum": "2014-06-22","fundort": "Musterstadt","anzahl": 1,"stadium": "Imago","lon": 13.678657419989866,"pruefung": "Insekten Sachsen","beobachter": "Maria Muster","lat": 51.0947349567055}]},{"name": "Agrotis ipsilon","nameDeutsch": "Ypsilon-Eule","ordnung": "Schmetterlinge","familie": "Eulenfalter","urlWikipedia": "https://de.wikipedia.org/wiki/Ypsiloneule","urlInsektenSachsen": "https://www.insekten-sachsen.de/Pages/TaxonomyBrowser.aspx?Id=448502","urlSonstige": "http://www.lepiforum.de/lepiwiki.pl?Agrotis_ipsilon","beobachtungen": [{"datum": "2011-09-13","fundort": "Musterstadt","anzahl": 1,"stadium": "Imago","lon": 13.970808331773842,"pruefung": "Insekten Sachsen","beobachter": "Maria Muster","lat": 51.18844773011524}]},{"name": "Agrotis segetum","nameDeutsch": "Wintersaateule","ordnung": "Schmetterlinge","familie": "Eulenfalter","urlWikipedia": "https://de.wikipedia.org/wiki/Saateule","urlInsektenSachsen": "https://www.insekten-sachsen.de/Pages/TaxonomyBrowser.aspx?Id=448472","urlSonstige": "http://www.lepiforum.de/lepiwiki.pl?Agrotis_segetum","urlVideo": "https://youtu.be/96tLXJ72NSY","beobachtungen": [{"datum": "2017-10-27","fundort": "Musterstadt","anzahl": 1,"stadium": "Imago","lon": 13.802763718485831,"pruefung": "Insekten Sachsen","beobachter": "Maria Muster","lat": 51.19200216969732},{"datum": "2017-01-07","fundort": "Musterstadt","anzahl": 1,"stadium": "Larve","lon": 13.676274747742738,"pruefung": "Insekten Sachsen","beobachter": "Maria Muster","lat": 51.10247286890823},{"datum": "2019-05-15","fundort": "Musterstadt","anzahl": 1,"stadium": "Imago","lon": 13.705594635570113,"pruefung": "Insekten Sachsen","beobachter": "Max Mustermann","lat": 51.070742689549604}]},{"name": "Agrypnus murinus","nameDeutsch": "Mausgrauer Schnellkäfer","ordnung": "Käfer","familie": "Schnellkäfer","urlWikipedia": "https://de.wikipedia.org/wiki/Mausgrauer_Schnellk%C3%A4fer","urlInsektenSachsen": "https://www.insekten-sachsen.de/Pages/TaxonomyBrowser.aspx?Id=235467","beobachtungen": [{"datum": "2020-04-05","fundort": "Musterstadt","anzahl": 1,"stadium": "Imago","lon": 13.827433248712051,"pruefung": "Insekten Sachsen","beobachter": "Maria Muster","lat": 51.187475299285445},{"datum": "2018-08-02","fundort": "Musterstadt","anzahl": 1,"stadium": "Imago","lon": 13.973372943832295,"pruefung": "Insekten Sachsen","beobachter": "Max Mustermann","lat": 51.159507168129764},{"datum": "2013-05-26","fundort": "Musterstadt","anzahl": 1,"stadium": "Imago","lon": 13.999427569924581,"pruefung": "Insekten Sachsen","beobachter": "Max Mustermann","lat": 51.16705175528905}]},{"name": "Alosterna tabacicolor","nameDeutsch": "Feldahornbock","ordnung": "Käfer","familie": "Bockkäfer","urlWikipedia": "https://de.wikipedia.org/wiki/Feldahorn-Bock","urlInsektenSachsen": "https://www.insekten-sachsen.de/Pages/TaxonomyBrowser.aspx?Id=114871","beobachtungen": [{"datum": "2018-05-30","fundort": "Musterstadt","anzahl": 2,"stadium": "Imago","lon": 13.683606480828653,"pruefung": "Insekten Sachsen","beobachter": "Maria Muster","lat": 51.18334796273666}]},{"name": "Alucita hexadactyla","nameDeutsch": "Geißblattgeistchen","ordnung": "Schmetterlinge","familie": "Federgeistchen","urlWikipedia": "https://de.wikipedia.org/wiki/Federgeistchen_(Familie)","urlInsektenSachsen": "https://www.insekten-sachsen.de/Pages/TaxonomyBrowser.aspx?Id=437879","urlSonstige": "http://www.lepiforum.de/lepiwiki.pl?Alucita_hexadactyla","beobachtungen": [{"datum": "2017-05-14","fundort": "Musterstadt","anzahl": 1,"stadium": "Imago","lon": 13.957679712498217,"pruefung": "Insekten Sachsen","beobachter": "Maria Muster","lat": 51.18132062678393},{"datum": "2014-10-28","fundort": "Musterstadt","anzahl": 2,"stadium": "Imago","lon": 13.972005274371595,"pruefung": "Insekten Sachsen","beobachter": "Maria Muster","lat": 51.178418106771396}]},{"name": "Alydus calcaratus","nameDeutsch": "Rotrückiger Irrwisch","ordnung": "Schnabelkerfe","familie": "Krummfühlerwanzen","urlWikipedia": "https://de.wikipedia.org/wiki/Alydus_calcaratus","urlInsektenSachsen": "https://www.insekten-sachsen.de/Pages/TaxonomyBrowser.aspx?Id=453680","beobachtungen": [{"datum": "2014-03-29","fundort": "Musterstadt","anzahl": 1,"stadium": "Imago","lon": 13.971858497450388,"pruefung": "Insekten Sachsen","beobachter": "Maria Muster","lat": 51.18339259207286}]},{"name": "Amara aenea","nameDeutsch": "Erzfarbener Kanalkäfer","ordnung": "Käfer","familie": "Laufkäfer","urlWikipedia": "https://de.wikipedia.org/wiki/Erzfarbener_Kanalk%C3%A4fer","urlInsektenSachsen": "https://www.insekten-sachsen.de/Pages/TaxonomyBrowser.aspx?Id=382134","beobachtungen": [{"datum": "2013-10-12","fundort": "Musterstadt","anzahl": 1,"stadium": "Imago","lon": 13.699296038757764,"pruefung": "Insekten Sachsen","beobachter": "Maria Muster","lat": 51.09372880748777}]},{"name": "Ampedus balteatus","nameDeutsch": "Gegürtelter Schnellkäfer","ordnung": "Käfer","familie": "Schnellkäfer","urlWikipedia": "https://de.wikipedia.org/wiki/Geg%C3%BCrtelter_Schnellk%C3%A4fer","urlInsektenSachsen": "https://www.insekten-sachsen.de/Pages/TaxonomyBrowser.aspx?Id=235484","beobachtungen": [{"datum": "2013-10-10","fundort": "Musterstadt","anzahl": 1,"stadium": "Imago","lon": 13.9505692713214,"pruefung": "Insekten Sachsen","beobachter": "Maria Muster","lat": 51.17730147123701}]},{"name": "Ampedus sanguineus","nameDeutsch": "Blutroter Schnellkäfer","ordnung": "Käfer","familie": "Schnellkäfer","urlWikipedia": "https://de.wikipedia.org/wiki/Blutroter_Schnellk%C3%A4fer","urlInsektenSachsen": "https://www.insekten-sachsen.de/Pages/TaxonomyBrowser.aspx?Id=235543","beobachtungen": [{"datum": "2013-08-05","fundort": "Musterstadt","anzahl": 1,"stadium": "Imago","lon": 13.967878193800187,"pruefung": "Insekten Sachsen","beobachter": "Maria Muster","lat": 51.193910583320594}]},{"name": "Amphimallon solstitiale","nameDeutsch": "Junikäfer","ordnung": "Käfer","familie": "Blatthornkäfer","urlWikipedia": "https://de.wikipedia.org/wiki/Gerippter_Brachk%C3%A4fer","urlInsektenSachsen": "https://www.insekten-sachsen.de/Pages/TaxonomyBrowser.aspx?Id=257482","beobachtungen": [{"datum": "2018-05-04","fundort": "Musterstadt","anzahl": 1,"stadium": "Imago","lon": 13.9592688397538,"pruefung": "Insekten Sachsen","beobachter": "Maria Muster","lat": 51.18744380798878},{"datum": "2014-01-09","fundort": "Musterstadt","anzahl": 11,"stadium": "Imago","lon": 13.974055941245782,"pruefung": "Insekten Sachsen","beobachter": "Max Mustermann","lat": 51.17217548257887},{"datum": "2014-01-26","fundort": "Musterstadt","anzahl": 2,"stadium": "Imago","lon": 13.955151976679229,"pruefung": "Insekten Sachsen","beobachter": "Maria Muster","lat": 51.176974486793924}]},{"name": "Amphipyra berbera","nameDeutsch": "Svenssons Pyramideneule","ordnung": "Schmetterlinge","familie": "Eulenfalter","urlWikipedia": "https://de.wikipedia.org/wiki/Svenssons_Pyramideneule","urlInsektenSachsen": "https://www.insekten-sachsen.de/Pages/TaxonomyBrowser.aspx?Id=449278","urlSonstige": "http://www.lepiforum.de/lepiwiki.pl?Amphipyra_berbera","beobachtungen": [{"datum": "2017-07-30","fundort": "Musterstadt","anzahl": 1,"stadium": "Imago","lon": 13.715965569431022,"pruefung": "Insekten Sachsen","beobachter": "Maria Muster","lat": 51.08510193707589}]},{"name": "Amphipyra pyramidea","nameDeutsch": "Pyramideneule","ordnung": "Schmetterlinge","familie": "Eulenfalter","urlWikipedia": "https://de.wikipedia.org/wiki/Pyramideneule","urlInsektenSachsen": "https://www.insekten-sachsen.de/Pages/TaxonomyBrowser.aspx?Id=449277","urlSonstige": "http://www.lepiforum.de/lepiwiki.pl?Amphipyra_pyramidea","beobachtungen": [{"datum": "2013-10-07","fundort": "Musterstadt","anzahl": 1,"stadium": "Imago","lon": 13.967269696859198,"pruefung": "Insekten Sachsen","beobachter": "Maria Muster","lat": 51.186431991486295}]},{"name": "Anacridium aegyptium","nameDeutsch": "Ägyptische Wanderheuschrecke","ordnung": "Heuschrecken","familie": "Feldheuschrecken","urlWikipedia": "https://de.wikipedia.org/wiki/%C3%84gyptische_Wanderheuschrecke","urlSonstige": "http://www.orthoptera.ch/arten/item/anacridium-aegyptium","beobachtungen": [{"datum": "2015-03-22","fundort": "Musterstadt","anzahl": 1,"stadium": "Imago","lon": 3.3705037977762102,"pruefung": "iNaturalist","beobachter": "Maria Muster","lat": 39.59260079475646}]},{"name": "Anania hortulata","nameDeutsch": "Brennnesselzünsler","ordnung": "Schmetterlinge","familie": "Crambidae","urlWikipedia": "https://de.wikipedia.org/wiki/Brennnesselz%C3%BCnsler","urlInsektenSachsen": "https://www.insekten-sachsen.de/Pages/TaxonomyBrowser.aspx?Id=442814","urlSonstige": "http://www.lepiforum.de/lepiwiki.pl?Anania_hortulata","beobachtungen": [{"datum": "2014-04-08","fundort": "Musterstadt","anzahl": 1,"stadium": "Imago","lon": 13.960064612765867,"pruefung": "Insekten Sachsen","beobachter": "Maria Muster","lat": 51.17864684913998},{"datum": "2013-03-16","fundort": "Musterstadt","anzahl": 1,"stadium": "Imago","lon": 14.589217823808939,"pruefung": "Insekten Sachsen","beobachter": "Maria Muster","lat": 51.01061297942618},{"datum": "2012-10-28","fundort": "Musterstadt","anzahl": 1,"stadium": "Imago","lon": 13.974495832953746,"pruefung": "Insekten Sachsen","beobachter": "Max Mustermann","lat": 51.17541549352333}]},{"name": "Anania verbascalis","nameDeutsch": "Anania verbascalis","ordnung": "Schmetterlinge","familie": "Crambidae","urlWikipedia": "https://de.wikipedia.org/wiki/Anania_verbascalis","urlInsektenSachsen": "https://www.insekten-sachsen.de/Pages/TaxonomyBrowser.aspx?Id=442823","urlSonstige": "http://www.lepiforum.de/lepiwiki.pl?Anania_verbascalis","beobachtungen": [{"datum": "2020-02-20","fundort": "Musterstadt","anzahl": 1,"stadium": "Imago","lon": 14.575870282402557,"pruefung": "Insekten Sachsen","beobachter": "Maria Muster","lat": 51.019597557361806}]},{"name": "Anaspis frontalis","nameDeutsch": "Gemeiner Scheinstachelkäfer","ordnung": "Käfer","familie": "Seidenkäfer","urlWikipedia": "https://de.wikipedia.org/wiki/Gemeiner_Scheinstachelk%C3%A4fer","urlInsektenSachsen": "https://www.insekten-sachsen.de/Pages/TaxonomyBrowser.aspx?Id=192468","beobachtungen": [{"datum": "2015-04-24","fundort": "Musterstadt","anzahl": 1,"stadium": "Imago","lon": 13.674601591593333,"pruefung": "Insekten Sachsen","beobachter": "Maria Muster","lat": 51.085728109027464}]},{"name": "Andrena gravida","nameDeutsch": "Schwere Sandbiene","ordnung": "Hautflügler","familie": "Andrenidae","urlWikipedia": "https://de.wikipedia.org/wiki/Andrena_gravida","urlInsektenSachsen": "https://www.insekten-sachsen.de/Pages/TaxonomyBrowser.aspx?Id=231443","beobachtungen": [{"datum": "2018-12-16","fundort": "Musterstadt","anzahl": 1,"stadium": "Imago","lon": 13.677839133347746,"pruefung": "Insekten Sachsen","beobachter": "Maria Muster","lat": 51.08606432444236}]},{"name": "Anisodactylus binotatus","nameDeutsch": "Gewöhnlicher Rotstirnläufer","ordnung": "Käfer","familie": "Laufkäfer","urlWikipedia": "https://en.wikipedia.org/wiki/Anisodactylus_binotatus","urlInsektenSachsen": "https://www.insekten-sachsen.de/Pages/TaxonomyBrowser.aspx?Id=379468","beobachtungen": [{"datum": "2012-10-06","fundort": "Musterstadt","anzahl": 1,"stadium": "Imago","lon": 13.963897889702954,"pruefung": "Insekten Sachsen","beobachter": "Maria Muster","lat": 51.184428574866345}]},{"name": "Anoplotrupes stercorosus","nameDeutsch": "Waldmistkäfer","ordnung": "Käfer","familie": "Mistkäfer","urlWikipedia": "https://de.wikipedia.org/wiki/Waldmistk%C3%A4fer","urlInsektenSachsen": "https://www.insekten-sachsen.de/Pages/TaxonomyBrowser.aspx?Id=188514","beobachtungen": [{"datum": "2021-03-08","fundort": "Musterstadt","anzahl": 1,"stadium": "Imago","lon": 13.914906812628779,"pruefung": "Insekten Sachsen","beobachter": "Maria Muster","lat": 51.190337686651915},{"datum": "2020-11-13","fundort": "Musterstadt","anzahl": 1,"stadium": "Imago","lon": 14.761025795180476,"pruefung": "Insekten Sachsen","beobachter": "Max Mustermann","lat": 50.83030263234674}]},{"name": "Anthidium manicatum","nameDeutsch": "Große Wollbiene","ordnung": "Hautflügler","familie": "Megachilidae","urlWikipedia": "https://de.wikipedia.org/wiki/Gro%C3%9Fe_Wollbiene","urlInsektenSachsen": "https://www.insekten-sachsen.de/Pages/TaxonomyBrowser.aspx?Id=231743","beobachtungen": [{"datum": "2011-10-05","fundort": "Musterstadt","anzahl": 1,"stadium": "Imago","lon": 13.959917586052756,"pruefung": "Insekten Sachsen","beobachter": "Maria Muster","lat": 51.19504656581606}]},{"name": "Anthocharis cardamines","nameDeutsch": "Aurorafalter","ordnung": "Schmetterlinge","familie": "Weißlinge","urlWikipedia": "https://de.wikipedia.org/wiki/Aurorafalter","urlInsektenSachsen": "https://www.insekten-sachsen.de/Pages/TaxonomyBrowser.aspx?Id=440867","urlSonstige": "http://www.lepiforum.de/lepiwiki.pl?Anthocharis_cardamines","beobachtungen": [{"datum": "2016-12-11","fundort": "Musterstadt","anzahl": 1,"stadium": "Imago","lon": 13.696190818169356,"pruefung": "Insekten Sachsen","beobachter": "Maria Muster","lat": 51.09171922986332}]},{"name": "Anthocomus equestris","nameDeutsch": "Anthocomus equestris","ordnung": "Käfer","familie": "Wollhaarkäfer","urlWikipedia": "https://de.wikipedia.org/wiki/Anthocomus_equestris","urlInsektenSachsen": "https://www.insekten-sachsen.de/Pages/TaxonomyBrowser.aspx?Id=190501","beobachtungen": [{"datum": "2021-02-16","fundort": "Musterstadt","anzahl": 1,"stadium": "Imago","lon": 13.952553799712595,"pruefung": "Insekten Sachsen","beobachter": "Maria Muster","lat": 51.17922388616601},{"datum": "2019-07-22","fundort": "Musterstadt","anzahl": 1,"stadium": "Imago","lon": 13.985702334837596,"pruefung": "Insekten Sachsen","beobachter": "Max Mustermann","lat": 51.175330613009514}]},{"name": "Anthocomus fasciatus","nameDeutsch": "Gebänderter Warzenkäfer","ordnung": "Käfer","familie": "Wollhaarkäfer","urlWikipedia": "https://de.wikipedia.org/wiki/Geb%C3%A4nderter_Warzenk%C3%A4fer","urlInsektenSachsen": "https://www.insekten-sachsen.de/Pages/TaxonomyBrowser.aspx?Id=190503","beobachtungen": [{"datum": "2012-09-28","fundort": "Musterstadt","anzahl": 1,"stadium": "Imago","lon": 14.564318109350408,"pruefung": "Insekten Sachsen","beobachter": "Maria Muster","lat": 51.02648743783167}]},{"name": "Anthophila fabriciana","nameDeutsch": "Brennnessel-Spreizflügelfalter","ordnung": "Schmetterlinge","familie": "Spreizflügelfalter","urlWikipedia": "https://en.wikipedia.org/wiki/Anthophila_fabriciana","urlInsektenSachsen": "https://www.insekten-sachsen.de/Pages/TaxonomyBrowser.aspx?Id=438467","urlSonstige": "http://www.lepiforum.de/lepiwiki.pl?Anthophila_fabriciana","beobachtungen": [{"datum": "2015-06-07","fundort": "Musterstadt","anzahl": 1,"stadium": "Imago","lon": 14.583427031829196,"pruefung": "Insekten Sachsen","beobachter": "Maria Muster","lat": 51.02369654991525},{"datum": "2016-03-13","fundort": "Musterstadt","anzahl": 1,"stadium": "Imago","lon": 14.729058774711385,"pruefung": "Insekten Sachsen","beobachter": "Maria Muster","lat": 50.84812602459008}]},{"name": "Anthophora plumipes","nameDeutsch": "Frühlings-Pelzbiene","ordnung": "Hautflügler","familie": "Echte Bienen","urlWikipedia": "https://de.wikipedia.org/wiki/Gemeine_Pelzbiene","urlInsektenSachsen": "https://www.insekten-sachsen.de/Pages/TaxonomyBrowser.aspx?Id=231817","beobachtungen": [{"datum": "2012-09-20","fundort": "Musterstadt","anzahl": 1,"stadium": "Imago","lon": 13.952652458684208,"pruefung": "Insekten Sachsen","beobachter": "Maria Muster","lat": 51.18282672727843}]},{"name": "Anthrax anthrax","nameDeutsch": "Gemeiner Trauerschweber","ordnung": "Zweiflügler","familie": "Wollschweber","urlWikipedia": "https://de.wikipedia.org/wiki/Anthrax_anthrax","urlInsektenSachsen": "https://www.insekten-sachsen.de/Pages/TaxonomyBrowser.aspx?Id=130025","beobachtungen": [{"datum": "2017-09-27","fundort": "Musterstadt","anzahl": 1,"stadium": "Imago","lon": 13.801355650657785,"pruefung": "Insekten Sachsen","beobachter": "Maria Muster","lat": 51.20282365324657},{"datum": "2013-12-04","fundort": "Musterstadt","anzahl": 1,"stadium": "Imago","lon": 13.676041065947928,"pruefung": "Insekten Sachsen","beobachter": "Maria Muster","lat": 51.08621572445829}]},{"name": "Anthrenus scrophulariae","nameDeutsch": "Teppichkäfer","ordnung": "Käfer","familie": "Speckkäfer","urlWikipedia": "https://de.wikipedia.org/wiki/Teppichk%C3%A4fer","urlInsektenSachsen": "https://www.insekten-sachsen.de/Pages/TaxonomyBrowser.aspx?Id=413712","beobachtungen": [{"datum": "2018-09-02","fundort": "Musterstadt","anzahl": 1,"stadium": "Imago","lon": 13.67060548498124,"pruefung": "Insekten Sachsen","beobachter": "Maria Muster","lat": 51.088078791586966}]},{"name": "Anthrenus verbasci","nameDeutsch": "Wollkrautblütenkäfer","ordnung": "Käfer","familie": "Speckkäfer","urlWikipedia": "https://de.wikipedia.org/wiki/Wollkrautbl%C3%BCtenk%C3%A4fer","urlInsektenSachsen": "https://www.insekten-sachsen.de/Pages/TaxonomyBrowser.aspx?Id=413742","beobachtungen": [{"datum": "2020-11-05","fundort": "Musterstadt","anzahl": 1,"stadium": "Imago","lon": 13.95195601554834,"pruefung": "Insekten Sachsen","beobachter": "Maria Muster","lat": 51.19166615203939},{"datum": "2012-09-25","fundort": "Musterstadt","anzahl": 1,"stadium": "Imago","lon": 14.003284844278028,"pruefung": "Insekten Sachsen","beobachter": "Max Mustermann","lat": 51.15898958748087},{"datum": "2017-11-24","fundort": "Musterstadt","anzahl": 1,"stadium": "Imago","lon": 13.998887325270141,"pruefung": "Insekten Sachsen","beobachter": "Max Mustermann","lat": 51.161329049132966},{"datum": "2011-06-19","fundort": "Musterstadt","anzahl": 1,"stadium": "Imago","lon": 13.681972951868403,"pruefung": "Insekten Sachsen","beobachter": "Maria Muster","lat": 51.095722573459085}]},{"name": "Apamea monoglypha","nameDeutsch": "Wurzelfresser","ordnung": "Schmetterlinge","familie": "Eulenfalter","urlWikipedia": "https://de.wikipedia.org/wiki/Gro%C3%9Fe_Grasb%C3%BCscheleule","urlInsektenSachsen": "https://www.insekten-sachsen.de/Pages/TaxonomyBrowser.aspx?Id=447443","urlSonstige": "http://www.lepiforum.de/lepiwiki.pl?Apamea_monoglypha","beobachtungen": [{"datum": "2013-01-12","fundort": "Musterstadt","anzahl": 1,"stadium": "Imago","lon": 13.94388056804303,"pruefung": "Insekten Sachsen","beobachter": "Maria Muster","lat": 51.189051222416765},{"datum": "2015-03-10","fundort": "Musterstadt","anzahl": 1,"stadium": "Imago","lon": 13.961358556507495,"pruefung": "Insekten Sachsen","beobachter": "Maria Muster","lat": 51.19595674968891}]},{"name": "Apatura iris","nameDeutsch": "Großer Schillerfalter","ordnung": "Schmetterlinge","familie": "Edelfalter","urlWikipedia": "https://de.wikipedia.org/wiki/Gro%C3%9Fer_Schillerfalter","urlInsektenSachsen": "https://www.insekten-sachsen.de/Pages/TaxonomyBrowser.aspx?Id=441662","urlSonstige": "http://www.lepiforum.de/lepiwiki.pl?Apatura_iris","beobachtungen": [{"datum": "2017-09-26","fundort": "Musterstadt","anzahl": 1,"stadium": "Imago","lon": 13.9093861208786,"pruefung": "Insekten Sachsen","beobachter": "Maria Muster","lat": 50.839650523956465}]},{"name": "Aphantopus hyperantus","nameDeutsch": "Schornsteinfeger","ordnung": "Schmetterlinge","familie": "Edelfalter","urlWikipedia": "https://de.wikipedia.org/wiki/Brauner_Waldvogel","urlInsektenSachsen": "https://www.insekten-sachsen.de/Pages/TaxonomyBrowser.aspx?Id=441309","urlSonstige": "http://www.lepiforum.de/lepiwiki.pl?Aphantopus_hyperantus","beobachtungen": [{"datum": "2014-07-14","fundort": "Musterstadt","anzahl": 1,"stadium": "Imago","lon": 13.971150430069375,"pruefung": "Insekten Sachsen","beobachter": "Maria Muster","lat": 51.194714075622116},{"datum": "2012-07-15","fundort": "Musterstadt","anzahl": 1,"stadium": "Imago","lon": 13.964240903588268,"pruefung": "Insekten Sachsen","beobachter": "Maria Muster","lat": 51.18991261083434},{"datum": "2021-04-01","fundort": "Musterstadt","anzahl": 1,"stadium": "Imago","lon": 13.662525175604351,"pruefung": "Insekten Sachsen","beobachter": "Max Mustermann","lat": 50.72700614704357},{"datum": "2015-10-10","fundort": "Musterstadt","anzahl": 1,"stadium": "Imago","lon": 14.02054112991316,"pruefung": "Insekten Sachsen","beobachter": "Max Mustermann","lat": 51.17144587706056},{"datum": "2015-11-16","fundort": "Musterstadt","anzahl": 1,"stadium": "Imago","lon": 13.939312219968349,"pruefung": "Insekten Sachsen","beobachter": "Max Mustermann","lat": 51.17669727208524},{"datum": "2016-04-18","fundort": "Musterstadt","anzahl": 3,"stadium": "Imago","lon": 13.9433475266847,"pruefung": "Insekten Sachsen","beobachter": "Max Mustermann","lat": 50.82782472220558},{"datum": "2011-09-01","fundort": "Musterstadt","anzahl": 1,"stadium": "Imago","lon": 13.685470682863915,"pruefung": "iNaturalist","beobachter": "Maria Muster","lat": 51.100624122229206}]},{"name": "Aphodius contaminatus","nameDeutsch": "Kaninchen-Dungkäfer","ordnung": "Käfer","familie": "Blatthornkäfer","urlWikipedia": "https://de.wikipedia.org/wiki/Blatthornk%C3%A4fer","urlInsektenSachsen": "https://www.insekten-sachsen.de/Pages/TaxonomyBrowser.aspx?Id=99133","beobachtungen": [{"datum": "2013-02-15","fundort": "Musterstadt","anzahl": 1,"stadium": "Imago","lon": 13.953266424081763,"pruefung": "Insekten Sachsen","beobachter": "Maria Muster","lat": 51.19033253241071}]},{"name": "Aphodius distinctus","nameDeutsch": "Gefleckter Dungkäfer","ordnung": "Käfer","familie": "Blatthornkäfer","urlWikipedia": "https://de.wikipedia.org/wiki/Gefleckter_Dungk%C3%A4fer","urlInsektenSachsen": "https://www.insekten-sachsen.de/Pages/TaxonomyBrowser.aspx?Id=99355","beobachtungen": [{"datum": "2016-06-06","fundort": "Musterstadt","anzahl": 1,"stadium": "Imago","lon": 13.944830733719575,"pruefung": "Insekten Sachsen","beobachter": "Maria Muster","lat": 51.18389608437439},{"datum": "2017-05-13","fundort": "Musterstadt","anzahl": 10,"stadium": "Imago","lon": 13.693223575835397,"pruefung": "Insekten Sachsen","beobachter": "Maria Muster","lat": 51.09007469892964}]},{"name": "Aphomia sociella","nameDeutsch": "Hummel-Wachsmotte","ordnung": "Schmetterlinge","familie": "Zünsler","urlWikipedia": "https://de.wikipedia.org/wiki/Hummelnestmotte","urlInsektenSachsen": "https://www.insekten-sachsen.de/Pages/TaxonomyBrowser.aspx?Id=442615","urlSonstige": "http://www.lepiforum.de/lepiwiki.pl?Aphomia_sociella","beobachtungen": [{"datum": "2014-12-08","fundort": "Musterstadt","anzahl": 1,"stadium": "Imago","lon": 13.684921811240788,"pruefung": "Insekten Sachsen","beobachter": "Maria Muster","lat": 51.09398697199278},{"datum": "2018-12-20","fundort": "Musterstadt","anzahl": 1,"stadium": "Imago","lon": 13.945736612351725,"pruefung": "Insekten Sachsen","beobachter": "Maria Muster","lat": 51.19067891126415}]},{"name": "Aplocera plagiata","nameDeutsch": "Grauspanner","ordnung": "Schmetterlinge","familie": "Spanner","urlWikipedia": "https://de.wikipedia.org/wiki/Gro%C3%9Fer_Johanniskraut-Spanner","urlInsektenSachsen": "https://www.insekten-sachsen.de/Pages/TaxonomyBrowser.aspx?Id=444530","urlSonstige": "http://www.lepiforum.de/lepiwiki.pl?Aplocera_plagiata","notizen": "Foto der Unterseite / Hinterleib sinnvoll für eine sichere Bestimmung.","beobachtungen": [{"datum": "2015-10-04","fundort": "Musterstadt","anzahl": 1,"stadium": "Imago","lon": 13.811391673267133,"pruefung": "Insekten Sachsen","beobachter": "Maria Muster","lat": 51.19954982549616},{"datum": "2014-08-29","fundort": "Musterstadt","anzahl": 1,"stadium": "Imago","lon": 13.680418959879532,"pruefung": "Insekten Sachsen","beobachter": "Maria Muster","lat": 51.09293477240959},{"datum": "2016-01-26","fundort": "Musterstadt","anzahl": 1,"stadium": "Imago","lon": 13.702304039706974,"pruefung": "Insekten Sachsen","beobachter": "Maria Muster","lat": 51.08880768930638}]},{"name": "Archiearis parthenias","nameDeutsch": "Großes Jungfernkind","ordnung": "Schmetterlinge","familie": "Spanner","urlWikipedia": "https://de.wikipedia.org/wiki/Gro%C3%9Fes_Jungfernkind","urlInsektenSachsen": "https://www.insekten-sachsen.de/Pages/TaxonomyBrowser.aspx?Id=446357","urlSonstige": "http://www.lepiforum.de/lepiwiki.pl?Archiearis_parthenias","beobachtungen": [{"datum": "2012-04-06","fundort": "Musterstadt","anzahl": 1,"stadium": "Imago","lon": 13.749329215021545,"pruefung": "Insekten Sachsen","beobachter": "Maria Muster","lat": 51.16158604091106}]},{"name": "Arctia caja","nameDeutsch": "Brauner Bär","ordnung": "Schmetterlinge","familie": "Erebidae","urlWikipedia": "https://de.wikipedia.org/wiki/Brauner_B%C3%A4r_(Schmetterling)","urlInsektenSachsen": "https://www.insekten-sachsen.de/Pages/TaxonomyBrowser.aspx?Id=446959","urlSonstige": "http://www.lepiforum.de/lepiwiki.pl?Arctia_caja","beobachtungen": [{"datum": "2021-02-27","fundort": "Musterstadt","anzahl": 1,"stadium": "Imago","lon": 13.946461243066723,"pruefung": "Insekten Sachsen","beobachter": "Maria Muster","lat": 51.19018598178312},{"datum": "2012-10-20","fundort": "Musterstadt","anzahl": 1,"stadium": "Imago","lon": 14.360537639334945,"pruefung": "Insekten Sachsen","beobachter": "Max Mustermann","lat": 51.78691889042063}]},{"name": "Argynnis paphia","nameDeutsch": "Kaisermantel","ordnung": "Schmetterlinge","familie": "Edelfalter","urlWikipedia": "https://de.wikipedia.org/wiki/Kaisermantel","urlInsektenSachsen": "https://www.insekten-sachsen.de/Pages/TaxonomyBrowser.aspx?Id=441744","urlSonstige": "http://www.lepiforum.de/lepiwiki.pl?Argynnis_paphia","beobachtungen": [{"datum": "2019-09-05","fundort": "Musterstadt","anzahl": 1,"stadium": "Imago","lon": 13.958277451205056,"pruefung": "Insekten Sachsen","beobachter": "Maria Muster","lat": 51.1784666070427},{"datum": "2012-11-08","fundort": "Musterstadt","anzahl": 1,"stadium": "Imago","lon": 15.096361279393555,"pruefung": "iNaturalist","beobachter": "Max Mustermann","lat": 44.52872919072881},{"datum": "2020-02-28","fundort": "Musterstadt","anzahl": 1,"stadium": "Imago","lon": 15.568328035518377,"pruefung": "iNaturalist","beobachter": "Maria Muster","lat": 44.87283358197592},{"datum": "2018-05-26","fundort": "Musterstadt","anzahl": 1,"stadium": "Imago","lon": 13.96220327693195,"pruefung": "Insekten Sachsen","beobachter": "Max Mustermann","lat": 50.83416858254003},{"datum": "2013-07-17","fundort": "Musterstadt","anzahl": 1,"stadium": "Imago","lon": 11.537199471334787,"pruefung": "iNaturalist","beobachter": "Max Mustermann","lat": 55.839221931604484},{"datum": "2012-02-05","fundort": "Musterstadt","anzahl": 1,"stadium": "Imago","lon": 13.969028273109046,"pruefung": "Insekten Sachsen","beobachter": "Maria Muster","lat": 51.18377980392748},{"datum": "2014-12-17","fundort": "Musterstadt","anzahl": 1,"stadium": "Imago","lon": 13.945589521265498,"pruefung": "Insekten Sachsen","beobachter": "Maria Muster","lat": 51.184699003342814},{"datum": "2012-11-17","fundort": "Musterstadt","anzahl": 1,"stadium": "Imago","lon": 13.95676067135042,"pruefung": "Insekten Sachsen","beobachter": "Max Mustermann","lat": 51.17848383159834},{"datum": "2018-10-25","fundort": "Musterstadt","anzahl": 1,"stadium": "Imago","lon": 14.033924607344403,"pruefung": "Insekten Sachsen","beobachter": "Maria Muster","lat": 50.92492700762356},{"datum": "2019-01-03","fundort": "Musterstadt","anzahl": 3,"stadium": "Imago","lon": 13.958485396814979,"pruefung": "Insekten Sachsen","beobachter": "Max Mustermann","lat": 50.81685959155184},{"datum": "2018-09-11","fundort": "Musterstadt","anzahl": 1,"stadium": "Imago","lon": 14.337620291217965,"pruefung": "iNaturalist","beobachter": "Maria Muster","lat": 51.81064245107432},{"datum": "2012-03-28","fundort": "Musterstadt","anzahl": 1,"stadium": "Imago","lon": 14.357186410174819,"pruefung": "iNaturalist","beobachter": "Max Mustermann","lat": 51.723798449557314}]},{"name": "Aricia agestis","nameDeutsch": "Kleiner Sonnenröschenbläuling","ordnung": "Schmetterlinge","familie": "Bläulinge","urlWikipedia": "https://de.wikipedia.org/wiki/Kleiner_Sonnenr%C3%B6schen-Bl%C3%A4uling","urlInsektenSachsen": "https://www.insekten-sachsen.de/Pages/TaxonomyBrowser.aspx?Id=441006","urlSonstige": "http://www.lepiforum.de/lepiwiki.pl?Aricia_agestis","beobachtungen": [{"datum": "2020-04-15","fundort": "Musterstadt","anzahl": 1,"stadium": "Imago","lon": 13.741316922452503,"pruefung": "Insekten Sachsen","beobachter": "Maria Muster","lat": 51.06106711828358},{"datum": "2016-01-28","fundort": "Musterstadt","anzahl": 1,"stadium": "Imago","lon": 13.712333510458063,"pruefung": "Insekten Sachsen","beobachter": "Max Mustermann","lat": 51.068488304176356}]},{"name": "Arocatus longiceps","nameDeutsch": "Platanenwanze","ordnung": "Schnabelkerfe","familie": "Bodenwanzen","urlWikipedia": "https://de.wikipedia.org/wiki/Arocatus_longiceps","urlInsektenSachsen": "https://www.insekten-sachsen.de/Pages/TaxonomyBrowser.aspx?Id=453527","beobachtungen": [{"datum": "2011-08-04","fundort": "Musterstadt","anzahl": 1,"stadium": "Imago","lon": 13.69640799952668,"pruefung": "Insekten Sachsen","beobachter": "Maria Muster","lat": 51.08545800619999}]},{"name": "Aromia moschata","nameDeutsch": "Moschusbock","ordnung": "Käfer","familie": "Bockkäfer","urlWikipedia": "https://de.wikipedia.org/wiki/Moschusbock","urlInsektenSachsen": "https://www.insekten-sachsen.de/Pages/TaxonomyBrowser.aspx?Id=114600","beobachtungen": [{"datum": "2015-04-24","fundort": "Musterstadt","anzahl": 1,"stadium": "Imago","lon": 13.967757833850136,"pruefung": "Insekten Sachsen","beobachter": "Maria Muster","lat": 51.1838131445404},{"datum": "2014-04-04","fundort": "Musterstadt","anzahl": 1,"stadium": "Imago","lon": 14.000585493716672,"pruefung": "Insekten Sachsen","beobachter": "Max Mustermann","lat": 51.157802040784546},{"datum": "2014-02-05","fundort": "Musterstadt","anzahl": 1,"stadium": "Imago","lon": 13.970198461589291,"pruefung": "Insekten Sachsen","beobachter": "Maria Muster","lat": 51.189314846265184}]},{"name": "Asaphidion flavipes","nameDeutsch": "Asaphidion flavipes","ordnung": "Käfer","familie": "Laufkäfer","urlWikipedia": "https://en.wikipedia.org/wiki/Asaphidion","urlInsektenSachsen": "https://www.insekten-sachsen.de/Pages/TaxonomyBrowser.aspx?Id=385361","beobachtungen": [{"datum": "2018-05-02","fundort": "Musterstadt","anzahl": 1,"stadium": "Imago","lon": 13.687059684795326,"pruefung": "Insekten Sachsen","beobachter": "Maria Muster","lat": 51.08761291162095}]},{"name": "Asteroscopus sphinx","nameDeutsch": "Sphinxeule","ordnung": "Schmetterlinge","familie": "Eulenfalter","urlWikipedia": "https://de.wikipedia.org/wiki/Herbst-Rauhaareule","urlInsektenSachsen": "https://www.insekten-sachsen.de/Pages/TaxonomyBrowser.aspx?Id=449260","urlSonstige": "http://www.lepiforum.de/lepiwiki.pl?Asteroscopus_sphinx","beobachtungen": [{"datum": "2017-07-25","fundort": "Musterstadt","anzahl": 2,"stadium": "Imago","lon": 13.679623993986102,"pruefung": "Insekten Sachsen","beobachter": "Maria Muster","lat": 51.10087646328661}]},{"name": "Autographa gamma","nameDeutsch": "Gammaeule","ordnung": "Schmetterlinge","familie": "Eulenfalter","urlWikipedia": "https://de.wikipedia.org/wiki/Gammaeule","urlInsektenSachsen": "https://www.insekten-sachsen.de/Pages/TaxonomyBrowser.aspx?Id=449605","urlSonstige": "http://www.lepiforum.de/lepiwiki.pl?Autographa_gamma","beobachtungen": [{"datum": "2015-05-11","fundort": "Musterstadt","anzahl": 1,"stadium": "Imago","lon": 13.993940889250219,"pruefung": "Insekten Sachsen","beobachter": "Max Mustermann","lat": 51.17604053268013},{"datum": "2017-03-08","fundort": "Musterstadt","anzahl": 3,"stadium": "Imago","lon": 13.983321701145533,"pruefung": "Insekten Sachsen","beobachter": "Max Mustermann","lat": 51.16125624386279},{"datum": "2019-09-12","fundort": "Musterstadt","anzahl": 1,"stadium": "Imago","lon": 13.686107596561385,"pruefung": "iNaturalist","beobachter": "Maria Muster","lat": 51.104027355842064},{"datum": "2015-01-03","fundort": "Musterstadt","anzahl": 1,"stadium": "Imago","lon": 13.956422653400654,"pruefung": "Insekten Sachsen","beobachter": "Maria Muster","lat": 51.19343319585749}]},{"name": "Barynotus obscurus","nameDeutsch": "Düsterer Plumprüssler","ordnung": "Käfer","familie": "Rüsselkäfer","urlWikipedia": "https://en.wikipedia.org/wiki/Barynotus_obscurus","urlInsektenSachsen": "https://www.insekten-sachsen.de/Pages/TaxonomyBrowser.aspx?Id=255080","beobachtungen": [{"datum": "2013-06-20","fundort": "Musterstadt","anzahl": 1,"stadium": "Imago","lon": 13.997821193347452,"pruefung": "Insekten Sachsen","beobachter": "Max Mustermann","lat": 51.165622541432406},{"datum": "2016-04-13","fundort": "Musterstadt","anzahl": 1,"stadium": "Imago","lon": 13.985204373392662,"pruefung": "Insekten Sachsen","beobachter": "Max Mustermann","lat": 51.17441833166006}]},{"name": "Bombus pascuorum","nameDeutsch": "Ackerhummel","ordnung": "Hautflügler","familie": "Echte Bienen","urlWikipedia": "https://de.wikipedia.org/wiki/Ackerhummel","urlInsektenSachsen": "https://www.insekten-sachsen.de/Pages/TaxonomyBrowser.aspx?Id=231899","beobachtungen": [{"datum": "2020-02-23","fundort": "Musterstadt","anzahl": 1,"stadium": "Imago","lon": 14.01295362685173,"pruefung": "Insekten Sachsen","beobachter": "Max Mustermann","lat": 51.16306020564795},{"datum": "2020-03-12","fundort": "Musterstadt","anzahl": 1,"stadium": "Imago","lon": 13.951021699639991,"pruefung": "Insekten Sachsen","beobachter": "Maria Muster","lat": 51.193790093306994}]},{"name": "Bombylius major","nameDeutsch": "Großer Wollschweber","ordnung": "Zweiflügler","familie": "Wollschweber","urlWikipedia": "https://de.wikipedia.org/wiki/Gro%C3%9Fer_Wollschweber","urlInsektenSachsen": "https://www.insekten-sachsen.de/Pages/TaxonomyBrowser.aspx?Id=130317","beobachtungen": [{"datum": "2015-08-12","fundort": "Musterstadt","anzahl": 1,"stadium": "Imago","lon": 13.99417206647221,"pruefung": "Insekten Sachsen","beobachter": "Max Mustermann","lat": 51.16368205745564},{"datum": "2014-09-22","fundort": "Musterstadt","anzahl": 1,"stadium": "Imago","lon": 14.000804211033001,"pruefung": "Insekten Sachsen","beobachter": "Max Mustermann","lat": 51.16471521833414},{"datum": "2020-08-12","fundort": "Musterstadt","anzahl": 2,"stadium": "Imago","lon": 13.94963946983238,"pruefung": "Insekten Sachsen","beobachter": "Maria Muster","lat": 51.18609845395291},{"datum": "2018-03-27","fundort": "Musterstadt","anzahl": 1,"stadium": "Imago","lon": 13.958243427216358,"pruefung": "Insekten Sachsen","beobachter": "Maria Muster","lat": 51.179111493813956},{"datum": "2014-09-22","fundort": "Musterstadt","anzahl": 1,"stadium": "Imago","lon": 13.724055616526,"pruefung": "Insekten Sachsen","beobachter": "Max Mustermann","lat": 51.079153708442526},{"datum": "2016-02-09","fundort": "Musterstadt","anzahl": 1,"stadium": "Imago","lon": 13.70922240377534,"pruefung": "iNaturalist","beobachter": "Maria Muster","lat": 51.08954983051951},{"datum": "2014-09-12","fundort": "Musterstadt","anzahl": 1,"stadium": "Imago","lon": 14.002951756388917,"pruefung": "Insekten Sachsen","beobachter": "Max Mustermann","lat": 51.1595793587043},{"datum": "2018-11-16","fundort": "Musterstadt","anzahl": 1,"stadium": "Imago","lon": 13.699062620582177,"pruefung": "Insekten Sachsen","beobachter": "Maria Muster","lat": 51.096405231575936}]},{"name": "Brachycarenus tigrinus","nameDeutsch": "Brachycarenus tigrinus","ordnung": "Schnabelkerfe","familie": "Glasflügelwanzen","urlWikipedia": "https://de.wikipedia.org/wiki/Brachycarenus_tigrinus","urlInsektenSachsen": "https://www.insekten-sachsen.de/Pages/TaxonomyBrowser.aspx?Id=453630","beobachtungen": [{"datum": "2013-03-03","fundort": "Musterstadt","anzahl": 1,"stadium": "Imago","lon": 13.715397795107272,"pruefung": "Insekten Sachsen","beobachter": "Max Mustermann","lat": 51.06720501572554}]},{"name": "Bruchidius ater","nameDeutsch": "Zottiger Ginster-Samenkäfer","ordnung": "Käfer","familie": "Blattkäfer","urlWikipedia": "https://de.wikipedia.org/wiki/Ginster-Samenk%C3%A4fer","urlInsektenSachsen": "https://www.insekten-sachsen.de/Pages/TaxonomyBrowser.aspx?Id=243623","beobachtungen": [{"datum": "2015-04-14","fundort": "Musterstadt","anzahl": 1,"stadium": "Imago","lon": 14.001088872628484,"pruefung": "Insekten Sachsen","beobachter": "Max Mustermann","lat": 51.163795903641955}]},{"name": "Bruchus luteicornis","nameDeutsch": "Gelbfühler-Samenkäfer","ordnung": "Käfer","familie": "Samenkäfer","urlWikipedia": "https://de.wikipedia.org/wiki/Bruchus_luteicornis","urlInsektenSachsen": "https://www.insekten-sachsen.de/Pages/TaxonomyBrowser.aspx?Id=243599","beobachtungen": [{"datum": "2018-08-17","fundort": "Musterstadt","anzahl": 1,"stadium": "Imago","lon": 13.719515640511883,"pruefung": "Insekten Sachsen","beobachter": "Max Mustermann","lat": 51.08042323959469}]},{"name": "Brumus quadripustulatus","nameDeutsch": "Vierfleckiger Schildlaus-Marienkäfer","ordnung": "Käfer","familie": "Marienkäfer","urlWikipedia": "https://de.wikipedia.org/wiki/Vierfleckiger_Kugelmarienk%C3%A4fer","urlInsektenSachsen": "https://www.insekten-sachsen.de/Pages/TaxonomyBrowser.aspx?Id=230190","beobachtungen": [{"datum": "2016-01-27","fundort": "Musterstadt","anzahl": 1,"stadium": "Imago","lon": 13.99316580618843,"pruefung": "Insekten Sachsen","beobachter": "Max Mustermann","lat": 51.16856810155231},{"datum": "2011-05-30","fundort": "Musterstadt","anzahl": 1,"stadium": "Imago","lon": 13.996139191258063,"pruefung": "Insekten Sachsen","beobachter": "Max Mustermann","lat": 51.15739726939143}]},{"name": "Buprestis cupressi","nameDeutsch": "Buprestis cupressi","ordnung": "Käfer","familie": "Prachtkäfer","urlWikipedia": "https://en.wikipedia.org/wiki/Buprestis","beobachtungen": [{"datum": "2012-10-16","fundort": "Musterstadt","anzahl": 1,"stadium": "Imago","lon": 15.04401002277644,"pruefung": "iNaturalist","beobachter": "Max Mustermann","lat": 44.55252703477024}]},{"name": "Callidium violaceum","nameDeutsch": "Blauvioletter Scheibenbock","ordnung": "Käfer","familie": "Bockkäfer","urlWikipedia": "https://de.wikipedia.org/wiki/Blauvioletter_Scheibenbock","urlInsektenSachsen": "https://www.insekten-sachsen.de/Pages/TaxonomyBrowser.aspx?Id=114570","beobachtungen": [{"datum": "2013-08-26","fundort": "Musterstadt","anzahl": 1,"stadium": "Imago","lon": 13.97293718735984,"pruefung": "Insekten Sachsen","beobachter": "Max Mustermann","lat": 51.160540998221}]},{"name": "Calliptamus italicus","nameDeutsch": "Italienische Schönschrecke","ordnung": "Heuschrecken","familie": "Feldheuschrecken","urlWikipedia": "https://de.wikipedia.org/wiki/Italienische_Sch%C3%B6nschrecke","urlInsektenSachsen": "https://www.insekten-sachsen.de/Pages/TaxonomyBrowser.aspx?Id=402751","urlSonstige": "https://www.orthoptera.ch/arten/item/calliptamus-italicus","beobachtungen": [{"datum": "2016-05-10","fundort": "Musterstadt","anzahl": 1,"stadium": "Imago","lon": 15.044106267469063,"pruefung": "iNaturalist","beobachter": "Max Mustermann","lat": 44.54898155395732},{"datum": "2011-09-22","fundort": "Musterstadt","anzahl": 1,"stadium": "Imago","lon": 13.948417245596751,"pruefung": "Insekten Sachsen","beobachter": "Maria Muster","lat": 51.18485328011286}]},{"name": "Calliteara pudibunda","nameDeutsch": "Buchen-Streckfuß","ordnung": "Schmetterlinge","familie": "Eulenfalter","urlWikipedia": "https://de.wikipedia.org/wiki/Buchen-Streckfu%C3%9F","urlInsektenSachsen": "https://www.insekten-sachsen.de/Pages/TaxonomyBrowser.aspx?Id=447103","urlSonstige": "http://www.lepiforum.de/lepiwiki.pl?Calliteara_pudibunda","beobachtungen": [{"datum": "2015-10-04","fundort": "Musterstadt","anzahl": 1,"stadium": "Larve","lon": 13.991738810052926,"pruefung": "Insekten Sachsen","beobachter": "Max Mustermann","lat": 51.1735387801915},{"datum": "2015-04-01","fundort": "Musterstadt","anzahl": 1,"stadium": "Larve","lon": 14.085007526986942,"pruefung": "Insekten Sachsen","beobachter": "Max Mustermann","lat": 50.945659776122866},{"datum": "2019-11-16","fundort": "Musterstadt","anzahl": 1,"stadium": "Imago","lon": 14.603749024712078,"pruefung": "Insekten Sachsen","beobachter": "Max Mustermann","lat": 50.994918421855466},{"datum": "2016-03-01","fundort": "Musterstadt","anzahl": 1,"stadium": "Imago","lon": 14.728836037915968,"pruefung": "Insekten Sachsen","beobachter": "Maria Muster","lat": 50.84685289073113},{"datum": "2018-03-05","fundort": "Musterstadt","anzahl": 1,"stadium": "Larve","lon": 13.669454860212879,"pruefung": "Insekten Sachsen","beobachter": "Max Mustermann","lat": 51.09903109957456}]},{"name": "Calopteryx splendens","nameDeutsch": "Gebänderte Prachtlibelle","ordnung": "Libellen","familie": "Prachtlibellen","urlWikipedia": "https://de.wikipedia.org/wiki/Geb%C3%A4nderte_Prachtlibelle","urlInsektenSachsen": "https://www.insekten-sachsen.de/Pages/TaxonomyBrowser.aspx?Id=214240","urlSonstige": "https://libellenwissen.de/libellenarten/kleinlibellen/prachtlibellen-calopterygidae/gebaenderte-prachtlibelle/","beobachtungen": [{"datum": "2014-05-29","fundort": "Musterstadt","anzahl": 10,"stadium": "Imago","lon": 14.364810087676315,"pruefung": "Insekten Sachsen","beobachter": "Max Mustermann","lat": 51.77682393835302},{"datum": "2012-03-25","fundort": "Musterstadt","anzahl": 1,"stadium": "Imago","lon": 14.32815603042641,"pruefung": "Insekten Sachsen","beobachter": "Maria Muster","lat": 51.79725969135863},{"datum": "2015-01-06","fundort": "Musterstadt","anzahl": 1,"stadium": "Imago","lon": 13.99875362777406,"pruefung": "Insekten Sachsen","beobachter": "Max Mustermann","lat": 51.1673590821599},{"datum": "2019-06-08","fundort": "Musterstadt","anzahl": 2,"stadium": "Imago","lon": 14.8022366507846,"pruefung": "Insekten Sachsen","beobachter": "Maria Muster","lat": 50.92274174160388}]},{"name": "Calopteryx virgo","nameDeutsch": "Blauflügel-Prachtlibelle","ordnung": "Libellen","familie": "Prachtlibellen","urlWikipedia": "https://de.wikipedia.org/wiki/Blaufl%C3%BCgel-Prachtlibelle","urlInsektenSachsen": "https://www.insekten-sachsen.de/Pages/TaxonomyBrowser.aspx?Id=214241","urlSonstige": "https://libellenwissen.de/libellenarten/kleinlibellen/prachtlibellen-calopterygidae/blaufluegel-prachtlibelle/","beobachtungen": [{"datum": "2016-02-17","fundort": "Musterstadt","anzahl": 1,"stadium": "Imago","lon": 11.417789480375918,"pruefung": "iNaturalist","beobachter": "Max Mustermann","lat": 49.50579792084847},{"datum": "2017-10-21","fundort": "Musterstadt","anzahl": 1,"stadium": "Imago","lon": 13.91262137492067,"pruefung": "Insekten Sachsen","beobachter": "Maria Muster","lat": 51.20378386665516},{"datum": "2011-07-20","fundort": "Musterstadt","anzahl": 1,"stadium": "Imago","lon": 13.917473066324787,"pruefung": "Insekten Sachsen","beobachter": "Maria Muster","lat": 51.19153232996636},{"datum": "2020-02-24","fundort": "Musterstadt","anzahl": 1,"stadium": "Imago","lon": 14.079458931340927,"pruefung": "Insekten Sachsen","beobachter": "Maria Muster","lat": 50.978186410660506}]},{"name": "Cameraria ohridella","nameDeutsch": "Rosskastanienminiermotte","ordnung": "Schmetterlinge","familie": "Miniermotten","urlWikipedia": "https://de.wikipedia.org/wiki/Rosskastanienminiermotte","urlInsektenSachsen": "https://www.insekten-sachsen.de/Pages/TaxonomyBrowser.aspx?Id=433542","urlSonstige": "http://www.lepiforum.de/lepiwiki.pl?Cameraria_ohridella","beobachtungen": [{"datum": "2020-09-25","fundort": "Musterstadt","anzahl": 1,"stadium": "Imago","lon": 13.738879617902535,"pruefung": "Insekten Sachsen","beobachter": "Max Mustermann","lat": 51.01169706764313}]},{"name": "Campaea margaritaria","nameDeutsch": "Perlglanzspanner","ordnung": "Schmetterlinge","familie": "Spanner","urlWikipedia": "https://de.wikipedia.org/wiki/Perlglanzspanner","urlInsektenSachsen": "https://www.insekten-sachsen.de/Pages/TaxonomyBrowser.aspx?Id=445941","urlSonstige": "http://www.lepiforum.de/lepiwiki.pl?Campaea_margaritaria","beobachtungen": [{"datum": "2020-10-14","fundort": "Musterstadt","anzahl": 1,"stadium": "Imago","lon": 13.990615308711757,"pruefung": "Insekten Sachsen","beobachter": "Max Mustermann","lat": 51.16373351567944},{"datum": "2015-05-11","fundort": "Musterstadt","anzahl": 1,"stadium": "Imago","lon": 14.73455586806675,"pruefung": "Insekten Sachsen","beobachter": "Maria Muster","lat": 50.846356577734696}]},{"name": "Camptogramma bilineata","nameDeutsch": "Ockergelber Blattspanner","ordnung": "Schmetterlinge","familie": "Spanner","urlWikipedia": "https://de.wikipedia.org/wiki/Ockergelber_Blattspanner","urlInsektenSachsen": "https://www.insekten-sachsen.de/Pages/TaxonomyBrowser.aspx?Id=445244","urlSonstige": "http://www.lepiforum.de/lepiwiki.pl?Camptogramma_bilineata","beobachtungen": [{"datum": "2013-10-17","fundort": "Musterstadt","anzahl": 1,"stadium": "Imago","lon": 13.98170453528778,"pruefung": "Insekten Sachsen","beobachter": "Max Mustermann","lat": 51.169824636515294},{"datum": "2014-04-16","fundort": "Musterstadt","anzahl": 1,"stadium": "Imago","lon": 13.700186232335945,"pruefung": "Insekten Sachsen","beobachter": "Maria Muster","lat": 51.09869870256996},{"datum": "2017-06-19","fundort": "Musterstadt","anzahl": 1,"stadium": "Imago","lon": 13.975985899990587,"pruefung": "Insekten Sachsen","beobachter": "Max Mustermann","lat": 51.15714333702932},{"datum": "2013-01-08","fundort": "Musterstadt","anzahl": 1,"stadium": "Imago","lon": 13.835709030384345,"pruefung": "Insekten Sachsen","beobachter": "Max Mustermann","lat": 51.18277081818426},{"datum": "2014-07-01","fundort": "Musterstadt","anzahl": 1,"stadium": "Imago","lon": 14.615427661684256,"pruefung": "Insekten Sachsen","beobachter": "Max Mustermann","lat": 51.00533470523743},{"datum": "2016-02-15","fundort": "Musterstadt","anzahl": 1,"stadium": "Imago","lon": 13.999922467558447,"pruefung": "Insekten Sachsen","beobachter": "Max Mustermann","lat": 51.15932546953673}]},{"name": "Cantharis fusca","nameDeutsch": "Gemeiner Weichkäfer","ordnung": "Käfer","familie": "Weichkäfer","urlWikipedia": "https://de.wikipedia.org/wiki/Gemeiner_Weichk%C3%A4fer","urlInsektenSachsen": "https://www.insekten-sachsen.de/Pages/TaxonomyBrowser.aspx?Id=104016","beobachtungen": [{"datum": "2014-08-18","fundort": "Musterstadt","anzahl": 1,"stadium": "Imago","lon": 13.745408236731123,"pruefung": "Insekten Sachsen","beobachter": "Max Mustermann","lat": 51.06032417097444},{"datum": "2013-09-11","fundort": "Musterstadt","anzahl": 1,"stadium": "Imago","lon": 14.587399430764899,"pruefung": "Insekten Sachsen","beobachter": "Maria Muster","lat": 51.0230060282304}]},{"name": "Cantharis nigricans","nameDeutsch": "Graugelber Weichkäfer","ordnung": "Käfer","familie": "Weichkäfer","urlWikipedia": "https://de.wikipedia.org/wiki/Cantharis_nigricans","urlInsektenSachsen": "https://www.insekten-sachsen.de/Pages/TaxonomyBrowser.aspx?Id=104102","beobachtungen": [{"datum": "2019-09-21","fundort": "Musterstadt","anzahl": 1,"stadium": "Imago","lon": 13.711243927540348,"pruefung": "Insekten Sachsen","beobachter": "Max Mustermann","lat": 51.15916061930878}]},{"name": "Cantharis pellucida","nameDeutsch": "Rotschwarzer Weichkäfer","ordnung": "Käfer","familie": "Weichkäfer","urlWikipedia": "https://de.wikipedia.org/wiki/Cantharis_pellucida","urlInsektenSachsen": "https://www.insekten-sachsen.de/Pages/TaxonomyBrowser.aspx?Id=104146","beobachtungen": [{"datum": "2011-05-30","fundort": "Musterstadt","anzahl": 1,"stadium": "Imago","lon": 14.596507713880507,"pruefung": "Insekten Sachsen","beobachter": "Max Mustermann","lat": 50.989883299256846}]},{"name": "Cantharis rustica","nameDeutsch": "Soldatenkäfer","ordnung": "Käfer","familie": "Weichkäfer","urlWikipedia": "https://de.wikipedia.org/wiki/Cantharis_rustica","urlInsektenSachsen": "https://www.insekten-sachsen.de/Pages/TaxonomyBrowser.aspx?Id=104211","beobachtungen": [{"datum": "2016-04-01","fundort": "Musterstadt","anzahl": 1,"stadium": "Imago","lon": 13.976889868028861,"pruefung": "Insekten Sachsen","beobachter": "Max Mustermann","lat": 51.17346507479165},{"datum": "2021-02-05","fundort": "Musterstadt","anzahl": 1,"stadium": "Imago","lon": 14.063103399234695,"pruefung": "Insekten Sachsen","beobachter": "Max Mustermann","lat": 51.20029965200257},{"datum": "2014-01-30","fundort": "Musterstadt","anzahl": 1,"stadium": "Imago","lon": 13.743017764300703,"pruefung": "Insekten Sachsen","beobachter": "Max Mustermann","lat": 51.06455641536928},{"datum": "2013-12-09","fundort": "Musterstadt","anzahl": 1,"stadium": "Imago","lon": 13.73061450186727,"pruefung": "Insekten Sachsen","beobachter": "Max Mustermann","lat": 51.07979534301704},{"datum": "2012-09-20","fundort": "Musterstadt","anzahl": 6,"stadium": "Imago","lon": 13.98382131173699,"pruefung": "Insekten Sachsen","beobachter": "Max Mustermann","lat": 51.164818342757826},{"datum": "2015-06-19","fundort": "Musterstadt","anzahl": 1,"stadium": "Imago","lon": 14.00014281730056,"pruefung": "Insekten Sachsen","beobachter": "Max Mustermann","lat": 51.171931060086266}]},{"name": "Carabus auratus","nameDeutsch": "Goldlaufkäfer","ordnung": "Käfer","familie": "Laufkäfer","urlWikipedia": "https://de.wikipedia.org/wiki/Goldlaufk%C3%A4fer","urlInsektenSachsen": "https://www.insekten-sachsen.de/Pages/TaxonomyBrowser.aspx?Id=386617","beobachtungen": [{"datum": "2012-10-09","fundort": "Musterstadt","anzahl": 1,"stadium": "Imago","lon": 13.976269317252505,"pruefung": "Insekten Sachsen","beobachter": "Max Mustermann","lat": 51.16604840751788},{"datum": "2011-09-01","fundort": "Musterstadt","anzahl": 1,"stadium": "Imago","lon": 14.002020889794261,"pruefung": "Insekten Sachsen","beobachter": "Max Mustermann","lat": 51.17264067753121}]},{"name": "Carabus granulatus","nameDeutsch": "Körniger Laufkäfer","ordnung": "Käfer","familie": "Laufkäfer","urlWikipedia": "https://de.wikipedia.org/wiki/K%C3%B6rniger_Laufk%C3%A4fer","urlInsektenSachsen": "https://www.insekten-sachsen.de/Pages/TaxonomyBrowser.aspx?Id=386535","beobachtungen": [{"datum": "2014-07-27","fundort": "Musterstadt","anzahl": 1,"stadium": "Imago","lon": 13.977321601805752,"pruefung": "Insekten Sachsen","beobachter": "Max Mustermann","lat": 51.16094537604107}]},{"name": "Caradrina clavipalpis","nameDeutsch": "Eindringling","ordnung": "Schmetterlinge","familie": "Eulenfalter","urlWikipedia": "https://de.wikipedia.org/wiki/Heu-Staubeule","urlInsektenSachsen": "https://www.insekten-sachsen.de/Pages/TaxonomyBrowser.aspx?Id=447310","urlSonstige": "http://www.lepiforum.de/lepiwiki.pl?Caradrina_clavipalpis","beobachtungen": [{"datum": "2011-07-01","fundort": "Musterstadt","anzahl": 1,"stadium": "Imago","lon": 13.725791718974051,"pruefung": "Insekten Sachsen","beobachter": "Max Mustermann","lat": 51.07736484187221}]},{"name": "Caradrina kadenii","nameDeutsch": "Kadens Staubeule","ordnung": "Schmetterlinge","familie": "Eulenfalter","urlWikipedia": "https://de.wikipedia.org/wiki/Caradrina_kadenii","urlInsektenSachsen": "https://www.insekten-sachsen.de/Pages/TaxonomyBrowser.aspx?Id=447241","urlSonstige": "http://www.lepiforum.de/lepiwiki.pl?Caradrina_kadenii","beobachtungen": [{"datum": "2019-04-03","fundort": "Musterstadt","anzahl": 1,"stadium": "Imago","lon": 13.981482796495262,"pruefung": "Insekten Sachsen","beobachter": "Max Mustermann","lat": 51.174155730086646}]},{"name": "Carpocoris fuscispinus","nameDeutsch": "Nördliche Fruchtwanze","ordnung": "Schnabelkerfe","familie": "Baumwanzen","urlWikipedia": "https://de.wikipedia.org/wiki/N%C3%B6rdliche_Fruchtwanze","urlInsektenSachsen": "https://www.insekten-sachsen.de/Pages/TaxonomyBrowser.aspx?Id=454124","beobachtungen": [{"datum": "2014-05-13","fundort": "Musterstadt","anzahl": 1,"stadium": "Imago","lon": 14.062418487304484,"pruefung": "Insekten Sachsen","beobachter": "Max Mustermann","lat": 51.184692178420995},{"datum": "2020-10-16","fundort": "Musterstadt","anzahl": 1,"stadium": "Imago","lon": 13.941207690918274,"pruefung": "Insekten Sachsen","beobachter": "Max Mustermann","lat": 51.18443335157276},{"datum": "2019-12-02","fundort": "Musterstadt","anzahl": 1,"stadium": "Imago","lon": 13.685356877455,"pruefung": "iNaturalist","beobachter": "Maria Muster","lat": 51.079571434365484},{"datum": "2013-06-11","fundort": "Musterstadt","anzahl": 1,"stadium": "Imago","lon": 13.992645488386021,"pruefung": "Insekten Sachsen","beobachter": "Max Mustermann","lat": 51.175650601114754}]},{"name": "Cataclysta lemnata","nameDeutsch": "Wasserlinsenzünsler","ordnung": "Schmetterlinge","familie": "Crambidae","urlWikipedia": "https://de.wikipedia.org/wiki/Cataclysta_lemnata","urlInsektenSachsen": "https://www.insekten-sachsen.de/Pages/TaxonomyBrowser.aspx?Id=443044","urlSonstige": "http://www.lepiforum.de/lepiwiki.pl?Cataclysta_lemnata","beobachtungen": [{"datum": "2013-02-11","fundort": "Musterstadt","anzahl": 1,"stadium": "Imago","lon": 14.058075393161538,"pruefung": "Insekten Sachsen","beobachter": "Max Mustermann","lat": 51.18895666146639}]},{"name": "Catocala elocata","nameDeutsch": "Pappelkarmin","ordnung": "Schmetterlinge","familie": "Eulenfalter","urlWikipedia": "https://de.wikipedia.org/wiki/Pappelkarmin","urlInsektenSachsen": "https://www.insekten-sachsen.de/Pages/TaxonomyBrowser.aspx?Id=446671","urlSonstige": "http://www.lepiforum.de/lepiwiki.pl?Catocala_elocata","beobachtungen": [{"datum": "2019-04-26","fundort": "Musterstadt","anzahl": 1,"stadium": "Larve","lon": 13.975602161044938,"pruefung": "Insekten Sachsen","beobachter": "Max Mustermann","lat": 51.17488399741913},{"datum": "2015-07-03","fundort": "Musterstadt","anzahl": 1,"stadium": "Imago","lon": 13.718352875260459,"pruefung": "Insekten Sachsen","beobachter": "Maria Muster","lat": 51.103647784473836},{"datum": "2018-01-03","fundort": "Musterstadt","anzahl": 1,"stadium": "Imago","lon": 13.711030779610603,"pruefung": "Insekten Sachsen","beobachter": "Max Mustermann","lat": 51.0821397159974},{"datum": "2020-09-09","fundort": "Musterstadt","anzahl": 1,"stadium": "Imago","lon": 13.973666436630047,"pruefung": "Insekten Sachsen","beobachter": "Max Mustermann","lat": 51.169841088355255},{"datum": "2020-09-24","fundort": "Musterstadt","anzahl": 1,"stadium": "Imago","lon": 13.82298998641676,"pruefung": "Insekten Sachsen","beobachter": "Maria Muster","lat": 51.194753502585186}]},{"name": "Celastrina argiolus","nameDeutsch": "Faulbaumbläuling","ordnung": "Schmetterlinge","familie": "Bläulinge","urlWikipedia": "https://de.wikipedia.org/wiki/Faulbaum-Bl%C3%A4uling","urlInsektenSachsen": "https://www.insekten-sachsen.de/Pages/TaxonomyBrowser.aspx?Id=441106","urlSonstige": "http://www.lepiforum.de/lepiwiki.pl?Celastrina_argiolus","beobachtungen": [{"datum": "2014-02-23","fundort": "Musterstadt","anzahl": 1,"stadium": "Imago","lon": 13.942282464695136,"pruefung": "Insekten Sachsen","beobachter": "Max Mustermann","lat": 51.17316600646942},{"datum": "2013-12-10","fundort": "Musterstadt","anzahl": 1,"stadium": "Imago","lon": 13.70377020301333,"pruefung": "Insekten Sachsen","beobachter": "Maria Muster","lat": 51.09288569667656},{"datum": "2012-09-25","fundort": "Musterstadt","anzahl": 1,"stadium": "Imago","lon": 13.675105873339975,"pruefung": "Insekten Sachsen","beobachter": "Maria Muster","lat": 51.0963645782375},{"datum": "2019-12-15","fundort": "Musterstadt","anzahl": 1,"stadium": "Imago","lon": 13.999494076908212,"pruefung": "Insekten Sachsen","beobachter": "Max Mustermann","lat": 51.21114142273456},{"datum": "2014-06-22","fundort": "Musterstadt","anzahl": 1,"stadium": "Imago","lon": 14.069020606197459,"pruefung": "Insekten Sachsen","beobachter": "Maria Muster","lat": 50.98210469137065}]},{"name": "Cercopis vulnerata","nameDeutsch": "Gemeine Blutzikade","ordnung": "Schnabelkerfe","familie": "Blutzikaden","urlWikipedia": "https://de.wikipedia.org/wiki/Blutzikaden#Gemeine_Blutzikade","urlInsektenSachsen": "https://www.insekten-sachsen.de/Pages/TaxonomyBrowser.aspx?Id=239422","beobachtungen": [{"datum": "2016-09-27","fundort": "Musterstadt","anzahl": 1,"stadium": "Imago","lon": 12.332417261047704,"pruefung": "iNaturalist","beobachter": "Max Mustermann","lat": 49.874935454564884}]},{"name": "Cetonia aurata","nameDeutsch": "Goldglänzender Rosenkäfer","ordnung": "Käfer","familie": "Blatthornkäfer","urlWikipedia": "https://de.wikipedia.org/wiki/Goldgl%C3%A4nzender_Rosenk%C3%A4fer","urlInsektenSachsen": "https://www.insekten-sachsen.de/Pages/TaxonomyBrowser.aspx?Id=247075","beobachtungen": [{"datum": "2016-08-19","fundort": "Musterstadt","anzahl": 1,"stadium": "Imago","lon": 14.066748624831105,"pruefung": "Insekten Sachsen","beobachter": "Max Mustermann","lat": 51.19912932521564},{"datum": "2018-05-10","fundort": "Musterstadt","anzahl": 3,"stadium": "Imago","lon": 13.974825343390465,"pruefung": "Insekten Sachsen","beobachter": "Max Mustermann","lat": 51.16157749042733},{"datum": "2016-04-24","fundort": "Musterstadt","anzahl": 1,"stadium": "Imago","lon": 13.982011451457655,"pruefung": "Insekten Sachsen","beobachter": "Maria Muster","lat": 51.18785742127868},{"datum": "2015-09-27","fundort": "Musterstadt","anzahl": 3,"stadium": "Imago","lon": 14.068214676295593,"pruefung": "Insekten Sachsen","beobachter": "Max Mustermann","lat": 51.18850753170503},{"datum": "2020-10-02","fundort": "Musterstadt","anzahl": 1,"stadium": "Imago","lon": 13.948850906860983,"pruefung": "Insekten Sachsen","beobachter": "Maria Muster","lat": 51.18976404349422}]},{"name": "Ceutorhynchus napi","nameDeutsch": "Großer Rapsstängelrüssler","ordnung": "Käfer","familie": "Rüsselkäfer","urlWikipedia": "https://de.wikipedia.org/wiki/Gro%C3%9Fer_Rapsst%C3%A4ngelr%C3%BCssler","urlInsektenSachsen": "https://www.insekten-sachsen.de/Pages/TaxonomyBrowser.aspx?Id=256498","beobachtungen": [{"datum": "2016-05-29","fundort": "Musterstadt","anzahl": 1,"stadium": "Imago","lon": 13.714505530688156,"pruefung": "Insekten Sachsen","beobachter": "Max Mustermann","lat": 51.066093808261044}]},{"name": "Ceutorhynchus obstrictus","nameDeutsch": "Rapsschotenrüssler","ordnung": "Käfer","familie": "Rüsselkäfer","urlWikipedia": "https://en.wikipedia.org/wiki/Ceutorhynchus_obstrictus","urlInsektenSachsen": "https://www.insekten-sachsen.de/Pages/TaxonomyBrowser.aspx?Id=256503","beobachtungen": [{"datum": "2014-11-09","fundort": "Musterstadt","anzahl": 1,"stadium": "Imago","lon": 13.99574122149738,"pruefung": "Insekten Sachsen","beobachter": "Max Mustermann","lat": 51.16593025659538}]},{"name": "Ceutorhynchus pallidactylus","nameDeutsch": "Gefleckter Kohltriebrüssler","ordnung": "Käfer","familie": "Rüsselkäfer","urlWikipedia": "https://de.wikipedia.org/wiki/Gefleckter_Kohltriebr%C3%BCssler","urlInsektenSachsen": "https://www.insekten-sachsen.de/Pages/TaxonomyBrowser.aspx?Id=256511","beobachtungen": [{"datum": "2018-01-31","fundort": "Musterstadt","anzahl": 1,"stadium": "Imago","lon": 13.848523375645733,"pruefung": "Insekten Sachsen","beobachter": "Max Mustermann","lat": 51.17941203213019},{"datum": "2020-09-12","fundort": "Musterstadt","anzahl": 3,"stadium": "Imago","lon": 13.70122218627194,"pruefung": "Insekten Sachsen","beobachter": "Maria Muster","lat": 51.09379943298673}]},{"name": "Chilocorus bipustulatus","nameDeutsch": "Strichfleckiger Schildlaus-Marienkäfer","ordnung": "Käfer","familie": "Marienkäfer","urlWikipedia": "https://de.wikipedia.org/wiki/Strichfleckiger_Marienk%C3%A4fer","urlInsektenSachsen": "https://www.insekten-sachsen.de/Pages/TaxonomyBrowser.aspx?Id=230176","beobachtungen": [{"datum": "2016-05-11","fundort": "Musterstadt","anzahl": 1,"stadium": "Imago","lon": 13.98706798938078,"pruefung": "Insekten Sachsen","beobachter": "Max Mustermann","lat": 51.175757592548116}]},{"name": "Chrysanthia geniculata","nameDeutsch": "Chrysanthia geniculata","ordnung": "Käfer","familie": "Scheinbockkäfer","urlWikipedia": "https://de.wikipedia.org/wiki/Chrysanthia_geniculata","urlInsektenSachsen": "https://www.insekten-sachsen.de/Pages/TaxonomyBrowser.aspx?Id=124464","beobachtungen": [{"datum": "2016-07-16","fundort": "Musterstadt","anzahl": 1,"stadium": "Imago","lon": 14.363836000461937,"pruefung": "Insekten Sachsen","beobachter": "Max Mustermann","lat": 51.77672067867291}]},{"name": "Chrysolina coerulans","nameDeutsch": "Blauer Minzen-Blattkäfer","ordnung": "Käfer","familie": "Blattkäfer","urlWikipedia": "https://de.wikipedia.org/wiki/Himmelblauer_Blattk%C3%A4fer","urlInsektenSachsen": "https://www.insekten-sachsen.de/Pages/TaxonomyBrowser.aspx?Id=242207","beobachtungen": [{"datum": "2014-03-22","fundort": "Musterstadt","anzahl": 3,"stadium": "Imago","lon": 14.620971691271158,"pruefung": "Insekten Sachsen","beobachter": "Max Mustermann","lat": 51.00425712700726}]},{"name": "Chrysolina fastuosa","nameDeutsch": "Prächtiger Blattkäfer","ordnung": "Käfer","familie": "Blattkäfer","urlWikipedia": "https://de.wikipedia.org/wiki/Pr%C3%A4chtiger_Blattk%C3%A4fer","urlInsektenSachsen": "https://www.insekten-sachsen.de/Pages/TaxonomyBrowser.aspx?Id=242038","beobachtungen": [{"datum": "2018-05-26","fundort": "Musterstadt","anzahl": 1,"stadium": "Imago","lon": 13.726570417314958,"pruefung": "Insekten Sachsen","beobachter": "Max Mustermann","lat": 51.156300744631416},{"datum": "2016-09-29","fundort": "Musterstadt","anzahl": 2,"stadium": "Imago","lon": 14.56893967638447,"pruefung": "Insekten Sachsen","beobachter": "Maria Muster","lat": 51.013640458515376},{"datum": "2016-12-03","fundort": "Musterstadt","anzahl": 1,"stadium": "Imago","lon": 14.0066449612373,"pruefung": "Insekten Sachsen","beobachter": "Max Mustermann","lat": 51.218153219343016}]},{"name": "Chrysolina haemoptera","nameDeutsch": "Rotflügel-Wegerichblattkäfer","ordnung": "Käfer","familie": "Blattkäfer","urlWikipedia": "https://de.wikipedia.org/wiki/Chrysolina_haemoptera","urlInsektenSachsen": "https://www.insekten-sachsen.de/Pages/TaxonomyBrowser.aspx?Id=241979","beobachtungen": [{"datum": "2016-11-10","fundort": "Musterstadt","anzahl": 1,"stadium": "Imago","lon": 13.844643071995534,"pruefung": "Insekten Sachsen","beobachter": "Max Mustermann","lat": 51.16983002367594}]},{"name": "Chrysolina sturmi","nameDeutsch": "Violetter Gundermann-Blattkäfer","ordnung": "Käfer","familie": "Blattkäfer","urlWikipedia": "https://de.wikipedia.org/wiki/Chrysolina_sturmi","urlInsektenSachsen": "https://www.insekten-sachsen.de/Pages/TaxonomyBrowser.aspx?Id=242007","beobachtungen": [{"datum": "2014-12-24","fundort": "Musterstadt","anzahl": 1,"stadium": "Imago","lon": 13.9732642874904,"pruefung": "Insekten Sachsen","beobachter": "Max Mustermann","lat": 51.161158058387}]},{"name": "Chrysomela vigintipunctata","nameDeutsch": "Gefleckter Weidenblattkäfer","ordnung": "Käfer","familie": "Blattkäfer","urlWikipedia": "https://de.wikipedia.org/wiki/Gefleckter_Weidenblattk%C3%A4fer","urlInsektenSachsen": "https://www.insekten-sachsen.de/Pages/TaxonomyBrowser.aspx?Id=241659","beobachtungen": [{"datum": "2014-12-02","fundort": "Musterstadt","anzahl": 1,"stadium": "Imago","lon": 13.9946898114964,"pruefung": "Insekten Sachsen","beobachter": "Max Mustermann","lat": 51.17092760200834}]},{"name": "Cirrhia icteritia","nameDeutsch": "Bleich-Gelbeule","ordnung": "Schmetterlinge","familie": "Eulenfalter","urlWikipedia": "https://en.wikipedia.org/wiki/Cirrhia","urlInsektenSachsen": "https://www.insekten-sachsen.de/Pages/TaxonomyBrowser.aspx?Id=447793","urlSonstige": "http://www.lepiforum.de/lepiwiki.pl?Cirrhia_icteritia","beobachtungen": [{"datum": "2015-05-20","fundort": "Musterstadt","anzahl": 1,"stadium": "Imago","lon": 13.716382132447976,"pruefung": "Insekten Sachsen","beobachter": "Max Mustermann","lat": 51.07857628225615}]},{"name": "Closterotomus biclavatus","nameDeutsch": "Zweikeulen-Weichwanze","ordnung": "Schnabelkerfe","familie": "Weichwanzen","urlWikipedia": "https://de.wikipedia.org/wiki/Zweikeulen-Weichwanze","urlInsektenSachsen": "https://www.insekten-sachsen.de/Pages/TaxonomyBrowser.aspx?Id=452170","beobachtungen": [{"datum": "2020-06-21","fundort": "Musterstadt","anzahl": 1,"stadium": "Imago","lon": 13.9859178232572,"pruefung": "Insekten Sachsen","beobachter": "Max Mustermann","lat": 51.16101273088852},{"datum": "2015-06-01","fundort": "Musterstadt","anzahl": 1,"stadium": "Imago","lon": 13.957752388181476,"pruefung": "Insekten Sachsen","beobachter": "Maria Muster","lat": 51.1872384447941}]},{"name": "Clytra laeviuscula","nameDeutsch": "Ameisensackkäfer","ordnung": "Käfer","familie": "Blattkäfer","urlWikipedia": "https://de.wikipedia.org/wiki/Ameisensackk%C3%A4fer","urlInsektenSachsen": "https://www.insekten-sachsen.de/Pages/TaxonomyBrowser.aspx?Id=241062","beobachtungen": [{"datum": "2011-12-10","fundort": "Musterstadt","anzahl": 1,"stadium": "Imago","lon": 13.851353514066421,"pruefung": "Insekten Sachsen","beobachter": "Max Mustermann","lat": 51.173949178924836},{"datum": "2011-08-22","fundort": "Musterstadt","anzahl": 1,"stadium": "Imago","lon": 13.694304533799748,"pruefung": "Insekten Sachsen","beobachter": "Maria Muster","lat": 51.08345529443019},{"datum": "2017-06-19","fundort": "Musterstadt","anzahl": 3,"stadium": "Imago","lon": 13.820922072447326,"pruefung": "Insekten Sachsen","beobachter": "Maria Muster","lat": 51.199095113959324},{"datum": "2019-06-02","fundort": "Musterstadt","anzahl": 1,"stadium": "Imago","lon": 13.952353813900693,"pruefung": "Insekten Sachsen","beobachter": "Maria Muster","lat": 51.22500064294121}]},{"name": "Clytus arietis","nameDeutsch": "Buchen-Widderbock","ordnung": "Käfer","familie": "Bockkäfer","urlWikipedia": "https://de.wikipedia.org/wiki/Echter_Widderbock","urlInsektenSachsen": "https://www.insekten-sachsen.de/Pages/TaxonomyBrowser.aspx?Id=114513","beobachtungen": [{"datum": "2018-03-03","fundort": "Musterstadt","anzahl": 1,"stadium": "Imago","lon": 14.04773937055219,"pruefung": "Insekten Sachsen","beobachter": "Max Mustermann","lat": 51.1926304892168},{"datum": "2018-09-07","fundort": "Musterstadt","anzahl": 1,"stadium": "Imago","lon": 13.975108340356918,"pruefung": "Insekten Sachsen","beobachter": "Max Mustermann","lat": 51.17434580487643},{"datum": "2012-10-28","fundort": "Musterstadt","anzahl": 1,"stadium": "Imago","lon": 13.953890998061466,"pruefung": "Insekten Sachsen","beobachter": "Maria Muster","lat": 51.19428366306364},{"datum": "2020-02-19","fundort": "Musterstadt","anzahl": 1,"stadium": "Imago","lon": 13.995039145208526,"pruefung": "Insekten Sachsen","beobachter": "Max Mustermann","lat": 51.17006513164995}]},{"name": "Coccinella septempunctata","nameDeutsch": "Siebenpunkt-Marienkäfer","ordnung": "Käfer","familie": "Marienkäfer","urlWikipedia": "https://de.wikipedia.org/wiki/Siebenpunkt-Marienk%C3%A4fer","urlInsektenSachsen": "https://www.insekten-sachsen.de/Pages/TaxonomyBrowser.aspx?Id=230443","beobachtungen": [{"datum": "2012-07-15","fundort": "Musterstadt","anzahl": 2,"stadium": "Imago","lon": 13.975110751276567,"pruefung": "Insekten Sachsen","beobachter": "Max Mustermann","lat": 51.166403385885495},{"datum": "2021-04-25","fundort": "Musterstadt","anzahl": 1,"stadium": "Imago","lon": 13.671304049120373,"pruefung": "Insekten Sachsen","beobachter": "Max Mustermann","lat": 50.73611210500822},{"datum": "2014-08-04","fundort": "Musterstadt","anzahl": 1,"stadium": "Imago","lon": 13.706252413094237,"pruefung": "iNaturalist","beobachter": "Max Mustermann","lat": 51.073264756071126},{"datum": "2018-10-19","fundort": "Musterstadt","anzahl": 1,"stadium": "Larve","lon": 13.686391841310225,"pruefung": "Insekten Sachsen","beobachter": "Maria Muster","lat": 51.08959012674578},{"datum": "2020-01-23","fundort": "Musterstadt","anzahl": 1,"stadium": "Imago","lon": 13.953011244431803,"pruefung": "Insekten Sachsen","beobachter": "Maria Muster","lat": 51.178553364694416}]},{"name": "Coenagrion puella","nameDeutsch": "Hufeisen-Azurjungfer","ordnung": "Libellen","familie": "Schlanklibellen","urlWikipedia": "https://de.wikipedia.org/wiki/Hufeisen-Azurjungfer","urlInsektenSachsen": "https://www.insekten-sachsen.de/Pages/TaxonomyBrowser.aspx?Id=214272","urlSonstige": "https://libellenwissen.de/libellenarten/kleinlibellen/schlanklibellen-coenagrionidae/hufeisen-azurjungfer/","beobachtungen": [{"datum": "2017-05-08","fundort": "Musterstadt","anzahl": 1,"stadium": "Imago","lon": 5.639324755290652,"pruefung": "iNaturalist","beobachter": "Maria Muster","lat": 50.840665081479365},{"datum": "2014-03-16","fundort": "Musterstadt","anzahl": 1,"stadium": "Imago","lon": 12.307803315432405,"pruefung": "iNaturalist","beobachter": "Max Mustermann","lat": 49.87961411157454},{"datum": "2017-12-14","fundort": "Musterstadt","anzahl": 3,"stadium": "Imago","lon": 13.945546117994414,"pruefung": "Insekten Sachsen","beobachter": "Maria Muster","lat": 51.19588728409556},{"datum": "2013-12-04","fundort": "Musterstadt","anzahl": 2,"stadium": "Imago","lon": 14.688403448992808,"pruefung": "Insekten Sachsen","beobachter": "Maria Muster","lat": 50.85816459817905},{"datum": "2019-01-23","fundort": "Musterstadt","anzahl": 1,"stadium": "Imago","lon": 14.664779453274129,"pruefung": "Insekten Sachsen","beobachter": "Maria Muster","lat": 51.0477312935304},{"datum": "2013-08-01","fundort": "Musterstadt","anzahl": 1,"stadium": "Imago","lon": 13.977876999631148,"pruefung": "Insekten Sachsen","beobachter": "Max Mustermann","lat": 51.16267983543462}]},{"name": "Coenonympha pamphilus","nameDeutsch": "Kleines Wiesenvögelchen","ordnung": "Schmetterlinge","familie": "Edelfalter","urlWikipedia": "https://de.wikipedia.org/wiki/Kleines_Wiesenv%C3%B6gelchen","urlInsektenSachsen": "https://www.insekten-sachsen.de/Pages/TaxonomyBrowser.aspx?Id=441285","urlSonstige": "http://www.lepiforum.de/lepiwiki.pl?Coenonympha_pamphilus","beobachtungen": [{"datum": "2019-04-07","fundort": "Musterstadt","anzahl": 1,"stadium": "Imago","lon": 13.948650379321485,"pruefung": "Insekten Sachsen","beobachter": "Maria Muster","lat": 51.18890150333664},{"datum": "2016-07-08","fundort": "Musterstadt","anzahl": 1,"stadium": "Imago","lon": 14.047384537512876,"pruefung": "Insekten Sachsen","beobachter": "Maria Muster","lat": 51.21211481532041},{"datum": "2013-07-17","fundort": "Musterstadt","anzahl": 1,"stadium": "Imago","lon": 13.957734758762356,"pruefung": "Insekten Sachsen","beobachter": "Maria Muster","lat": 51.19450814204443},{"datum": "2018-04-13","fundort": "Musterstadt","anzahl": 1,"stadium": "Imago","lon": 13.803334609492847,"pruefung": "Insekten Sachsen","beobachter": "Maria Muster","lat": 51.111832045560796},{"datum": "2020-08-20","fundort": "Musterstadt","anzahl": 3,"stadium": "Imago","lon": 13.98155667438188,"pruefung": "Insekten Sachsen","beobachter": "Maria Muster","lat": 51.24375918626498},{"datum": "2018-10-01","fundort": "Musterstadt","anzahl": 1,"stadium": "Imago","lon": 13.789068676049109,"pruefung": "Insekten Sachsen","beobachter": "Max Mustermann","lat": 51.13404868486046},{"datum": "2013-02-13","fundort": "Musterstadt","anzahl": 1,"stadium": "Imago","lon": 14.351944272891467,"pruefung": "Insekten Sachsen","beobachter": "Maria Muster","lat": 51.80739262201898},{"datum": "2014-05-07","fundort": "Musterstadt","anzahl": 1,"stadium": "Imago","lon": 13.946595525567245,"pruefung": "iNaturalist","beobachter": "Maria Muster","lat": 51.196588648259514},{"datum": "2020-05-04","fundort": "Musterstadt","anzahl": 6,"stadium": "Imago","lon": 13.994128802788623,"pruefung": "Insekten Sachsen","beobachter": "Max Mustermann","lat": 51.16987500176409},{"datum": "2019-12-22","fundort": "Musterstadt","anzahl": 6,"stadium": "Imago","lon": 13.861837988573747,"pruefung": "Insekten Sachsen","beobachter": "Maria Muster","lat": 51.17593145567827},{"datum": "2017-06-21","fundort": "Musterstadt","anzahl": 1,"stadium": "Imago","lon": 14.633261765264388,"pruefung": "Insekten Sachsen","beobachter": "Max Mustermann","lat": 51.0198724073271}]},{"name": "Colotois pennaria","nameDeutsch": "Federfühler-Herbstspanner","ordnung": "Schmetterlinge","familie": "Spanner","urlWikipedia": "https://de.wikipedia.org/wiki/Federf%C3%BChler-Herbstspanner","urlInsektenSachsen": "https://www.insekten-sachsen.de/Pages/TaxonomyBrowser.aspx?Id=445958","urlSonstige": "http://www.lepiforum.de/lepiwiki.pl?Colotois_pennaria","beobachtungen": [{"datum": "2018-11-19","fundort": "Musterstadt","anzahl": 1,"stadium": "Imago","lon": 13.696213169367196,"pruefung": "Insekten Sachsen","beobachter": "Maria Muster","lat": 51.09955501183698},{"datum": "2015-09-26","fundort": "Musterstadt","anzahl": 1,"stadium": "Imago","lon": 13.672423322789568,"pruefung": "Insekten Sachsen","beobachter": "Maria Muster","lat": 51.09722122626817}]},{"name": "Conistra rubiginosa","nameDeutsch": "Schwarzgefleckte Wintereule","ordnung": "Schmetterlinge","familie": "Eulenfalter","urlWikipedia": "https://de.wikipedia.org/wiki/Feldholz-Wintereule","urlInsektenSachsen": "https://www.insekten-sachsen.de/Pages/TaxonomyBrowser.aspx?Id=447715","urlSonstige": "http://www.lepiforum.de/lepiwiki.pl?Conistra_rubiginosa","beobachtungen": [{"datum": "2018-01-14","fundort": "Musterstadt","anzahl": 1,"stadium": "Imago","lon": 13.97137747900501,"pruefung": "Insekten Sachsen","beobachter": "Maria Muster","lat": 51.18831856350264}]},{"name": "Coreus marginatus","nameDeutsch": "Lederwanze","ordnung": "Schnabelkerfe","familie": "Randwanzen","urlWikipedia": "https://de.wikipedia.org/wiki/Lederwanze","urlInsektenSachsen": "https://www.insekten-sachsen.de/Pages/TaxonomyBrowser.aspx?Id=453725","beobachtungen": [{"datum": "2017-05-03","fundort": "Musterstadt","anzahl": 1,"stadium": "Imago","lon": 13.949903870137945,"pruefung": "Insekten Sachsen","beobachter": "Maria Muster","lat": 51.17846017129988},{"datum": "2012-05-20","fundort": "Musterstadt","anzahl": 1,"stadium": "Imago","lon": 14.368385422490213,"pruefung": "Insekten Sachsen","beobachter": "Max Mustermann","lat": 51.78534928649616},{"datum": "2013-12-11","fundort": "Musterstadt","anzahl": 1,"stadium": "Imago","lon": 13.71036689776252,"pruefung": "Insekten Sachsen","beobachter": "Max Mustermann","lat": 51.07579601653255},{"datum": "2016-11-28","fundort": "Musterstadt","anzahl": 1,"stadium": "Imago","lon": 13.966851513782998,"pruefung": "Insekten Sachsen","beobachter": "Maria Muster","lat": 51.195218853138854},{"datum": "2017-10-30","fundort": "Musterstadt","anzahl": 1,"stadium": "Imago","lon": 13.832345248125085,"pruefung": "Insekten Sachsen","beobachter": "Max Mustermann","lat": 51.17290586112659},{"datum": "2015-11-22","fundort": "Musterstadt","anzahl": 3,"stadium": "Larve","lon": 13.992757538338498,"pruefung": "Insekten Sachsen","beobachter": "Max Mustermann","lat": 51.21679841883085}]},{"name": "Coriomeris denticulatus","nameDeutsch": "Coriomeris denticulatus","ordnung": "Schnabelkerfe","familie": "Randwanzen","urlWikipedia": "https://de.wikipedia.org/wiki/Coriomeris_denticulatus","urlInsektenSachsen": "https://www.insekten-sachsen.de/Pages/TaxonomyBrowser.aspx?Id=453761","beobachtungen": [{"datum": "2016-07-06","fundort": "Musterstadt","anzahl": 1,"stadium": "Imago","lon": 13.81437377711463,"pruefung": "Insekten Sachsen","beobachter": "Maria Muster","lat": 51.20101902904351}]},{"name": "Corizus hyoscyami","nameDeutsch": "Zimtwanze","ordnung": "Schnabelkerfe","familie": "Glasflügelwanzen","urlWikipedia": "https://de.wikipedia.org/wiki/Zimtwanze","urlInsektenSachsen": "https://www.insekten-sachsen.de/Pages/TaxonomyBrowser.aspx?Id=453633","beobachtungen": [{"datum": "2015-03-14","fundort": "Musterstadt","anzahl": 1,"stadium": "Imago","lon": 13.693547009678266,"pruefung": "Insekten Sachsen","beobachter": "Maria Muster","lat": 51.09069169279275}]},{"name": "Cossus cossus","nameDeutsch": "Weidenbohrer","ordnung": "Schmetterlinge","familie": "Holzbohrer","urlWikipedia": "https://de.wikipedia.org/wiki/Weidenbohrer","urlInsektenSachsen": "https://www.insekten-sachsen.de/Pages/TaxonomyBrowser.aspx?Id=439949","urlSonstige": "http://www.lepiforum.de/lepiwiki.pl?Cossus_cossus","beobachtungen": [{"datum": "2012-01-19","fundort": "Musterstadt","anzahl": 1,"stadium": "Larve","lon": 13.957880380647207,"pruefung": "Insekten Sachsen","beobachter": "Maria Muster","lat": 51.17743524471163},{"datum": "2020-03-28","fundort": "Musterstadt","anzahl": 1,"stadium": "Larve","lon": 13.933620077995954,"pruefung": "Insekten Sachsen","beobachter": "Max Mustermann","lat": 51.117925110901616}]},{"name": "Crepidodera aurata","nameDeutsch": "Weidenerdfloh","ordnung": "Käfer","familie": "Blattkäfer","urlWikipedia": "https://en.wikipedia.org/wiki/Crepidodera_aurata","urlInsektenSachsen": "https://www.insekten-sachsen.de/Pages/TaxonomyBrowser.aspx?Id=243190","beobachtungen": [{"datum": "2011-07-14","fundort": "Musterstadt","anzahl": 3,"stadium": "Imago","lon": 13.94928118089539,"pruefung": "Insekten Sachsen","beobachter": "Maria Muster","lat": 51.15881809766376}]},{"name": "Cucullia umbratica","nameDeutsch": "Schattenmönch","ordnung": "Schmetterlinge","familie": "Eulenfalter","urlWikipedia": "https://de.wikipedia.org/wiki/Schatten-M%C3%B6nch","urlInsektenSachsen": "https://www.insekten-sachsen.de/Pages/TaxonomyBrowser.aspx?Id=449318","urlSonstige": "http://www.lepiforum.de/lepiwiki.pl?Cucullia_umbratica","beobachtungen": [{"datum": "2020-09-12","fundort": "Musterstadt","anzahl": 1,"stadium": "Imago","lon": 13.963454413459024,"pruefung": "Insekten Sachsen","beobachter": "Maria Muster","lat": 51.19309076171103}]},{"name": "Cupido argiades","nameDeutsch": "Kurzschwänziger Bläuling","ordnung": "Schmetterlinge","familie": "Bläulinge","urlWikipedia": "https://de.wikipedia.org/wiki/Kurzschw%C3%A4nziger_Bl%C3%A4uling","urlInsektenSachsen": "https://www.insekten-sachsen.de/Pages/TaxonomyBrowser.aspx?Id=441120","urlSonstige": "http://www.lepiforum.de/lepiwiki.pl?Cupido_argiades","beobachtungen": [{"datum": "2015-01-15","fundort": "Musterstadt","anzahl": 1,"stadium": "Imago","lon": 13.740418722202767,"pruefung": "Insekten Sachsen","beobachter": "Maria Muster","lat": 51.05255431307866}]},{"name": "Curculio glandium","nameDeutsch": "Gewöhnlicher Eichelbohrer","ordnung": "Käfer","familie": "Rüsselkäfer","urlWikipedia": "https://de.wikipedia.org/wiki/Eichelbohrer","urlInsektenSachsen": "https://www.insekten-sachsen.de/Pages/TaxonomyBrowser.aspx?Id=250619","urlVideo": "https://youtu.be/HlUue1n3lbw","beobachtungen": [{"datum": "2014-11-10","fundort": "Musterstadt","anzahl": 1,"stadium": "Imago","lon": 13.85935626395718,"pruefung": "Insekten Sachsen","beobachter": "Maria Muster","lat": 51.19289052879159}]},{"name": "Cydalima perspectalis","nameDeutsch": "Buchsbaumzünsler","ordnung": "Schmetterlinge","familie": "Crambidae","urlWikipedia": "https://de.wikipedia.org/wiki/Buchsbaumz%C3%BCnsler","urlInsektenSachsen": "https://www.insekten-sachsen.de/Pages/TaxonomyBrowser.aspx?Id=442650","urlSonstige": "http://www.lepiforum.de/lepiwiki.pl?Cydalima_perspectalis","beobachtungen": [{"datum": "2021-01-20","fundort": "Musterstadt","anzahl": 1,"stadium": "Imago","lon": 13.7020060978336,"pruefung": "Insekten Sachsen","beobachter": "Maria Muster","lat": 51.10274566683396},{"datum": "2013-08-04","fundort": "Musterstadt","anzahl": 1,"stadium": "Imago","lon": 13.974720240802652,"pruefung": "Insekten Sachsen","beobachter": "Max Mustermann","lat": 51.17372822392951},{"datum": "2016-02-02","fundort": "Musterstadt","anzahl": 1,"stadium": "Imago","lon": 13.720268757731128,"pruefung": "Insekten Sachsen","beobachter": "Max Mustermann","lat": 51.08059363107829},{"datum": "2016-12-19","fundort": "Musterstadt","anzahl": 1,"stadium": "Imago","lon": 13.964058380692494,"pruefung": "Insekten Sachsen","beobachter": "Maria Muster","lat": 51.18734088956168},{"datum": "2021-01-16","fundort": "Musterstadt","anzahl": 1,"stadium": "Imago","lon": 13.80237065180275,"pruefung": "Insekten Sachsen","beobachter": "Maria Muster","lat": 51.20261868786753},{"datum": "2012-03-12","fundort": "Musterstadt","anzahl": 1,"stadium": "Imago","lon": 13.986075661316004,"pruefung": "iNaturalist","beobachter": "Max Mustermann","lat": 51.158445728786596},{"datum": "2011-12-08","fundort": "Musterstadt","anzahl": 1,"stadium": "Imago","lon": 13.700712155559984,"pruefung": "Insekten Sachsen","beobachter": "Maria Muster","lat": 51.0977021069587}]},{"name": "Cydia pomonella","nameDeutsch": "Apfelwickler","ordnung": "Schmetterlinge","familie": "Wickler","urlWikipedia": "https://de.wikipedia.org/wiki/Apfelwickler","urlInsektenSachsen": "https://www.insekten-sachsen.de/Pages/TaxonomyBrowser.aspx?Id=439192","urlSonstige": "http://www.lepiforum.de/lepiwiki.pl?Cydia_pomonella","beobachtungen": [{"datum": "2016-07-15","fundort": "Musterstadt","anzahl": 6,"stadium": "Imago","lon": 13.950325794183401,"pruefung": "Insekten Sachsen","beobachter": "Maria Muster","lat": 51.18596365808168}]},{"name": "Cyphocleonus dealbatus","nameDeutsch": "Gefleckter Langrüssler","ordnung": "Käfer","familie": "Rüsselkäfer","urlInsektenSachsen": "https://www.insekten-sachsen.de/Pages/TaxonomyBrowser.aspx?Id=248707","beobachtungen": [{"datum": "2013-03-06","fundort": "Musterstadt","anzahl": 1,"stadium": "Imago","lon": 14.346977810805134,"pruefung": "Insekten Sachsen","beobachter": "Maria Muster","lat": 51.79030828741789}]},{"name": "Cyphostethus tristriatus","nameDeutsch": "Buntrock","ordnung": "Schnabelkerfe","familie": "Stachelwanzen","urlWikipedia": "https://de.wikipedia.org/wiki/Buntrock","urlInsektenSachsen": "https://www.insekten-sachsen.de/Pages/TaxonomyBrowser.aspx?Id=453905","beobachtungen": [{"datum": "2016-04-04","fundort": "Musterstadt","anzahl": 2,"stadium": "Imago","lon": 13.992548957078265,"pruefung": "Insekten Sachsen","beobachter": "Max Mustermann","lat": 51.16651904913088}]},{"name": "Deilephila elpenor","nameDeutsch": "Mittlerer Weinschwärmer","ordnung": "Schmetterlinge","familie": "Schwärmer","urlWikipedia": "https://de.wikipedia.org/wiki/Mittlerer_Weinschw%C3%A4rmer","urlInsektenSachsen": "https://www.insekten-sachsen.de/Pages/TaxonomyBrowser.aspx?Id=443736","urlSonstige": "http://www.lepiforum.de/lepiwiki.pl?Deilephila_elpenor","beobachtungen": [{"datum": "2013-10-14","fundort": "Musterstadt","anzahl": 1,"stadium": "Imago","lon": 13.985959965847558,"pruefung": "Insekten Sachsen","beobachter": "Maria Muster","lat": 51.239190062952694}]},{"name": "Deraeocoris ruber","nameDeutsch": "Rote Weichwanze","ordnung": "Schnabelkerfe","familie": "Weichwanzen","urlWikipedia": "https://de.wikipedia.org/wiki/Rote_Weichwanze","urlInsektenSachsen": "https://www.insekten-sachsen.de/Pages/TaxonomyBrowser.aspx?Id=452358","beobachtungen": [{"datum": "2016-05-20","fundort": "Musterstadt","anzahl": 1,"stadium": "Imago","lon": 14.366775724961663,"pruefung": "Insekten Sachsen","beobachter": "Max Mustermann","lat": 51.79434638508362},{"datum": "2013-11-27","fundort": "Musterstadt","anzahl": 1,"stadium": "Imago","lon": 13.961983726161604,"pruefung": "Insekten Sachsen","beobachter": "Maria Muster","lat": 51.17949924898883}]},{"name": "Dictyophara europaea","nameDeutsch": "Europäischer Laternenträger","ordnung": "Schnabelkerfe","familie": "Dictyopharidae","urlWikipedia": "https://de.wikipedia.org/wiki/Europ%C3%A4ischer_Laternentr%C3%A4ger","urlInsektenSachsen": "https://www.insekten-sachsen.de/Pages/TaxonomyBrowser.aspx?Id=239663","beobachtungen": [{"datum": "2014-03-11","fundort": "Musterstadt","anzahl": 1,"stadium": "Imago","lon": 14.00841141532385,"pruefung": "Insekten Sachsen","beobachter": "Max Mustermann","lat": 51.21908283341796}]},{"name": "Dioctria hyalipennis","nameDeutsch": "Dioctria hyalipennis","ordnung": "Zweiflügler","familie": "Raubfliegen","urlWikipedia": "https://en.wikipedia.org/wiki/Dioctria_hyalipennis","urlInsektenSachsen": "https://www.insekten-sachsen.de/Pages/TaxonomyBrowser.aspx?Id=60054","beobachtungen": [{"datum": "2019-11-09","fundort": "Musterstadt","anzahl": 1,"stadium": "Imago","lon": 13.951238418552569,"pruefung": "Insekten Sachsen","beobachter": "Maria Muster","lat": 51.177172304624406}]},{"name": "Diurnea fagella","nameDeutsch": "Frühjahrsbuchenmotte","ordnung": "Schmetterlinge","familie": "Breitflügelmotten","urlWikipedia": "https://de.wikipedia.org/wiki/Buchenmotte","urlInsektenSachsen": "https://www.insekten-sachsen.de/Pages/TaxonomyBrowser.aspx?Id=434869","urlSonstige": "http://www.lepiforum.de/lepiwiki.pl?Diurnea_fagella","beobachtungen": [{"datum": "2019-07-02","fundort": "Musterstadt","anzahl": 1,"stadium": "Imago","lon": 13.830002728190381,"pruefung": "Insekten Sachsen","beobachter": "Maria Muster","lat": 51.19723585629007},{"datum": "2020-03-25","fundort": "Musterstadt","anzahl": 1,"stadium": "Imago","lon": 13.945422998070246,"pruefung": "Insekten Sachsen","beobachter": "Maria Muster","lat": 51.19141499961632}]},