[{"art": {"ordnung": "Schmetterlinge","familie": "Eulenfalter","nameDeutsch": "Buchen-Streckfuß","name": "Calliteara pudibunda"},"datum": "2018-02-20","beobachter": "Maria Muster","lat": 51.19092070276203,"lon": 13.966993949354137,"fundort": "Musterstadt","stadium": "Larve","anzahl": 1,"pruefung": "Insekten Sachsen"},{"art": {"ordnung": "Schmetterlinge","familie": "Zahnspinner","nameDeutsch": "Zickzack-Zahnspinner","name": "Notodonta ziczac"},"datum": "2017-03-04","beobachter": "Max Mustermann","lat": 51.1452646685358,"lon": 14.001821587079217,"fundort": "Musterstadt","stadium": "Imago","anzahl": 1,"pruefung": "Insekten Sachsen"},{"art": {"ordnung": "Käfer","familie": "Blattkäfer","nameDeutsch": "Lilienhähnchen","name": "Lilioceris lilii"},"datum": "2013-01-11","beobachter": "Max Mustermann","lat": 51.15737818376203,"lon": 13.996126295952381,"fundort": "Musterstadt","stadium": "Imago","anzahl": 2,"pruefung": "Insekten Sachsen"},{"art": {"ordnung": "Käfer","familie": "Blattkäfer","nameDeutsch": "Gefleckter Weidenblattkäfer","name": "Chrysomela vigintipunctata"},"datum": "2016-02-20","beobachter": "Max Mustermann","lat": 51.16730222975334,"lon": 13.995243554561057,"fundort": "Musterstadt","stadium": "Imago","anzahl": 1,"pruefung": "Insekten Sachsen"},{"art": {"ordnung": "Schmetterlinge","familie": "Edelfalter","nameDeutsch": "C-Falter","name": "Polygonia c-album"},"datum": "2019-08-12","beobachter": "Maria Muster","lat": 51.19147635735848,"lon": 13.948311942847342,"fundort": "Musterstadt","stadium": "Imago","anzahl": 1,"pruefung": "Insekten Sachsen"},{"art": {"ordnung": "Schmetterlinge","familie": "Eulenfalter","nameDeutsch": "Grüne Meldeneule","name": "Trachea atriplicis"},"datum": "2019-02-18","beobachter": "Max Mustermann","lat": 51.180243701605285,"lon": 13.977352569335652,"fundort": "Musterstadt","stadium": "Imago","anzahl": 1,"pruefung": "Insekten Sachsen"},{"art": {"ordnung": "Schmetterlinge","familie": "Ritterfalter","nameDeutsch": "Schwalbenschwanz","name": "Papilio machaon"},"datum": "2012-09-09","beobachter": "Max Mustermann","lat": 51.79603763367321,"lon": 14.368744534107748,"fundort": "Musterstadt","stadium": "Larve","anzahl": 1,"pruefung": "Insekten Sachsen"},{"art": {"ordnung": "Schmetterlinge","familie": "Edelfalter","nameDeutsch": "Kaisermantel","name": "Argynnis paphia"},"datum": "2013-09-05","beobachter": "Max Mustermann","lat": 51.16030420108447,"lon": 13.987616508705486,"fundort": "Musterstadt","stadium": "Imago","anzahl": 1,"pruefung": "Insekten Sachsen"},{"art": {"ordnung": "Käfer","familie": "Bockkäfer","nameDeutsch": "Großer Pappelbock","name": "Saperda carcharias"},"datum": "2016-02-08","beobachter": "Max Mustermann","lat": 51.18693378576293,"lon": 13.982003196581106,"fundort": "Musterstadt","stadium": "Imago","anzahl": 1,"pruefung": "Insekten Sachsen"},{"art": {"ordnung": "Schmetterlinge","familie": "Schwärmer","nameDeutsch": "Kiefernschwärmer","name": "Sphinx pinastri"},"datum": "2015-06-25","beobachter": "Maria Muster","lat": 51.18640063882485,"lon": 13.928267492990095,"fundort": "Musterstadt","stadium": "Imago","anzahl": 1,"pruefung": "Insekten Sachsen"},{"art": {"ordnung": "Schmetterlinge","familie": "Edelfalter","nameDeutsch": "Tagpfauenauge","name": "Aglais io"},"datum": "2016-12-20","beobachter": "Max Mustermann","lat": 49.44918936325216,"lon": 6.651838630363961,"fundort": "Musterstadt","stadium": "Imago","anzahl": 1,"pruefung": "iNaturalist"},{"art": {"ordnung": "Schmetterlinge","familie": "Holzbohrer","nameDeutsch": "Blausieb","name": "Zeuzera pyrina"},"datum": "2015-07-29","beobachter": "Maria Muster","lat": 51.20441476853827,"lon": 13.920920961875401,"fundort": "Musterstadt","stadium": "Imago","anzahl": 1,"pruefung": "Insekten Sachsen"},{"art": {"ordnung": "Schmetterlinge","familie": "Edelfalter","nameDeutsch": "Tagpfauenauge","name": "Aglais io"},"datum": "2011-10-02","beobachter": "Maria Muster","lat": 50.673718194240955,"lon": 13.451336630229346,"fundort": "Musterstadt","stadium": "Imago","anzahl": 1,"pruefung": "Insekten Sachsen"},{"art": {"ordnung": "Schmetterlinge","familie": "Edelfalter","nameDeutsch": "Tagpfauenauge","name": "Aglais io"},"datum": "2018-04-26","beobachter": "Max Mustermann","lat": 51.01647303496762,"lon": 13.788225868577905,"fundort": "Musterstadt","stadium": "Imago","anzahl": 1,"pruefung": "Insekten Sachsen"},{"art": {"ordnung": "Hautflügler","familie": "Echte Bienen","nameDeutsch": "Frühlings-Pelzbiene","name": "Anthophora plumipes"},"datum": "2013-10-25","beobachter": "Maria Muster","lat": 51.19208942822901,"lon": 13.948670044727233,"fundort": "Musterstadt","stadium": "Imago","anzahl": 1,"pruefung": "Insekten Sachsen"},{"art": {"ordnung": "Käfer","familie": "Blatthornkäfer","nameDeutsch": "Junikäfer","name": "Amphimallon solstitiale"},"datum": "2017-02-12","beobachter": "Maria Muster","lat": 51.19415072333842,"lon": 13.936130583046205,"fundort": "Musterstadt","stadium": "Imago","anzahl": 1,"pruefung": "Insekten Sachsen"},{"art": {"ordnung": "Schmetterlinge","familie": "Edelfalter","nameDeutsch": "Kaisermantel","name": "Argynnis paphia"},"datum": "2019-07-22","beobachter": "Max Mustermann","lat": 44.5220540471016,"lon": 15.12614370423898,"fundort": "Musterstadt","stadium": "Imago","anzahl": 1,"pruefung": "iNaturalist"},{"art": {"ordnung": "Schmetterlinge","familie": "Eulenfalter","nameDeutsch": "Russischer Bär","name": "Euplagia quadripunctaria"},"datum": "2015-08-07","beobachter": "Max Mustermann","lat": 44.53952675051178,"lon": 15.104163719476327,"fundort": "Musterstadt","stadium": "Imago","anzahl": 1,"pruefung": "iNaturalist"},{"art": {"ordnung": "Fangschrecken","familie": "Mantidae","nameDeutsch": "Europäische Gottesanbeterin","name": "Mantis religiosa"},"datum": "2017-04-18","beobachter": "Maria Muster","lat": 44.54679011368713,"lon": 15.003698813156126,"fundort": "Musterstadt","stadium": "Imago","anzahl": 1,"pruefung": "iNaturalist"},{"art": {"ordnung": "Schmetterlinge","familie": "Eulenfalter","nameDeutsch": "Pappelkarmin","name": "Catocala elocata"},"datum": "2020-11-08","beobachter": "Max Mustermann","lat": 51.15890204518519,"lon": 13.985166249485115,"fundort": "Musterstadt","stadium": "Larve","anzahl": 1,"pruefung": "Insekten Sachsen"},{"art": {"ordnung": "Schmetterlinge","familie": "Holzbohrer","nameDeutsch": "Weidenbohrer","name": "Cossus cossus"},"datum": "2016-01-27","beobachter": "Max Mustermann","lat": 51.16799448301238,"lon": 13.965577560249779,"fundort": "Musterstadt","stadium": "Larve","anzahl": 1,"pruefung": "Insekten Sachsen"},{"art": {"ordnung": "Schmetterlinge","familie": "Eulenfalter","nameDeutsch": "Schwammspinner","name": "Lymantria dispar"},"datum": "2015-01-31","beobachter": "Max Mustermann","lat": 51.1000304168216,"lon": 13.653965562493198,"fundort": "Musterstadt","stadium": "Larve","anzahl": 1,"pruefung": "Insekten Sachsen"},{"art": {"ordnung": "Käfer","familie": "Blatthornkäfer","nameDeutsch": "Walker","name": "Polyphylla fullo"},"datum": "2020-04-14","beobachter": "Maria Muster","lat": 51.10333424707272,"lon": 13.682631595391996,"fundort": "Musterstadt","stadium": "Imago","anzahl": 1,"pruefung": "Insekten Sachsen"},{"art": {"ordnung": "Schmetterlinge","familie": "Eulenfalter","nameDeutsch": "Pyramideneule","name": "Amphipyra pyramidea"},"datum": "2016-06-18","beobachter": "Maria Muster","lat": 51.196540245698266,"lon": 13.938025506880075,"fundort": "Musterstadt","stadium": "Imago","anzahl": 1,"pruefung": "Insekten Sachsen"},{"art": {"ordnung": "Libellen","familie": "Prachtlibellen","nameDeutsch": "Blauflügel-Prachtlibelle","name": "Calopteryx virgo"},"datum": "2018-11-14","beobachter": "Maria Muster","lat": 49.52207248223299,"lon": 11.411210098017513,"fundort": "Musterstadt","stadium": "Imago","anzahl": 1,"pruefung": "iNaturalist"},{"art": {"ordnung": "Schmetterlinge","familie": "Ritterfalter","nameDeutsch": "Segelfalter","name": "Iphiclides podalirius"},"datum": "2018-03-31","beobachter": "Max Mustermann","lat": 44.10967181408734,"lon": 15.273122394983869,"fundort": "Musterstadt","stadium": "Imago","anzahl": 1,"pruefung": "iNaturalist"},{"art": {"ordnung": "Käfer","familie": "Rüsselkäfer","nameDeutsch": "Otiorhynchus cardiniger","name": "Otiorhynchus cardiniger"},"datum": "2020-01-31","beobachter": "Maria Muster","lat": 44.56734913460191,"lon": 15.003073326277752,"fundort": "Musterstadt","stadium": "Imago","anzahl": 1,"pruefung": "iNaturalist"},{"art": {"ordnung": "Heuschrecken","familie": "Feldheuschrecken","nameDeutsch": "Italienische Schönschrecke","name": "Calliptamus italicus"},"datum": "2013-08-25","beobachter": "Max Mustermann","lat": 44.532805657515446,"lon": 15.060334055403109,"fundort": "Musterstadt","stadium": "Imago","anzahl": 1,"pruefung": "iNaturalist"},{"art": {"ordnung": "Schnabelkerfe","familie": "Singzikaden","nameDeutsch": "Gemeine Singzikade","name": "Lyristes plebejus"},"datum": "2021-02-11","beobachter": "Max Mustermann","lat": 44.52428011877393,"lon": 15.044863670953507,"fundort": "Musterstadt","stadium": "Imago","anzahl": 1,"pruefung": "iNaturalist"},{"art": {"ordnung": "Libellen","familie": "Schlanklibellen","nameDeutsch": "Gemeine Becherjungfer","name": "Enallagma cyathigerum"},"datum": "2014-10-25","beobachter": "Maria Muster","lat": 44.89020103345311,"lon": 15.54689756302311,"fundort": "Musterstadt","stadium": "Imago","anzahl": 1,"pruefung": "iNaturalist"},{"art": {"ordnung": "Schmetterlinge","familie": "Edelfalter","nameDeutsch": "Kaisermantel","name": "Argynnis paphia"},"datum": "2018-09-17","beobachter": "Maria Muster","lat": 44.88978596862199,"lon": 15.548938031840569,"fundort": "Musterstadt","stadium": "Imago","anzahl": 1,"pruefung": "iNaturalist"},{"art": {"ordnung": "Libellen","familie": "Segellibellen","nameDeutsch": "Kleiner Blaupfeil","name": "Orthetrum coerulescens"},"datum": "2020-01-27","beobachter": "Max Mustermann","lat": 44.857639124498306,"lon": 15.636003194331673,"fundort": "Musterstadt","stadium": "Imago","anzahl": 1,"pruefung": "iNaturalist"},{"art": {"ordnung": "Käfer","familie": "Prachtkäfer","nameDeutsch": "Buprestis cupressi","name": "Buprestis cupressi"},"datum": "2020-02-06","beobachter": "Maria Muster","lat": 44.55997202115328,"lon": 15.03134580539111,"fundort": "Musterstadt","stadium": "Imago","anzahl": 1,"pruefung": "iNaturalist"},{"art": {"ordnung": "Schmetterlinge","familie": "Eulenfalter","nameDeutsch": "Russischer Bär","name": "Euplagia quadripunctaria"},"datum": "2014-04-16","beobachter": "Maria Muster","lat": 50.84170941353146,"lon": 13.92116438271696,"fundort": "Musterstadt","stadium": "Imago","anzahl": 1,"pruefung": "Insekten Sachsen"},{"art": {"ordnung": "Schmetterlinge","familie": "Edelfalter","nameDeutsch": "Großer Schillerfalter","name": "Apatura iris"},"datum": "2020-12-03","beobachter": "Max Mustermann","lat": 50.8338756209637,"lon": 13.93684970253845,"fundort": "Musterstadt","stadium": "Imago","anzahl": 1,"pruefung": "Insekten Sachsen"},{"art": {"ordnung": "Schmetterlinge","familie": "Edelfalter","nameDeutsch": "Kaisermantel","name": "Argynnis paphia"},"datum": "2011-08-25","beobachter": "Maria Muster","lat": 50.83773639636341,"lon": 13.934971519547679,"fundort": "Musterstadt","stadium": "Imago","anzahl": 1,"pruefung": "Insekten Sachsen"},{"art": {"ordnung": "Schmetterlinge","familie": "Edelfalter","nameDeutsch": "Tagpfauenauge","name": "Aglais io"},"datum": "2016-05-15","beobachter": "Maria Muster","lat": 50.844486359426135,"lon": 13.925053076717393,"fundort": "Musterstadt","stadium": "Imago","anzahl": 1,"pruefung": "Insekten Sachsen"},{"art": {"ordnung": "Schmetterlinge","familie": "Edelfalter","nameDeutsch": "Waldbrettspiel","name": "Pararge aegeria"},"datum": "2014-02-01","beobachter": "Max Mustermann","lat": 50.84102232530515,"lon": 13.955838033793459,"fundort": "Musterstadt","stadium": "Imago","anzahl": 1,"pruefung": "Insekten Sachsen"},{"art": {"ordnung": "Schmetterlinge","familie": "Ritterfalter","nameDeutsch": "Segelfalter","name": "Iphiclides podalirius"},"datum": "2016-11-08","beobachter": "Max Mustermann","lat": 51.811040499432046,"lon": 14.383443969446805,"fundort": "Musterstadt","stadium": "Imago","anzahl": 1,"pruefung": "Insekten Sachsen"},{"art": {"ordnung": "Schmetterlinge","familie": "Edelfalter","nameDeutsch": "Admiral","name": "Vanessa atalanta"},"datum": "2016-11-09","beobachter": "Max Mustermann","lat": 51.800925439449394,"lon": 14.325963253845579,"fundort": "Musterstadt","stadium": "Imago","anzahl": 1,"pruefung": "Insekten Sachsen"},{"art": {"ordnung": "Schmetterlinge","familie": "Eulenfalter","nameDeutsch": "Buchen-Streckfuß","name": "Calliteara pudibunda"},"datum": "2017-09-14","beobachter": "Maria Muster","lat": 50.95443266865918,"lon": 14.067036137788884,"fundort": "Musterstadt","stadium": "Larve","anzahl": 1,"pruefung": "Insekten Sachsen"},{"art": {"ordnung": "Schmetterlinge","familie": "Glucken","nameDeutsch": "Grasglucke","name": "Euthrix potatoria"},"datum": "2012-01-03","beobachter": "Max Mustermann","lat": 51.24672896899909,"lon": 13.849724030186778,"fundort": "Musterstadt","stadium": "Larve","anzahl": 1,"pruefung": "Insekten Sachsen"},{"art": {"ordnung": "Schmetterlinge","familie": "Edelfalter","nameDeutsch": "Tagpfauenauge","name": "Aglais io"},"datum": "2017-11-20","beobachter": "Max Mustermann","lat": 51.786202381752354,"lon": 14.36940063853792,"fundort": "Musterstadt","stadium": "Imago","anzahl": 3,"pruefung": "Insekten Sachsen"},{"art": {"ordnung": "Käfer","familie": "Bockkäfer","nameDeutsch": "Moschusbock","name": "Aromia moschata"},"datum": "2017-04-16","beobachter": "Maria Muster","lat": 51.200561960502654,"lon": 13.964718563326567,"fundort": "Musterstadt","stadium": "Imago","anzahl": 1,"pruefung": "Insekten Sachsen"},{"art": {"ordnung": "Schmetterlinge","familie": "Ritterfalter","nameDeutsch": "Segelfalter","name": "Iphiclides podalirius"},"datum": "2019-02-09","beobachter": "Max Mustermann","lat": 43.931640763480594,"lon": 12.457499499228522,"fundort": "Musterstadt","stadium": "Imago","anzahl": 1,"pruefung": "iNaturalist"},{"art": {"ordnung": "Schmetterlinge","familie": "Ritterfalter","nameDeutsch": "Schwalbenschwanz","name": "Papilio machaon"},"datum": "2018-08-05","beobachter": "Max Mustermann","lat": 43.91697983273341,"lon": 12.486222125819818,"fundort": "Musterstadt","stadium": "Imago","anzahl": 1,"pruefung": "iNaturalist"},{"art": {"ordnung": "Schmetterlinge","familie": "Ritterfalter","nameDeutsch": "Segelfalter","name": "Iphiclides podalirius"},"datum": "2013-09-28","beobachter": "Maria Muster","lat": 43.964964706439375,"lon": 12.432293669822291,"fundort": "Musterstadt","stadium": "Imago","anzahl": 1,"pruefung": "iNaturalist"},{"art": {"ordnung": "Hautflügler","familie": "Faltenwespen","nameDeutsch": "Hornisse","name": "Vespa crabro"},"datum": "2013-03-17","beobachter": "Max Mustermann","lat": 51.18433573765654,"lon": 13.97887285729669,"fundort": "Musterstadt","stadium": "Imago","anzahl": 1,"pruefung": "Insekten Sachsen"},{"art": {"ordnung": "Heuschrecken","familie": "Echte Grillen","nameDeutsch": "Feldgrille","name": "Gryllus campestris"},"datum": "2012-03-07","beobachter": "Maria Muster","lat": 51.12239391444305,"lon": 13.622391592916872,"fundort": "Musterstadt","stadium": "Imago","anzahl": 1,"pruefung": "Insekten Sachsen"},{"art": {"ordnung": "Käfer","familie": "Blatthornkäfer","nameDeutsch": "Sugarcane White Grub","name": "Lepidiota stigma"},"datum": "2018-05-02","beobachter": "Maria Muster","lat": 7.765626118565524,"lon": 98.76789284094843,"fundort": "Musterstadt","stadium": "Imago","anzahl": 1,"pruefung": "iNaturalist"},{"art": {"ordnung": "Schmetterlinge","familie": "Edelfalter","nameDeutsch": "Lemon Pansy","name": "Junonia lemonias"},"datum": "2020-07-06","beobachter": "Maria Muster","lat": 7.780130821336027,"lon": 98.76895457390393,"fundort": "Musterstadt","stadium": "Imago","anzahl": 1,"pruefung": "iNaturalist"},{"art": {"ordnung": "Libellen","familie": "Segellibellen","nameDeutsch": "Common Picture Wing","name": "Rhyothemis variegata"},"datum": "2019-05-01","beobachter": "Max Mustermann","lat": 13.454286851182832,"lon": 103.8362968660343,"fundort": "Musterstadt","stadium": "Imago","anzahl": 1,"pruefung": "iNaturalist"},{"art": {"ordnung": "Schmetterlinge","familie": "Crambidae","nameDeutsch": "Brennnesselzünsler","name": "Anania hortulata"},"datum": "2014-04-05","beobachter": "Maria Muster","lat": 51.198477651073745,"lon": 13.948134412509582,"fundort": "Musterstadt","stadium": "Imago","anzahl": 1,"pruefung": "Insekten Sachsen"},{"art": {"ordnung": "Käfer","familie": "Leuchtkäfer","nameDeutsch": "Glühwürmchen","name": "Lamprohiza splendidula"},"datum": "2020-04-16","beobachter": "Max Mustermann","lat": 51.160236788014565,"lon": 14.015520044274886,"fundort": "Musterstadt","stadium": "Imago","anzahl": 1,"pruefung": "Insekten Sachsen"},{"art": {"ordnung": "Schmetterlinge","familie": "Erebidae","nameDeutsch": "Brauner Bär","name": "Arctia caja"},"datum": "2014-05-25","beobachter": "Maria Muster","lat": 51.20381277149825,"lon": 13.932528538731116,"fundort": "Musterstadt","stadium": "Imago","anzahl": 1,"pruefung": "Insekten Sachsen"},{"art": {"ordnung": "Schmetterlinge","familie": "Schwärmer","nameDeutsch": "Taubenschwänzchen","name": "Macroglossum stellatarum"},"datum": "2012-03-03","beobachter": "Max Mustermann","lat": 50.91747812876825,"lon": 13.912706125185196,"fundort": "Musterstadt","stadium": "Imago","anzahl": 1,"pruefung": "Insekten Sachsen"},{"art": {"ordnung": "Schmetterlinge","familie": "Edelfalter","nameDeutsch": "Kleiner Fuchs","name": "Aglais urticae"},"datum": "2016-08-30","beobachter": "Max Mustermann","lat": 51.17520192657461,"lon": 13.957431224239741,"fundort": "Musterstadt","stadium": "Imago","anzahl": 1,"pruefung": "Insekten Sachsen"},{"art": {"ordnung": "Schmetterlinge","familie": "Edelfalter","nameDeutsch": "Tagpfauenauge","name": "Aglais io"},"datum": "2019-01-14","beobachter": "Maria Muster","lat": 51.209873412269204,"lon": 13.960898554801194,"fundort": "Musterstadt","stadium": "Imago","anzahl": 1,"pruefung": "Insekten Sachsen"},{"art": {"ordnung": "Käfer","familie": "Blatthornkäfer","nameDeutsch": "Eremit","name": "Osmoderma eremita"},"datum": "2015-08-25","beobachter": "Max Mustermann","lat": 50.95616743855665,"lon": 13.900109343840217,"fundort": "Musterstadt","stadium": "Imago","anzahl": 1,"pruefung": "Insekten Sachsen"},{"art": {"ordnung": "Schmetterlinge","familie": "Schwärmer","nameDeutsch": "Taubenschwänzchen","name": "Macroglossum stellatarum"},"datum": "2014-03-08","beobachter": "Maria Muster","lat": 51.19631635058993,"lon": 13.952394351518766,"fundort": "Musterstadt","stadium": "Imago","anzahl": 1,"pruefung": "Insekten Sachsen"},{"art": {"ordnung": "Schnabelkerfe","familie": "Zwergzikaden","nameDeutsch": "Rhododendronzikade","name": "Graphocephala fennahi"},"datum": "2011-08-08","beobachter": "Maria Muster","lat": 51.17428658865474,"lon": 13.976290493417752,"fundort": "Musterstadt","stadium": "Imago","anzahl": 2,"pruefung": "Insekten Sachsen"},{"art": {"ordnung": "Schmetterlinge","familie": "Weißlinge","nameDeutsch": "Kleiner Kohlweißling","name": "Pieris rapae"},"datum": "2014-09-02","beobachter": "Maria Muster","lat": 50.8087009740952,"lon": 5.657893369239214,"fundort": "Musterstadt","stadium": "Imago","anzahl": 1,"pruefung": "iNaturalist"},{"art": {"ordnung": "Schnabelkerfe","familie": "Randwanzen","nameDeutsch": "Lederwanze","name": "Coreus marginatus"},"datum": "2014-09-05","beobachter": "Max Mustermann","lat": 51.16103125657037,"lon": 13.97053326193483,"fundort": "Musterstadt","stadium": "Imago","anzahl": 1,"pruefung": "Insekten Sachsen"},{"art": {"ordnung": "Libellen","familie": "Segellibellen","nameDeutsch": "Gemeine Heidelibelle","name": "Sympetrum vulgatum"},"datum": "2014-12-20","beobachter": "Max Mustermann","lat": 51.73829531957989,"lon": 14.34604131912327,"fundort": "Musterstadt","stadium": "Imago","anzahl": 1,"pruefung": "Insekten Sachsen"},{"art": {"ordnung": "Käfer","familie": "Weichkäfer","nameDeutsch": "Gemeiner Weichkäfer","name": "Cantharis fusca"},"datum": "2017-10-29","beobachter": "Max Mustermann","lat": 51.0525030190235,"lon": 13.7589120863313,"fundort": "Musterstadt","stadium": "Imago","anzahl": 1,"pruefung": "Insekten Sachsen"},{"art": {"ordnung": "Hautflügler","familie": "Echte Bienen","nameDeutsch": "Ackerhummel","name": "Bombus pascuorum"},"datum": "2014-03-25","beobachter": "Max Mustermann","lat": 51.14510199560778,"lon": 14.039552721155998,"fundort": "Musterstadt","stadium": "Imago","anzahl": 1,"pruefung": "Insekten Sachsen"},{"art": {"ordnung": "Käfer","familie": "Laufkäfer","nameDeutsch": "Goldlaufkäfer","name": "Carabus auratus"},"datum": "2012-03-23","beobachter": "Max Mustermann","lat": 51.16273810338629,"lon": 13.980596724605657,"fundort": "Musterstadt","stadium": "Imago","anzahl": 1,"pruefung": "Insekten Sachsen"},{"art": {"ordnung": "Zweiflügler","familie": "Schwebfliegen","nameDeutsch": "Hainschwebfliege","name": "Episyrphus balteatus"},"datum": "2021-03-14","beobachter": "Max Mustermann","lat": 50.845583129122524,"lon": 5.666754139705969,"fundort": "Musterstadt","stadium": "Imago","anzahl": 1,"pruefung": "iNaturalist"},{"art": {"ordnung": "Zweiflügler","familie": "Schwebfliegen","nameDeutsch": "Große Sumpfschwebfliege","name": "Helophilus trivittatus"},"datum": "2017-09-30","beobachter": "Maria Muster","lat": 50.8319268941788,"lon": 5.659165863913729,"fundort": "Musterstadt","stadium": "Imago","anzahl": 1,"pruefung": "iNaturalist"},{"art": {"ordnung": "Schmetterlinge","familie": "Edelfalter","nameDeutsch": "Waldbrettspiel","name": "Pararge aegeria"},"datum": "2019-06-23","beobachter": "Max Mustermann","lat": 50.86470189777353,"lon": 5.621112895920345,"fundort": "Musterstadt","stadium": "Imago","anzahl": 1,"pruefung": "iNaturalist"},{"art": {"ordnung": "Libellen","familie": "Schlanklibellen","nameDeutsch": "Hufeisen-Azurjungfer","name": "Coenagrion puella"},"datum": "2016-01-02","beobachter": "Maria Muster","lat": 50.852142320324155,"lon": 5.623185353099407,"fundort": "Musterstadt","stadium": "Imago","anzahl": 1,"pruefung": "iNaturalist"},{"art": {"ordnung": "Schnabelkerfe","familie": "Weichwanzen","nameDeutsch": "Rote Weichwanze","name": "Deraeocoris ruber"},"datum": "2015-01-30","beobachter": "Max Mustermann","lat": 51.793090240645014,"lon": 14.36781081098087,"fundort": "Musterstadt","stadium": "Imago","anzahl": 1,"pruefung": "Insekten Sachsen"},{"art": {"ordnung": "Schmetterlinge","familie": "Edelfalter","nameDeutsch": "Admiral","name": "Vanessa atalanta"},"datum": "2019-11-28","beobachter": "Max Mustermann","lat": 51.15225184617544,"lon": 13.994792123624944,"fundort": "Musterstadt","stadium": "Imago","anzahl": 5,"pruefung": "Insekten Sachsen"},{"art": {"ordnung": "Schmetterlinge","familie": "Weißlinge","nameDeutsch": "Zitronenfalter","name": "Gonepteryx rhamni"},"datum": "2017-03-16","beobachter": "Maria Muster","lat": 51.17370678692784,"lon": 13.996978607354993,"fundort": "Musterstadt","stadium": "Imago","anzahl": 1,"pruefung": "Insekten Sachsen"},{"art": {"ordnung": "Käfer","familie": "Blattkäfer","nameDeutsch": "Prächtiger Blattkäfer","name": "Chrysolina fastuosa"},"datum": "2021-04-28","beobachter": "Maria Muster","lat": 51.175170030213415,"lon": 13.714252777879762,"fundort": "Musterstadt","stadium": "Imago","anzahl": 1,"pruefung": "Insekten Sachsen"},{"art": {"ordnung": "Libellen","familie": "Segellibellen","nameDeutsch": "Blutrote Heidelibelle","name": "Sympetrum sanguineum"},"datum": "2016-06-17","beobachter": "Max Mustermann","lat": 51.18033496230922,"lon": 13.709468127985827,"fundort": "Musterstadt","stadium": "Imago","anzahl": 1,"pruefung": "Insekten Sachsen"},{"art": {"ordnung": "Schmetterlinge","familie": "Edelfalter","nameDeutsch": "Tagpfauenauge","name": "Aglais io"},"datum": "2019-11-13","beobachter": "Maria Muster","lat": 54.33789905690965,"lon": 12.413085688352375,"fundort": "Musterstadt","stadium": "Imago","anzahl": 1,"pruefung": "iNaturalist"},{"art": {"ordnung": "Käfer","familie": "Blatthornkäfer","nameDeutsch": "Kupfer-Rosenkäfer","name": "Protaetia cuprea"},"datum": "2015-03-27","beobachter": "Max Mustermann","lat": 51.7929921388288,"lon": 14.351370324860873,"fundort": "Musterstadt","stadium": "Imago","anzahl": 1,"pruefung": "Insekten Sachsen"},{"art": {"ordnung": "Libellen","familie": "Prachtlibellen","nameDeutsch": "Gebänderte Prachtlibelle","name": "Calopteryx splendens"},"datum": "2015-02-24","beobachter": "Max Mustermann","lat": 51.77343274819863,"lon": 14.374360001825782,"fundort": "Musterstadt","stadium": "Imago","anzahl": 10,"pruefung": "Insekten Sachsen"},{"art": {"ordnung": "Käfer","familie": "Blatthornkäfer","nameDeutsch": "Gartenlaubkäfer","name": "Phyllopertha horticola"},"datum": "2018-10-10","beobachter": "Max Mustermann","lat": 51.778193691384104,"lon": 14.347400045201477,"fundort": "Musterstadt","stadium": "Imago","anzahl": 1,"pruefung": "Insekten Sachsen"},{"art": {"ordnung": "Libellen","familie": "Prachtlibellen","nameDeutsch": "Gebänderte Prachtlibelle","name": "Calopteryx splendens"},"datum": "2012-07-10","beobachter": "Max Mustermann","lat": 51.780323970191084,"lon": 14.339378415874299,"fundort": "Musterstadt","stadium": "Imago","anzahl": 1,"pruefung": "Insekten Sachsen"},{"art": {"ordnung": "Schmetterlinge","familie": "Edelfalter","nameDeutsch": "Tagpfauenauge","name": "Aglais io"},"datum": "2019-09-07","beobachter": "Max Mustermann","lat": 51.180658078379324,"lon": 13.946071152303,"fundort": "Musterstadt","stadium": "Imago","anzahl": 1,"pruefung": "Insekten Sachsen"},{"art": {"ordnung": "Schmetterlinge","familie": "Eulenfalter","nameDeutsch": "Schlehen-Bürstenspinner","name": "Orgyia antiqua"},"datum": "2015-12-29","beobachter": "Max Mustermann","lat": 51.15185299411719,"lon": 13.978336742329985,"fundort": "Musterstadt","stadium": "Larve","anzahl": 1,"pruefung": "Insekten Sachsen"},{"art": {"ordnung": "Käfer","familie": "Bockkäfer","nameDeutsch": "Sägebock","name": "Prionus coriarius"},"datum": "2013-12-04","beobachter": "Maria Muster","lat": 51.10698766484718,"lon": 13.7005672934309,"fundort": "Musterstadt","stadium": "Imago","anzahl": 1,"pruefung": "Insekten Sachsen"},{"art": {"ordnung": "Schmetterlinge","familie": "Edelfalter","nameDeutsch": "Großes Ochsenauge","name": "Maniola jurtina"},"datum": "2015-02-11","beobachter": "Max Mustermann","lat": 51.151528661208424,"lon": 13.994529445644451,"fundort": "Musterstadt","stadium": "Imago","anzahl": 1,"pruefung": "Insekten Sachsen"},{"art": {"ordnung": "Schmetterlinge","familie": "Weißlinge","nameDeutsch": "Zitronenfalter","name": "Gonepteryx rhamni"},"datum": "2014-07-05","beobachter": "Maria Muster","lat": 51.18268091255411,"lon": 13.968842820493617,"fundort": "Musterstadt","stadium": "Imago","anzahl": 3,"pruefung": "Insekten Sachsen"},{"art": {"ordnung": "Libellen","familie": "Segellibellen","nameDeutsch": "Plattbauch","name": "Libellula depressa"},"datum": "2018-04-05","beobachter": "Max Mustermann","lat": 51.1669971576021,"lon": 14.05043776866798,"fundort": "Musterstadt","stadium": "Imago","anzahl": 1,"pruefung": "Insekten Sachsen"},{"art": {"ordnung": "Käfer","familie": "Blattkäfer","nameDeutsch": "Kartoffelkäfer","name": "Leptinotarsa decemlineata"},"datum": "2013-01-20","beobachter": "Maria Muster","lat": 51.178237067827176,"lon": 13.977254908748188,"fundort": "Musterstadt","stadium": "Imago","anzahl": 1,"pruefung": "Insekten Sachsen"},{"art": {"ordnung": "Schmetterlinge","familie": "Eulenfalter","nameDeutsch": "Ahorneule","name": "Acronicta aceris"},"datum": "2015-11-10","beobachter": "Maria Muster","lat": 51.191540582412536,"lon": 13.954075546653483,"fundort": "Musterstadt","stadium": "Larve","anzahl": 1,"pruefung": "Insekten Sachsen"},{"art": {"ordnung": "Schmetterlinge","familie": "Edelfalter","nameDeutsch": "Kaisermantel","name": "Argynnis paphia"},"datum": "2014-12-15","beobachter": "Max Mustermann","lat": 55.821335091558545,"lon": 11.53913957016611,"fundort": "Musterstadt","stadium": "Imago","anzahl": 1,"pruefung": "iNaturalist"},{"art": {"ordnung": "Schnabelkerfe","familie": "Randwanzen","nameDeutsch": "Amerikanische Zapfenwanze","name": "Leptoglossus occidentalis"},"datum": "2020-10-06","beobachter": "Maria Muster","lat": 51.18508205816949,"lon": 13.959815621967367,"fundort": "Musterstadt","stadium": "Imago","anzahl": 1,"pruefung": "Insekten Sachsen"},{"art": {"ordnung": "Käfer","familie": "Rüsselkäfer","nameDeutsch": "Großer Lupinen-Blattrandrüssler","name": "Sitona gressorius"},"datum": "2013-11-14","beobachter": "Max Mustermann","lat": 51.184645134895604,"lon": 13.980823728334252,"fundort": "Musterstadt","stadium": "Imago","anzahl": 1,"pruefung": "Insekten Sachsen"},{"art": {"ordnung": "Schnabelkerfe","familie": "Feuerwanzen","nameDeutsch": "Feuerwanze","name": "Pyrrhocoris apterus"},"datum": "2013-03-12","beobachter": "Max Mustermann","lat": 51.17550341309703,"lon": 13.972695977630188,"fundort": "Musterstadt","stadium": "Imago","anzahl": 2,"pruefung": "Insekten Sachsen"},{"art": {"ordnung": "Käfer","familie": "Speckkäfer","nameDeutsch": "Wollkrautblütenkäfer","name": "Anthrenus verbasci"},"datum": "2012-07-20","beobachter": "Maria Muster","lat": 51.210047883006354,"lon": 13.924171683498198,"fundort": "Musterstadt","stadium": "Imago","anzahl": 1,"pruefung": "Insekten Sachsen"},{"art": {"ordnung": "Käfer","familie": "Laufkäfer","nameDeutsch": "Körniger Laufkäfer","name": "Carabus granulatus"},"datum": "2021-04-27","beobachter": "Maria Muster","lat": 51.164611817425495,"lon": 13.950485093034253,"fundort": "Musterstadt","stadium": "Imago","anzahl": 1,"pruefung": "Insekten Sachsen"},{"art": {"ordnung": "Käfer","familie": "Rüsselkäfer","nameDeutsch": "Gefurchter Lappenrüssler","name": "Otiorhynchus sulcatus"},"datum": "2014-04-06","beobachter": "Max Mustermann","lat": 51.176673597034124,"lon": 13.969498636198214,"fundort": "Musterstadt","stadium": "Imago","anzahl": 1,"pruefung": "Insekten Sachsen"},{"art": {"ordnung": "Schnabelkerfe","familie": "Baumwanzen","nameDeutsch": "Gartenwanze","name": "Rhaphigaster nebulosa"},"datum": "2014-06-25","beobachter": "Max Mustermann","lat": 51.180608367181584,"lon": 13.812992809929709,"fundort": "Musterstadt","stadium": "Imago","anzahl": 1,"pruefung": "Insekten Sachsen"},{"art": {"ordnung": "Zweiflügler","familie": "Wollschweber","nameDeutsch": "Großer Wollschweber","name": "Bombylius major"},"datum": "2019-12-11","beobachter": "Maria Muster","lat": 51.17802626614666,"lon": 13.992693875633991,"fundort": "Musterstadt","stadium": "Imago","anzahl": 1,"pruefung": "Insekten Sachsen"},{"art": {"ordnung": "Zweiflügler","familie": "Wollschweber","nameDeutsch": "Großer Wollschweber","name": "Bombylius major"},"datum": "2014-07-30","beobachter": "Max Mustermann","lat": 51.15697948876389,"lon": 14.005517163907655,"fundort": "Musterstadt","stadium": "Imago","anzahl": 1,"pruefung": "Insekten Sachsen"},{"art": {"ordnung": "Käfer","familie": "Blatthornkäfer","nameDeutsch": "Goldglänzender Rosenkäfer","name": "Cetonia aurata"},"datum": "2020-08-01","beobachter": "Max Mustermann","lat": 51.19723686506928,"lon": 14.074748666593281,"fundort": "Musterstadt","stadium": "Imago","anzahl": 1,"pruefung": "Insekten Sachsen"},{"art": {"ordnung": "Käfer","familie": "Blattkäfer","nameDeutsch": "Violetter Gundermann-Blattkäfer","name": "Chrysolina sturmi"},"datum": "2019-05-09","beobachter": "Max Mustermann","lat": 51.158618531128525,"lon": 13.994304114038208,"fundort": "Musterstadt","stadium": "Imago","anzahl": 1,"pruefung": "Insekten Sachsen"},{"art": {"ordnung": "Heuschrecken","familie": "Feldheuschrecken","nameDeutsch": "Ägyptische Wanderheuschrecke","name": "Anacridium aegyptium"},"datum": "2019-12-19","beobachter": "Max Mustermann","lat": 39.585198704852566,"lon": 3.3909572095235756,"fundort": "Musterstadt","stadium": "Imago","anzahl": 1,"pruefung": "iNaturalist"},{"art": {"ordnung": "Hautflügler","familie": "Dolchwespen","nameDeutsch": "Megascolia bidens","name": "Megascolia bidens"},"datum": "2017-04-25","beobachter": "Max Mustermann","lat": 39.559632603619086,"lon": 3.4060668508825023,"fundort": "Musterstadt","stadium": "Imago","anzahl": 1,"pruefung": "iNaturalist"},{"art": {"ordnung": "Schmetterlinge","familie": "Crambidae","nameDeutsch": "Buchsbaumzünsler","name": "Cydalima perspectalis"},"datum": "2012-02-04","beobachter": "Max Mustermann","lat": 51.09146538636315,"lon": 13.722842217299624,"fundort": "Musterstadt","stadium": "Imago","anzahl": 1,"pruefung": "Insekten Sachsen"},{"art": {"ordnung": "Käfer","familie": "Marienkäfer","nameDeutsch": "Asiatischer Marienkäfer","name": "Harmonia axyridis"},"datum": "2011-06-16","beobachter": "Maria Muster","lat": 51.16668226607912,"lon": 13.965939427857615,"fundort": "Musterstadt","stadium": "Larve","anzahl": 6,"pruefung": "Insekten Sachsen"},{"art": {"ordnung": "Schmetterlinge","familie": "Weißlinge","nameDeutsch": "Grünaderweißling","name": "Pieris napi"},"datum": "2014-06-19","beobachter": "Maria Muster","lat": 51.18584803537437,"lon": 13.92835500869433,"fundort": "Musterstadt","stadium": "Imago","anzahl": 1,"pruefung": "Insekten Sachsen"},{"art": {"ordnung": "Schmetterlinge","familie": "Weißlinge","nameDeutsch": "Zitronenfalter","name": "Gonepteryx rhamni"},"datum": "2013-07-03","beobachter": "Maria Muster","lat": 51.166934044958865,"lon": 13.9787969215609,"fundort": "Musterstadt","stadium": "Imago","anzahl": 3,"pruefung": "Insekten Sachsen"},{"art": {"ordnung": "Schmetterlinge","familie": "Eulenfalter","nameDeutsch": "Ahorneule","name": "Acronicta aceris"},"datum": "2016-03-05","beobachter": "Maria Muster","lat": 51.19067833151569,"lon": 13.953515816285925,"fundort": "Musterstadt","stadium": "Imago","anzahl": 1,"pruefung": "Insekten Sachsen"},{"art": {"ordnung": "Schmetterlinge","familie": "Eulenfalter","nameDeutsch": "Gelbe Tigermotte","name": "Spilosoma lutea"},"datum": "2018-05-03","beobachter": "Maria Muster","lat": 51.204206830587374,"lon": 13.95159502339631,"fundort": "Musterstadt","stadium": "Imago","anzahl": 1,"pruefung": "Insekten Sachsen"},{"art": {"ordnung": "Schmetterlinge","familie": "Ritterfalter","nameDeutsch": "Schwalbenschwanz","name": "Papilio machaon"},"datum": "2014-08-14","beobachter": "Max Mustermann","lat": 51.18234058170216,"lon": 14.06481518618967,"fundort": "Musterstadt","stadium": "Larve","anzahl": 1,"pruefung": "Insekten Sachsen"},{"art": {"ordnung": "Schmetterlinge","familie": "Eulenfalter","nameDeutsch": "Zaunwinden-Trauereule","name": "Aedia funesta"},"datum": "2018-12-14","beobachter": "Maria Muster","lat": 51.19113363630801,"lon": 13.956081143960356,"fundort": "Musterstadt","stadium": "Imago","anzahl": 1,"pruefung": "Insekten Sachsen"},{"art": {"ordnung": "Schmetterlinge","familie": "Edelfalter","nameDeutsch": "Schornsteinfeger","name": "Aphantopus hyperantus"},"datum": "2017-05-13","beobachter": "Max Mustermann","lat": 51.19302740711621,"lon": 13.982945323023275,"fundort": "Musterstadt","stadium": "Imago","anzahl": 1,"pruefung": "Insekten Sachsen"},{"art": {"ordnung": "Schmetterlinge","familie": "Dickkopffalter","nameDeutsch": "Schwarzkolbiger Braundickkopf","name": "Thymelicus lineola"},"datum": "2020-09-11","beobachter": "Maria Muster","lat": 51.207988503805716,"lon": 13.95584132957572,"fundort": "Musterstadt","stadium": "Imago","anzahl": 1,"pruefung": "Insekten Sachsen"},{"art": {"ordnung": "Schmetterlinge","familie": "Eulenfalter","nameDeutsch": "Braune Tageule","name": "Euclidia glyphica"},"datum": "2017-09-12","beobachter": "Max Mustermann","lat": 51.18168417880235,"lon": 13.956118300535321,"fundort": "Musterstadt","stadium": "Imago","anzahl": 1,"pruefung": "Insekten Sachsen"},{"art": {"ordnung": "Schnabelfliegen","familie": "Skorpionsfliegen","nameDeutsch": "Weiden-Skorpionsfliege","name": "Panorpa vulgaris"},"datum": "2018-12-21","beobachter": "Maria Muster","lat": 51.19148175702602,"lon": 13.94220811797132,"fundort": "Musterstadt","stadium": "Imago","anzahl": 1,"pruefung": "Insekten Sachsen"},{"art": {"ordnung": "Schnabelkerfe","familie": "Zwergzikaden","nameDeutsch": "Rhododendronzikade","name": "Graphocephala fennahi"},"datum": "2016-09-23","beobachter": "Maria Muster","lat": 51.180606996441185,"lon": 13.985312211890333,"fundort": "Musterstadt","stadium": "Imago","anzahl": 11,"pruefung": "Insekten Sachsen"},{"art": {"ordnung": "Netzflügler","familie": "Taghafte","nameDeutsch": "Totes Blatt","name": "Drepanepteryx phalaenoides"},"datum": "2012-07-30","beobachter": "Max Mustermann","lat": 51.15974412403741,"lon": 13.99791421668487,"fundort": "Musterstadt","stadium": "Imago","anzahl": 1,"pruefung": "Insekten Sachsen"},{"art": {"ordnung": "Schmetterlinge","familie": "Weißlinge","nameDeutsch": "Großer Kohlweißling","name": "Pieris brassicae"},"datum": "2015-05-23","beobachter": "Max Mustermann","lat": 51.17235206642907,"lon": 13.954958106693514,"fundort": "Musterstadt","stadium": "Imago","anzahl": 1,"pruefung": "Insekten Sachsen"},{"art": {"ordnung": "Hautflügler","familie": "Echte Bienen","nameDeutsch": "Ackerhummel","name": "Bombus pascuorum"},"datum": "2021-04-28","beobachter": "Max Mustermann","lat": 51.17922106612041,"lon": 13.96104524025851,"fundort": "Musterstadt","stadium": "Imago","anzahl": 1,"pruefung": "Insekten Sachsen"},{"art": {"ordnung": "Schmetterlinge","familie": "Schwärmer","nameDeutsch": "Hummelschwärmer","name": "Hemaris fuciformis"},"datum": "2019-02-11","beobachter": "Max Mustermann","lat": 51.151112672843595,"lon": 13.993606009858572,"fundort": "Musterstadt","stadium": "Imago","anzahl": 1,"pruefung": "Insekten Sachsen"},{"art": {"ordnung": "Schmetterlinge","familie": "Edelfalter","nameDeutsch": "Schornsteinfeger","name": "Aphantopus hyperantus"},"datum": "2018-10-15","beobachter": "Max Mustermann","lat": 51.189816381606256,"lon": 13.97557102451565,"fundort": "Musterstadt","stadium": "Imago","anzahl": 1,"pruefung": "Insekten Sachsen"},{"art": {"ordnung": "Schmetterlinge","familie": "Eulenfalter","nameDeutsch": "Schwammspinner","name": "Lymantria dispar"},"datum": "2016-06-22","beobachter": "Max Mustermann","lat": 51.15659745844951,"lon": 13.890450503761418,"fundort": "Musterstadt","stadium": "Puppe","anzahl": 1,"pruefung": "Insekten Sachsen"},{"art": {"ordnung": "Schmetterlinge","familie": "Edelfalter","nameDeutsch": "Kleiner Perlmuttfalter","name": "Issoria lathonia"},"datum": "2016-11-04","beobachter": "Maria Muster","lat": 51.79909721836996,"lon": 14.372583550661579,"fundort": "Musterstadt","stadium": "Imago","anzahl": 1,"pruefung": "Insekten Sachsen"},{"art": {"ordnung": "Schmetterlinge","familie": "Ritterfalter","nameDeutsch": "Segelfalter","name": "Iphiclides podalirius"},"datum": "2018-02-20","beobachter": "Max Mustermann","lat": 51.78746944162222,"lon": 14.3425013024257,"fundort": "Musterstadt","stadium": "Imago","anzahl": 1,"pruefung": "Insekten Sachsen"},{"art": {"ordnung": "Schmetterlinge","familie": "Edelfalter","nameDeutsch": "Kleiner Perlmuttfalter","name": "Issoria lathonia"},"datum": "2012-12-17","beobachter": "Maria Muster","lat": 51.8010339677589,"lon": 14.356618617506353,"fundort": "Musterstadt","stadium": "Imago","anzahl": 1,"pruefung": "Insekten Sachsen"},{"art": {"ordnung": "Schmetterlinge","familie": "Edelfalter","nameDeutsch": "Großes Ochsenauge","name": "Maniola jurtina"},"datum": "2015-12-09","beobachter": "Maria Muster","lat": 51.80049630194305,"lon": 14.349464024786243,"fundort": "Musterstadt","stadium": "Imago","anzahl": 1,"pruefung": "Insekten Sachsen"},{"art": {"ordnung": "Schmetterlinge","familie": "Bläulinge","nameDeutsch": "Kleiner Feuerfalter","name": "Lycaena phlaeas"},"datum": "2012-07-09","beobachter": "Maria Muster","lat": 51.78569303977339,"lon": 14.356525416572511,"fundort": "Musterstadt","stadium": "Imago","anzahl": 1,"pruefung": "Insekten Sachsen"},{"art": {"ordnung": "Käfer","familie": "Scheinbockkäfer","nameDeutsch": "Chrysanthia geniculata","name": "Chrysanthia geniculata"},"datum": "2015-05-02","beobachter": "Max Mustermann","lat": 51.773254856086176,"lon": 14.378259066156152,"fundort": "Musterstadt","stadium": "Imago","anzahl": 1,"pruefung": "Insekten Sachsen"},{"art": {"ordnung": "Schmetterlinge","familie": "Spanner","nameDeutsch": "Dunkelbrauner Haarbüschelspanner","name": "Eulithis prunata"},"datum": "2016-10-28","beobachter": "Maria Muster","lat": 51.20057873685753,"lon": 13.941007684028708,"fundort": "Musterstadt","stadium": "Imago","anzahl": 1,"pruefung": "Insekten Sachsen"},{"art": {"ordnung": "Schmetterlinge","familie": "Edelfalter","nameDeutsch": "Kaisermantel","name": "Argynnis paphia"},"datum": "2017-04-16","beobachter": "Maria Muster","lat": 51.1901991541506,"lon": 13.957514478936263,"fundort": "Musterstadt","stadium": "Imago","anzahl": 1,"pruefung": "Insekten Sachsen"},{"art": {"ordnung": "Schmetterlinge","familie": "Schwärmer","nameDeutsch": "Taubenschwänzchen","name": "Macroglossum stellatarum"},"datum": "2020-09-04","beobachter": "Maria Muster","lat": 51.19225379874812,"lon": 13.96671479882982,"fundort": "Musterstadt","stadium": "Imago","anzahl": 2,"pruefung": "Insekten Sachsen"},{"art": {"ordnung": "Schmetterlinge","familie": "Eulenfalter","nameDeutsch": "Schwammspinner","name": "Lymantria dispar"},"datum": "2020-01-06","beobachter": "Maria Muster","lat": 51.170966362625585,"lon": 13.981609566669984,"fundort": "Musterstadt","stadium": "Imago","anzahl": 3,"pruefung": "Insekten Sachsen"},{"art": {"ordnung": "Schmetterlinge","familie": "Weißlinge","nameDeutsch": "Zitronenfalter","name": "Gonepteryx rhamni"},"datum": "2020-11-25","beobachter": "Maria Muster","lat": 51.2163530516225,"lon": 14.004138166700637,"fundort": "Musterstadt","stadium": "Imago","anzahl": 1,"pruefung": "Insekten Sachsen"},{"art": {"ordnung": "Schmetterlinge","familie": "Eulenfalter","nameDeutsch": "Schattenmönch","name": "Cucullia umbratica"},"datum": "2018-09-05","beobachter": "Max Mustermann","lat": 51.188967408432546,"lon": 13.979448770736449,"fundort": "Musterstadt","stadium": "Imago","anzahl": 1,"pruefung": "Insekten Sachsen"},{"art": {"ordnung": "Schmetterlinge","familie": "Edelfalter","nameDeutsch": "Distelfalter","name": "Vanessa cardui"},"datum": "2019-02-18","beobachter": "Max Mustermann","lat": 51.16976438503012,"lon": 13.977559859409132,"fundort": "Musterstadt","stadium": "Imago","anzahl": 3,"pruefung": "Insekten Sachsen"},{"art": {"ordnung": "Schmetterlinge","familie": "Edelfalter","nameDeutsch": "Admiral","name": "Vanessa atalanta"},"datum": "2012-08-11","beobachter": "Max Mustermann","lat": 51.15200078009405,"lon": 13.992273891832033,"fundort": "Musterstadt","stadium": "Imago","anzahl": 3,"pruefung": "Insekten Sachsen"},{"art": {"ordnung": "Schmetterlinge","familie": "Edelfalter","nameDeutsch": "Kaisermantel","name": "Argynnis paphia"},"datum": "2014-01-15","beobachter": "Max Mustermann","lat": 51.164857013363346,"lon": 13.955527500677858,"fundort": "Musterstadt","stadium": "Imago","anzahl": 1,"pruefung": "Insekten Sachsen"},{"art": {"ordnung": "Schmetterlinge","familie": "Edelfalter","nameDeutsch": "Mauerfuchs","name": "Lasiommata megera"},"datum": "2013-10-24","beobachter": "Maria Muster","lat": 51.160503236546205,"lon": 13.985428459465359,"fundort": "Musterstadt","stadium": "Imago","anzahl": 1,"pruefung": "Insekten Sachsen"},{"art": {"ordnung": "Schmetterlinge","familie": "Edelfalter","nameDeutsch": "Mauerfuchs","name": "Lasiommata megera"},"datum": "2020-04-27","beobachter": "Maria Muster","lat": 51.1902655962419,"lon": 13.961250740047968,"fundort": "Musterstadt","stadium": "Imago","anzahl": 1,"pruefung": "Insekten Sachsen"},{"art": {"ordnung": "Schmetterlinge","familie": "Edelfalter","nameDeutsch": "Distelfalter","name": "Vanessa cardui"},"datum": "2014-06-02","beobachter": "Max Mustermann","lat": 51.168438217262086,"lon": 13.980530651010929,"fundort": "Musterstadt","stadium": "Imago","anzahl": 1,"pruefung": "Insekten Sachsen"},{"art": {"ordnung": "Schnabelkerfe","familie": "Baumwanzen","nameDeutsch": "Spitzling","name": "Aelia acuminata"},"datum": "2016-12-07","beobachter": "Max Mustermann","lat": 51.179877436063826,"lon": 13.96909825213385,"fundort": "Musterstadt","stadium": "Imago","anzahl": 1,"pruefung": "Insekten Sachsen"},{"art": {"ordnung": "Schmetterlinge","familie": "Eulenfalter","nameDeutsch": "Pappelkarmin","name": "Catocala elocata"},"datum": "2011-12-06","beobachter": "Max Mustermann","lat": 51.09603570795853,"lon": 13.718714193266948,"fundort": "Musterstadt","stadium": "Imago","anzahl": 1,"pruefung": "Insekten Sachsen"},{"art": {"ordnung": "Schmetterlinge","familie": "Eulenfalter","nameDeutsch": "Wintersaateule","name": "Agrotis segetum"},"datum": "2013-12-20","beobachter": "Maria Muster","lat": 51.20155302006424,"lon": 13.787155509480984,"fundort": "Musterstadt","stadium": "Imago","anzahl": 1,"pruefung": "Insekten Sachsen"},{"art": {"ordnung": "Schmetterlinge","familie": "Schwärmer","nameDeutsch": "Labkrautschwärmer","name": "Hyles gallii"},"datum": "2018-10-17","beobachter": "Maria Muster","lat": 51.17988009399795,"lon": 13.957651347337285,"fundort": "Musterstadt","stadium": "Imago","anzahl": 1,"pruefung": "Insekten Sachsen"},{"art": {"ordnung": "Schmetterlinge","familie": "Spanner","nameDeutsch": "Ockergelber Blattspanner","name": "Camptogramma bilineata"},"datum": "2018-04-21","beobachter": "Max Mustermann","lat": 51.16949481840822,"lon": 13.983915262478714,"fundort": "Musterstadt","stadium": "Imago","anzahl": 1,"pruefung": "Insekten Sachsen"},{"art": {"ordnung": "Heuschrecken","familie": "Tettigoniidae","nameDeutsch": "Gewöhnliche Strauchschrecke","name": "Pholidoptera griseoaptera"},"datum": "2019-04-10","beobachter": "Max Mustermann","lat": 51.18155053064144,"lon": 13.976584124388957,"fundort": "Musterstadt","stadium": "Imago","anzahl": 1,"pruefung": "Insekten Sachsen"},{"art": {"ordnung": "Schmetterlinge","familie": "Spanner","nameDeutsch": "Garten-Blattspanner","name": "Xanthorhoe fluctuata"},"datum": "2012-10-17","beobachter": "Max Mustermann","lat": 51.17611342711104,"lon": 13.983123777556724,"fundort": "Musterstadt","stadium": "Imago","anzahl": 1,"pruefung": "Insekten Sachsen"},{"art": {"ordnung": "Schmetterlinge","familie": "Wurzelbohrer","nameDeutsch": "Ampfer-Wurzelbohrer ","name": "Triodia sylvina"},"datum": "2012-09-03","beobachter": "Maria Muster","lat": 51.189289571621934,"lon": 13.959692572124318,"fundort": "Musterstadt","stadium": "Imago","anzahl": 1,"pruefung": "Insekten Sachsen"},{"art": {"ordnung": "Schmetterlinge","familie": "Ritterfalter","nameDeutsch": "Schwalbenschwanz","name": "Papilio machaon"},"datum": "2019-06-21","beobachter": "Max Mustermann","lat": 51.78297074732602,"lon": 14.347558570871998,"fundort": "Musterstadt","stadium": "Larve","anzahl": 1,"pruefung": "Insekten Sachsen"},{"art": {"ordnung": "Schnabelkerfe","familie": "Sichelwanzen","nameDeutsch": "Himacerus mirmicoides","name": "Himacerus mirmicoides"},"datum": "2015-11-21","beobachter": "Maria Muster","lat": 51.20268099697003,"lon": 14.029496597263712,"fundort": "Musterstadt","stadium": "Imago","anzahl": 1,"pruefung": "Insekten Sachsen"},{"art": {"ordnung": "Schmetterlinge","familie": "Eulenfalter","nameDeutsch": "Kohleule","name": "Mamestra brassicae"},"datum": "2020-10-15","beobachter": "Maria Muster","lat": 51.77311567931589,"lon": 14.353705008541803,"fundort": "Musterstadt","stadium": "Larve","anzahl": 1,"pruefung": "Insekten Sachsen"},{"art": {"ordnung": "Schnabelkerfe","familie": "Rhyparochromidae","nameDeutsch": "Gemeine Bodenwanze","name": "Rhyparochromus vulgaris"},"datum": "2019-08-22","beobachter": "Maria Muster","lat": 51.20346433876891,"lon": 13.941829724541423,"fundort": "Musterstadt","stadium": "Imago","anzahl": 6,"pruefung": "Insekten Sachsen"},{"art": {"ordnung": "Schmetterlinge","familie": "Spanner","nameDeutsch": "Grauer Zwergspanner","name": "Idaea seriata"},"datum": "2019-10-01","beobachter": "Maria Muster","lat": 51.18265321428495,"lon": 13.98139458738162,"fundort": "Musterstadt","stadium": "Imago","anzahl": 1,"pruefung": "Insekten Sachsen"},{"art": {"ordnung": "Schnabelkerfe","familie": "Randwanzen","nameDeutsch": "Amerikanische Zapfenwanze","name": "Leptoglossus occidentalis"},"datum": "2013-10-20","beobachter": "Max Mustermann","lat": 51.17518064578209,"lon": 13.951927761288122,"fundort": "Musterstadt","stadium": "Imago","anzahl": 1,"pruefung": "Insekten Sachsen"},{"art": {"ordnung": "Schmetterlinge","familie": "Federmotten","nameDeutsch": "Windengeistchen","name": "Emmelina monodactyla"},"datum": "2018-05-06","beobachter": "Max Mustermann","lat": 51.178573649141185,"lon": 13.967391515247218,"fundort": "Musterstadt","stadium": "Imago","anzahl": 1,"pruefung": "Insekten Sachsen"},{"art": {"ordnung": "Käfer","familie": "Speckkäfer","nameDeutsch": "Wollkrautblütenkäfer","name": "Anthrenus verbasci"},"datum": "2012-04-11","beobachter": "Maria Muster","lat": 51.175817107476746,"lon": 13.994590753116263,"fundort": "Musterstadt","stadium": "Imago","anzahl": 1,"pruefung": "Insekten Sachsen"},{"art": {"ordnung": "Käfer","familie": "Marienkäfer","nameDeutsch": "Asiatischer Marienkäfer","name": "Harmonia axyridis"},"datum": "2016-04-29","beobachter": "Maria Muster","lat": 51.17333593777152,"lon": 13.973850629501865,"fundort": "Musterstadt","stadium": "Imago","anzahl": 1,"pruefung": "Insekten Sachsen"},{"art": {"ordnung": "Schmetterlinge","familie": "Spanner","nameDeutsch": "Großes Jungfernkind","name": "Archiearis parthenias"},"datum": "2011-09-20","beobachter": "Maria Muster","lat": 51.177546070476794,"lon": 13.737444222268591,"fundort": "Musterstadt","stadium": "Imago","anzahl": 1,"pruefung": "Insekten Sachsen"},{"art": {"ordnung": "Schnabelkerfe","familie": "Feuerwanzen","nameDeutsch": "Feuerwanze","name": "Pyrrhocoris apterus"},"datum": "2019-01-03","beobachter": "Max Mustermann","lat": 51.07920789284416,"lon": 13.933498139895203,"fundort": "Musterstadt","stadium": "Imago","anzahl": 1,"pruefung": "Insekten Sachsen"},{"art": {"ordnung": "Schnabelkerfe","familie": "Feuerwanzen","nameDeutsch": "Feuerwanze","name": "Pyrrhocoris apterus"},"datum": "2014-03-10","beobachter": "Maria Muster","lat": 51.18909881976965,"lon": 13.811877838581589,"fundort": "Musterstadt","stadium": "Imago","anzahl": 3,"pruefung": "Insekten Sachsen"},{"art": {"ordnung": "Schnabelkerfe","familie": "Baumwanzen","nameDeutsch": "Gartenwanze","name": "Rhaphigaster nebulosa"},"datum": "2019-07-11","beobachter": "Max Mustermann","lat": 51.15625820168273,"lon": 14.000273303515682,"fundort": "Musterstadt","stadium": "Imago","anzahl": 3,"pruefung": "Insekten Sachsen"},{"art": {"ordnung": "Schnabelkerfe","familie": "Baumwanzen","nameDeutsch": "Nördliche Fruchtwanze","name": "Carpocoris fuscispinus"},"datum": "2013-09-09","beobachter": "Maria Muster","lat": 51.18709087533041,"lon": 14.04131345598696,"fundort": "Musterstadt","stadium": "Imago","anzahl": 1,"pruefung": "Insekten Sachsen"},{"art": {"ordnung": "Schnabelkerfe","familie": "Randwanzen","nameDeutsch": "Amerikanische Zapfenwanze","name": "Leptoglossus occidentalis"},"datum": "2014-06-26","beobachter": "Max Mustermann","lat": 51.071702191666965,"lon": 13.717061146145703,"fundort": "Musterstadt","stadium": "Imago","anzahl": 1,"pruefung": "Insekten Sachsen"},{"art": {"ordnung": "Schmetterlinge","familie": "Breitflügelmotten","nameDeutsch": "Frühjahrsbuchenmotte","name": "Diurnea fagella"},"datum": "2016-02-22","beobachter": "Max Mustermann","lat": 51.1860708446868,"lon": 13.853556129170846,"fundort": "Musterstadt","stadium": "Imago","anzahl": 1,"pruefung": "Insekten Sachsen"},{"art": {"ordnung": "Käfer","familie": "Rüsselkäfer","nameDeutsch": "Großer Lupinen-Blattrandrüssler","name": "Sitona gressorius"},"datum": "2014-05-05","beobachter": "Max Mustermann","lat": 51.157234874868806,"lon": 14.002989651058169,"fundort": "Musterstadt","stadium": "Imago","anzahl": 1,"pruefung": "Insekten Sachsen"},{"art": {"ordnung": "Zweiflügler","familie": "Wollschweber","nameDeutsch": "Großer Wollschweber","name": "Bombylius major"},"datum": "2012-06-14","beobachter": "Maria Muster","lat": 51.19365431825548,"lon": 13.946183765616942,"fundort": "Musterstadt","stadium": "Imago","anzahl": 2,"pruefung": "Insekten Sachsen"},{"art": {"ordnung": "Schmetterlinge","familie": "Spanner","nameDeutsch": "Zackenbindiger Rindenspanner","name": "Ectropis crepuscularia"},"datum": "2013-04-03","beobachter": "Max Mustermann","lat": 51.17729523986704,"lon": 13.971866992068815,"fundort": "Musterstadt","stadium": "Imago","anzahl": 1,"pruefung": "Insekten Sachsen"},{"art": {"ordnung": "Käfer","familie": "Bockkäfer","nameDeutsch": "Kleiner Zangenbock","name": "Rhagium inquisitor"},"datum": "2019-07-05","beobachter": "Max Mustermann","lat": 51.09953962283178,"lon": 13.713690497509878,"fundort": "Musterstadt","stadium": "Imago","anzahl": 1,"pruefung": "Insekten Sachsen"},{"art": {"ordnung": "Schnabelkerfe","familie": "Feuerwanzen","nameDeutsch": "Feuerwanze","name": "Pyrrhocoris apterus"},"datum": "2011-05-23","beobachter": "Maria Muster","lat": 51.210815580791184,"lon": 13.917919446695686,"fundort": "Musterstadt","stadium": "Imago","anzahl": 1,"pruefung": "Insekten Sachsen"},{"art": {"ordnung": "Käfer","familie": "Laufkäfer","nameDeutsch": "Kupferfarbener Buntgrabläufer","name": "Poecilus cupreus"},"datum": "2015-01-30","beobachter": "Max Mustermann","lat": 51.16591669885156,"lon": 13.971055028681173,"fundort": "Musterstadt","stadium": "Imago","anzahl": 1,"pruefung": "Insekten Sachsen"},{"art": {"ordnung": "Käfer","familie": "Blatthornkäfer","nameDeutsch": "Nashornkäfer","name": "Oryctes nasicornis"},"datum": "2016-12-19","beobachter": "Max Mustermann","lat": 51.098223952080545,"lon": 13.620799067160311,"fundort": "Musterstadt","stadium": "Imago","anzahl": 1,"pruefung": "Insekten Sachsen"},{"art": {"ordnung": "Fischchen","familie": "Lepismatidae","nameDeutsch": "Silberfischchen","name": "Lepisma saccharina"},"datum": "2016-06-04","beobachter": "Max Mustermann","lat": 51.15899559256383,"lon": 13.992287536846012,"fundort": "Musterstadt","stadium": "Imago","anzahl": 1,"pruefung": "Insekten Sachsen"},{"art": {"ordnung": "Schmetterlinge","familie": "Federgeistchen","nameDeutsch": "Geißblattgeistchen","name": "Alucita hexadactyla"},"datum": "2013-12-28","beobachter": "Maria Muster","lat": 51.18655296789103,"lon": 13.933011514728095,"fundort": "Musterstadt","stadium": "Imago","anzahl": 1,"pruefung": "Insekten Sachsen"},{"art": {"ordnung": "Käfer","familie": "Ölkäfer","nameDeutsch": "Schwarzblauer Ölkäfer","name": "Meloe proscarabaeus"},"datum": "2020-10-27","beobachter": "Max Mustermann","lat": 51.168053127063544,"lon": 13.990660709018737,"fundort": "Musterstadt","stadium": "Imago","anzahl": 1,"pruefung": "Insekten Sachsen"},{"art": {"ordnung": "Käfer","familie": "Marienkäfer","nameDeutsch": "Siebenpunkt-Marienkäfer","name": "Coccinella septempunctata"},"datum": "2013-09-03","beobachter": "Maria Muster","lat": 51.172943657417655,"lon": 13.973958377183418,"fundort": "Musterstadt","stadium": "Imago","anzahl": 2,"pruefung": "Insekten Sachsen"},{"art": {"ordnung": "Schnabelkerfe","familie": "Baumwanzen","nameDeutsch": "Beerenwanze","name": "Dolycoris baccarum"},"datum": "2011-09-13","beobachter": "Maria Muster","lat": 51.203584689734434,"lon": 13.952368939138006,"fundort": "Musterstadt","stadium": "Imago","anzahl": 1,"pruefung": "Insekten Sachsen"},{"art": {"ordnung": "Käfer","familie": "Bockkäfer","nameDeutsch": "Dorniger Wimperbock","name": "Pogonocherus hispidus"},"datum": "2013-05-30","beobachter": "Maria Muster","lat": 51.204741346402976,"lon": 13.956854762725259,"fundort": "Musterstadt","stadium": "Imago","anzahl": 1,"pruefung": "Insekten Sachsen"},{"art": {"ordnung": "Schnabelkerfe","familie": "Baumwanzen","nameDeutsch": "Grüne Stinkwanze","name": "Palomena prasina"},"datum": "2018-04-28","beobachter": "Maria Muster","lat": 51.20494256622826,"lon": 13.958655502062234,"fundort": "Musterstadt","stadium": "Imago","anzahl": 1,"pruefung": "Insekten Sachsen"},{"art": {"ordnung": "Käfer","familie": "Laufkäfer","nameDeutsch": "Goldlaufkäfer","name": "Carabus auratus"},"datum": "2012-08-15","beobachter": "Maria Muster","lat": 51.185141594851075,"lon": 13.999712429004706,"fundort": "Musterstadt","stadium": "Imago","anzahl": 1,"pruefung": "Insekten Sachsen"},{"art": {"ordnung": "Schnabelkerfe","familie": "Weichwanzen","nameDeutsch": "Eichenwanze","name": "Harpocera thoracica"},"datum": "2015-01-07","beobachter": "Maria Muster","lat": 51.17264079361688,"lon": 13.967937904684723,"fundort": "Musterstadt","stadium": "Imago","anzahl": 1,"pruefung": "Insekten Sachsen"},{"art": {"ordnung": "Käfer","familie": "Rüsselkäfer","nameDeutsch": "Grüner Baum-Blattrüssler","name": "Phyllobius maculicornis"},"datum": "2018-04-15","beobachter": "Max Mustermann","lat": 51.18489894691923,"lon": 13.9898314959199,"fundort": "Musterstadt","stadium": "Imago","anzahl": 1,"pruefung": "Insekten Sachsen"},{"art": {"ordnung": "Schmetterlinge","familie": "Eulenfalter","nameDeutsch": "Ypsilon-Eule","name": "Agrotis ipsilon"},"datum": "2012-10-24","beobachter": "Maria Muster","lat": 51.20449144926969,"lon": 13.942548173762377,"fundort": "Musterstadt","stadium": "Imago","anzahl": 1,"pruefung": "Insekten Sachsen"},{"art": {"ordnung": "Käfer","familie": "Blatthornkäfer","nameDeutsch": "Stolperkäfer","name": "Valgus hemipterus"},"datum": "2012-08-31","beobachter": "Maria Muster","lat": 51.19908231577017,"lon": 13.947957373768057,"fundort": "Musterstadt","stadium": "Imago","anzahl": 1,"pruefung": "Insekten Sachsen"},{"art": {"ordnung": "Schnabelkerfe","familie": "Randwanzen","nameDeutsch": "Rhombenwanze","name": "Syromastus rhombeus"},"datum": "2013-08-01","beobachter": "Maria Muster","lat": 51.194078990725934,"lon": 13.950637459306755,"fundort": "Musterstadt","stadium": "Imago","anzahl": 1,"pruefung": "Insekten Sachsen"},{"art": {"ordnung": "Käfer","familie": "Marienkäfer","nameDeutsch": "Vierfleckiger Schildlaus-Marienkäfer","name": "Brumus quadripustulatus"},"datum": "2016-11-13","beobachter": "Maria Muster","lat": 51.173611290963684,"lon": 13.97419825030871,"fundort": "Musterstadt","stadium": "Imago","anzahl": 1,"pruefung": "Insekten Sachsen"},{"art": {"ordnung": "Käfer","familie": "Weichkäfer","nameDeutsch": "Soldatenkäfer","name": "Cantharis rustica"},"datum": "2015-10-07","beobachter": "Max Mustermann","lat": 51.16826021289614,"lon": 13.994330092922828,"fundort": "Musterstadt","stadium": "Imago","anzahl": 1,"pruefung": "Insekten Sachsen"},{"art": {"ordnung": "Käfer","familie": "Bockkäfer","nameDeutsch": "Blauvioletter Scheibenbock","name": "Callidium violaceum"},"datum": "2013-04-05","beobachter": "Max Mustermann","lat": 51.15333208325136,"lon": 13.975976850494359,"fundort": "Musterstadt","stadium": "Imago","anzahl": 1,"pruefung": "Insekten Sachsen"},{"art": {"ordnung": "Schmetterlinge","familie": "Holzbohrer","nameDeutsch": "Weidenbohrer","name": "Cossus cossus"},"datum": "2014-12-28","beobachter": "Max Mustermann","lat": 51.11149073217608,"lon": 13.958628954209994,"fundort": "Musterstadt","stadium": "Larve","anzahl": 1,"pruefung": "Insekten Sachsen"},{"art": {"ordnung": "Schmetterlinge","familie": "Edelfalter","nameDeutsch": "Distelfalter","name": "Vanessa cardui"},"datum": "2015-11-13","beobachter": "Maria Muster","lat": 51.21235989184375,"lon": 13.810071887038724,"fundort": "Musterstadt","stadium": "Imago","anzahl": 1,"pruefung": "Insekten Sachsen"},{"art": {"ordnung": "Schnabelkerfe","familie": "Blutzikaden","nameDeutsch": "Gemeine Blutzikade","name": "Cercopis vulnerata"},"datum": "2021-04-08","beobachter": "Max Mustermann","lat": 49.85877762438881,"lon": 12.358428182873283,"fundort": "Musterstadt","stadium": "Imago","anzahl": 1,"pruefung": "iNaturalist"},{"art": {"ordnung": "Libellen","familie": "Schlanklibellen","nameDeutsch": "Hufeisen-Azurjungfer","name": "Coenagrion puella"},"datum": "2016-08-25","beobachter": "Maria Muster","lat": 49.88630187493996,"lon": 12.284009328106253,"fundort": "Musterstadt","stadium": "Imago","anzahl": 1,"pruefung": "iNaturalist"},{"art": {"ordnung": "Käfer","familie": "Blatthornkäfer","nameDeutsch": "Goldglänzender Rosenkäfer","name": "Cetonia aurata"},"datum": "2020-03-07","beobachter": "Max Mustermann","lat": 51.160457865438424,"lon": 13.99486066504108,"fundort": "Musterstadt","stadium": "Imago","anzahl": 3,"pruefung": "Insekten Sachsen"},{"art": {"ordnung": "Schmetterlinge","familie": "Edelfalter","nameDeutsch": "Kleines Wiesenvögelchen","name": "Coenonympha pamphilus"},"datum": "2020-07-22","beobachter": "Maria Muster","lat": 51.206002020319744,"lon": 13.925715481276935,"fundort": "Musterstadt","stadium": "Imago","anzahl": 1,"pruefung": "Insekten Sachsen"},{"art": {"ordnung": "Käfer","familie": "Marienkäfer","nameDeutsch": "Schachbrett-Marienkäfer","name": "Propylea quatuordecimpunctata"},"datum": "2012-10-01","beobachter": "Maria Muster","lat": 51.187866746077574,"lon": 13.931799147989894,"fundort": "Musterstadt","stadium": "Imago","anzahl": 1,"pruefung": "Insekten Sachsen"},{"art": {"ordnung": "Käfer","familie": "Blatthornkäfer","nameDeutsch": "Trauer-Rosenkäfer","name": "Oxythyrea funesta"},"datum": "2013-11-01","beobachter": "Max Mustermann","lat": 51.173344683190045,"lon": 13.960977497157115,"fundort": "Musterstadt","stadium": "Imago","anzahl": 1,"pruefung": "Insekten Sachsen"},{"art": {"ordnung": "Käfer","familie": "Rüsselkäfer","nameDeutsch": "Düsterer Plumprüssler","name": "Barynotus obscurus"},"datum": "2016-04-30","beobachter": "Maria Muster","lat": 51.166151933546985,"lon": 13.995224146980144,"fundort": "Musterstadt","stadium": "Imago","anzahl": 1,"pruefung": "Insekten Sachsen"},{"art": {"ordnung": "Libellen","familie": "Schlanklibellen","nameDeutsch": "Hufeisen-Azurjungfer","name": "Coenagrion puella"},"datum": "2012-09-17","beobachter": "Maria Muster","lat": 51.19613933570445,"lon": 13.933135325902395,"fundort": "Musterstadt","stadium": "Imago","anzahl": 3,"pruefung": "Insekten Sachsen"},{"art": {"ordnung": "Käfer","familie": "Blatthornkäfer","nameDeutsch": "Goldglänzender Rosenkäfer","name": "Cetonia aurata"},"datum": "2014-05-04","beobachter": "Maria Muster","lat": 51.194973936620535,"lon": 13.97045980796759,"fundort": "Musterstadt","stadium": "Imago","anzahl": 1,"pruefung": "Insekten Sachsen"},{"art": {"ordnung": "Käfer","familie": "Blatthornkäfer","nameDeutsch": "Gartenlaubkäfer","name": "Phyllopertha horticola"},"datum": "2017-10-03","beobachter": "Max Mustermann","lat": 51.15550083296787,"lon": 13.99325503310568,"fundort": "Musterstadt","stadium": "Imago","anzahl": 1,"pruefung": "Insekten Sachsen"},{"art": {"ordnung": "Käfer","familie": "Blatthornkäfer","nameDeutsch": "Kupfer-Rosenkäfer","name": "Protaetia cuprea"},"datum": "2013-01-23","beobachter": "Maria Muster","lat": 51.20020523093097,"lon": 13.945382578142478,"fundort": "Musterstadt","stadium": "Imago","anzahl": 3,"pruefung": "Insekten Sachsen"},{"art": {"ordnung": "Käfer","familie": "Blatthornkäfer","nameDeutsch": "Stolperkäfer","name": "Valgus hemipterus"},"datum": "2015-02-25","beobachter": "Max Mustermann","lat": 51.1864836882609,"lon": 13.9996686832091,"fundort": "Musterstadt","stadium": "Imago","anzahl": 1,"pruefung": "Insekten Sachsen"},{"art": {"ordnung": "Schmetterlinge","familie": "Wurzelbohrer","nameDeutsch": "Kleiner Hopfenwurzelbohrer","name": "Korscheltellus lupulina"},"datum": "2013-11-01","beobachter": "Max Mustermann","lat": 51.16127742447458,"lon": 14.017759932504484,"fundort": "Musterstadt","stadium": "Imago","anzahl": 1,"pruefung": "Insekten Sachsen"},{"art": {"ordnung": "Käfer","familie": "Blatthornkäfer","nameDeutsch": "Glattschieniger Pinselkäfer","name": "Trichius gallicus"},"datum": "2020-06-04","beobachter": "Max Mustermann","lat": 51.186931538284306,"lon": 13.98815973083893,"fundort": "Musterstadt","stadium": "Imago","anzahl": 1,"pruefung": "Insekten Sachsen"},{"art": {"ordnung": "Käfer","familie": "Blatthornkäfer","nameDeutsch": "Goldglänzender Rosenkäfer","name": "Cetonia aurata"},"datum": "2011-05-24","beobachter": "Max Mustermann","lat": 51.18813942695375,"lon": 14.079800641553721,"fundort": "Musterstadt","stadium": "Imago","anzahl": 3,"pruefung": "Insekten Sachsen"},{"art": {"ordnung": "Schmetterlinge","familie": "Zünsler","nameDeutsch": "Hummel-Wachsmotte","name": "Aphomia sociella"},"datum": "2020-08-20","beobachter": "Maria Muster","lat": 51.102962917939,"lon": 13.67348691710102,"fundort": "Musterstadt","stadium": "Imago","anzahl": 1,"pruefung": "Insekten Sachsen"},{"art": {"ordnung": "Käfer","familie": "Weichkäfer","nameDeutsch": "Soldatenkäfer","name": "Cantharis rustica"},"datum": "2015-01-20","beobachter": "Max Mustermann","lat": 51.197423679579316,"lon": 14.091395803348524,"fundort": "Musterstadt","stadium": "Imago","anzahl": 1,"pruefung": "Insekten Sachsen"},{"art": {"ordnung": "Schmetterlinge","familie": "Edelfalter","nameDeutsch": "Kleines Wiesenvögelchen","name": "Coenonympha pamphilus"},"datum": "2020-08-23","beobachter": "Maria Muster","lat": 51.22340027239067,"lon": 14.041486350550956,"fundort": "Musterstadt","stadium": "Imago","anzahl": 1,"pruefung": "Insekten Sachsen"},{"art": {"ordnung": "Käfer","familie": "Blatthornkäfer","nameDeutsch": "Trauer-Rosenkäfer","name": "Oxythyrea funesta"},"datum": "2016-12-02","beobachter": "Max Mustermann","lat": 51.21152900339455,"lon": 14.044954775538578,"fundort": "Musterstadt","stadium": "Imago","anzahl": 1,"pruefung": "Insekten Sachsen"},{"art": {"ordnung": "Käfer","familie": "Blatthornkäfer","nameDeutsch": "Gartenlaubkäfer","name": "Phyllopertha horticola"},"datum": "2017-06-01","beobachter": "Max Mustermann","lat": 51.19204495823687,"lon": 14.092419525558546,"fundort": "Musterstadt","stadium": "Imago","anzahl": 1,"pruefung": "Insekten Sachsen"},{"art": {"ordnung": "Käfer","familie": "Bockkäfer","nameDeutsch": "Buchen-Widderbock","name": "Clytus arietis"},"datum": "2012-09-15","beobachter": "Maria Muster","lat": 51.1998263957571,"lon": 14.025999041607266,"fundort": "Musterstadt","stadium": "Imago","anzahl": 1,"pruefung": "Insekten Sachsen"},{"art": {"ordnung": "Schmetterlinge","familie": "Edelfalter","nameDeutsch": "Kleines Wiesenvögelchen","name": "Coenonympha pamphilus"},"datum": "2011-08-16","beobachter": "Max Mustermann","lat": 51.191109589661394,"lon": 13.974464813825332,"fundort": "Musterstadt","stadium": "Imago","anzahl": 1,"pruefung": "Insekten Sachsen"},{"art": {"ordnung": "Käfer","familie": "Blatthornkäfer","nameDeutsch": "Glattschieniger Pinselkäfer","name": "Trichius gallicus"},"datum": "2015-07-07","beobachter": "Max Mustermann","lat": 51.16895556053383,"lon": 14.02182336390492,"fundort": "Musterstadt","stadium": "Imago","anzahl": 2,"pruefung": "Insekten Sachsen"},{"art": {"ordnung": "Schnabelkerfe","familie": "Weichwanzen","nameDeutsch": "Zweikeulen-Weichwanze","name": "Closterotomus biclavatus"},"datum": "2016-10-25","beobachter": "Max Mustermann","lat": 51.145042084377806,"lon": 14.01267067889348,"fundort": "Musterstadt","stadium": "Imago","anzahl": 1,"pruefung": "Insekten Sachsen"},{"art": {"ordnung": "Käfer","familie": "Blatthornkäfer","nameDeutsch": "Gartenlaubkäfer","name": "Phyllopertha horticola"},"datum": "2017-01-19","beobachter": "Max Mustermann","lat": 51.162363530782024,"lon": 14.016579527967647,"fundort": "Musterstadt","stadium": "Imago","anzahl": 1,"pruefung": "Insekten Sachsen"},{"art": {"ordnung": "Käfer","familie": "Blatthornkäfer","nameDeutsch": "Kleiner Halsbock","name": "Pseudovadonia livida"},"datum": "2020-10-02","beobachter": "Maria Muster","lat": 51.20302076888171,"lon": 13.944733599535173,"fundort": "Musterstadt","stadium": "Imago","anzahl": 1,"pruefung": "Insekten Sachsen"},{"art": {"ordnung": "Käfer","familie": "Blatthornkäfer","nameDeutsch": "Kleiner Halsbock","name": "Pseudovadonia livida"},"datum": "2015-12-15","beobachter": "Maria Muster","lat": 51.175943467650455,"lon": 13.954462119352929,"fundort": "Musterstadt","stadium": "Imago","anzahl": 1,"pruefung": "Insekten Sachsen"},{"art": {"ordnung": "Käfer","familie": "Kurzflügler","nameDeutsch": "Ontholestes haroldi","name": "Ontholestes haroldi"},"datum": "2014-08-01","beobachter": "Maria Muster","lat": 51.178181988058135,"lon": 13.979388693665403,"fundort": "Musterstadt","stadium": "Imago","anzahl": 1,"pruefung": "Insekten Sachsen"},{"art": {"ordnung": "Schmetterlinge","familie": "Spanner","nameDeutsch": "Rauten-Rindenspanner","name": "Peribatodes rhomboidaria"},"datum": "2016-04-27","beobachter": "Maria Muster","lat": 51.19673169634833,"lon": 13.949316139586854,"fundort": "Musterstadt","stadium": "Imago","anzahl": 1,"pruefung": "Insekten Sachsen"},{"art": {"ordnung": "Käfer","familie": "Blattkäfer","nameDeutsch": "Ameisensackkäfer","name": "Clytra laeviuscula"},"datum": "2014-08-02","beobachter": "Maria Muster","lat": 51.17910193064832,"lon": 13.824125639704176,"fundort": "Musterstadt","stadium": "Imago","anzahl": 1,"pruefung": "Insekten Sachsen"},{"art": {"ordnung": "Käfer","familie": "Schnellkäfer","nameDeutsch": "Mausgrauer Schnellkäfer","name": "Agrypnus murinus"},"datum": "2016-12-13","beobachter": "Max Mustermann","lat": 51.16824220801199,"lon": 13.844966176508498,"fundort": "Musterstadt","stadium": "Imago","anzahl": 1,"pruefung": "Insekten Sachsen"},{"art": {"ordnung": "Käfer","familie": "Schnellkäfer","nameDeutsch": "Gegürtelter Schnellkäfer","name": "Ampedus balteatus"},"datum": "2020-10-01","beobachter": "Maria Muster","lat": 51.18523682580324,"lon": 13.950240259547076,"fundort": "Musterstadt","stadium": "Imago","anzahl": 1,"pruefung": "Insekten Sachsen"},{"art": {"ordnung": "Schmetterlinge","familie": "Eulenfalter","nameDeutsch": "Ausrufungszeichen","name": "Agrotis exclamationis"},"datum": "2018-01-19","beobachter": "Max Mustermann","lat": 51.18739448479769,"lon": 13.964556663502865,"fundort": "Musterstadt","stadium": "Imago","anzahl": 1,"pruefung": "Insekten Sachsen"},{"art": {"ordnung": "Käfer","familie": "Marienkäfer","nameDeutsch": "Sechzehnpunkt-Marienkäfer","name": "Tytthaspis sedecimpunctata"},"datum": "2020-05-22","beobachter": "Max Mustermann","lat": 51.18380245230141,"lon": 13.960647329087115,"fundort": "Musterstadt","stadium": "Imago","anzahl": 1,"pruefung": "Insekten Sachsen"},{"art": {"ordnung": "Schnabelkerfe","familie": "Weichwanzen","nameDeutsch": "Leptopterna dolabrata","name": "Leptopterna dolabrata"},"datum": "2015-05-04","beobachter": "Max Mustermann","lat": 51.14683716075775,"lon": 14.015305410025805,"fundort": "Musterstadt","stadium": "Imago","anzahl": 1,"pruefung": "Insekten Sachsen"},{"art": {"ordnung": "Libellen","familie": "Flussjungfern","nameDeutsch": "Gemeine Keiljungfer","name": "Gomphus vulgatissimus"},"datum": "2018-03-17","beobachter": "Max Mustermann","lat": 51.151837096002566,"lon": 14.01586396893186,"fundort": "Musterstadt","stadium": "Imago","anzahl": 1,"pruefung": "Insekten Sachsen"},{"art": {"ordnung": "Schmetterlinge","familie": "Crambidae","nameDeutsch": "Buchsbaumzünsler","name": "Cydalima perspectalis"},"datum": "2018-01-30","beobachter": "Max Mustermann","lat": 51.15561576450232,"lon": 13.99213643222195,"fundort": "Musterstadt","stadium": "Imago","anzahl": 1,"pruefung": "Insekten Sachsen"},{"art": {"ordnung": "Schmetterlinge","familie": "Edelfalter","nameDeutsch": "Distelfalter","name": "Vanessa cardui"},"datum": "2013-09-06","beobachter": "Maria Muster","lat": 51.184937004796645,"lon": 13.946083209002252,"fundort": "Musterstadt","stadium": "Imago","anzahl": 1,"pruefung": "Insekten Sachsen"},{"art": {"ordnung": "Schmetterlinge","familie": "Spanner","nameDeutsch": "Heu-Zwergspanner","name": "Idaea inquinata"},"datum": "2020-11-26","beobachter": "Maria Muster","lat": 51.16545472398263,"lon": 13.969547955890121,"fundort": "Musterstadt","stadium": "Imago","anzahl": 1,"pruefung": "Insekten Sachsen"},{"art": {"ordnung": "Schmetterlinge","familie": "Spanner","nameDeutsch": "Grauer Zwergspanner","name": "Idaea seriata"},"datum": "2019-01-21","beobachter": "Max Mustermann","lat": 51.1848545692194,"lon": 13.976821107976257,"fundort": "Musterstadt","stadium": "Imago","anzahl": 1,"pruefung": "Insekten Sachsen"},{"art": {"ordnung": "Schmetterlinge","familie": "Crambidae","nameDeutsch": "Scoparia pyralella","name": "Scoparia pyralella"},"datum": "2016-10-17","beobachter": "Maria Muster","lat": 51.19871149187166,"lon": 13.96112806341451,"fundort": "Musterstadt","stadium": "Imago","anzahl": 1,"pruefung": "Insekten Sachsen"},{"art": {"ordnung": "Zweiflügler","familie": "Schwebfliegen","nameDeutsch": "Glänzende Faulschlammschwebfliege","name": "Eristalinus aeneus"},"datum": "2014-04-10","beobachter": "Max Mustermann","lat": 51.17032286174278,"lon": 13.958769964098208,"fundort": "Musterstadt","stadium": "Imago","anzahl": 1,"pruefung": "Insekten Sachsen"},{"art": {"ordnung": "Schnabelkerfe","familie": "Randwanzen","nameDeutsch": "Braune Randwanze","name": "Gonocerus acuteangulatus"},"datum": "2019-02-18","beobachter": "Max Mustermann","lat": 51.158084354412125,"lon": 14.006586475259839,"fundort": "Musterstadt","stadium": "Imago","anzahl": 1,"pruefung": "Insekten Sachsen"},{"art": {"ordnung": "Heuschrecken","familie": "Tettigoniidae","nameDeutsch": "Grünes Heupferd","name": "Tettigonia viridissima"},"datum": "2016-01-15","beobachter": "Max Mustermann","lat": 51.177551779963565,"lon": 13.966295552749273,"fundort": "Musterstadt","stadium": "Imago","anzahl": 1,"pruefung": "Insekten Sachsen"},{"art": {"ordnung": "Schmetterlinge","familie": "Spanner","nameDeutsch": "Breitgebänderter Staudenspanner","name": "Idaea aversata"},"datum": "2013-02-19","beobachter": "Max Mustermann","lat": 51.16316679748382,"lon": 14.002821384586731,"fundort": "Musterstadt","stadium": "Imago","anzahl": 1,"pruefung": "Insekten Sachsen"},{"art": {"ordnung": "Käfer","familie": "Leuchtkäfer","nameDeutsch": "Glühwürmchen","name": "Lamprohiza splendidula"},"datum": "2014-06-15","beobachter": "Max Mustermann","lat": 51.1700075720214,"lon": 13.971342981178383,"fundort": "Musterstadt","stadium": "Imago","anzahl": 3,"pruefung": "Insekten Sachsen"},{"art": {"ordnung": "Zweiflügler","familie": "Schwebfliegen","nameDeutsch": "Späte Großstirnschwebfliege","name": "Scaeva pyrastri"},"datum": "2017-04-20","beobachter": "Maria Muster","lat": 51.2080388189681,"lon": 13.937141382488086,"fundort": "Musterstadt","stadium": "Imago","anzahl": 1,"pruefung": "Insekten Sachsen"},{"art": {"ordnung": "Käfer","familie": "Marienkäfer","nameDeutsch": "Zehnpunkt-Marienkäfer","name": "Adalia decempunctata"},"datum": "2011-07-16","beobachter": "Maria Muster","lat": 51.19118463973834,"lon": 13.94328824739898,"fundort": "Musterstadt","stadium": "Imago","anzahl": 1,"pruefung": "Insekten Sachsen"},{"art": {"ordnung": "Schmetterlinge","familie": "Eulenfalter","nameDeutsch": "Wurzelfresser","name": "Apamea monoglypha"},"datum": "2016-07-23","beobachter": "Max Mustermann","lat": 51.17563738490985,"lon": 13.951577929905426,"fundort": "Musterstadt","stadium": "Imago","anzahl": 1,"pruefung": "Insekten Sachsen"},{"art": {"ordnung": "Käfer","familie": "Blatthornkäfer","nameDeutsch": "Junikäfer","name": "Amphimallon solstitiale"},"datum": "2019-02-06","beobachter": "Max Mustermann","lat": 51.16024373389667,"lon": 13.9820920346307,"fundort": "Musterstadt","stadium": "Imago","anzahl": 11,"pruefung": "Insekten Sachsen"},{"art": {"ordnung": "Libellen","familie": "Schlanklibellen","nameDeutsch": "Große Pechlibelle","name": "Ischnura elegans"},"datum": "2013-05-22","beobachter": "Maria Muster","lat": 51.193702004423066,"lon": 13.989408943265222,"fundort": "Musterstadt","stadium": "Imago","anzahl": 1,"pruefung": "Insekten Sachsen"},{"art": {"ordnung": "Schmetterlinge","familie": "Schwärmer","nameDeutsch": "Mittlerer Weinschwärmer","name": "Deilephila elpenor"},"datum": "2020-04-09","beobachter": "Max Mustermann","lat": 51.23568056205952,"lon": 14.013686319237502,"fundort": "Musterstadt","stadium": "Imago","anzahl": 1,"pruefung": "Insekten Sachsen"},{"art": {"ordnung": "Schnabelkerfe","familie": "Zwergzikaden","nameDeutsch": "Rhododendronzikade","name": "Graphocephala fennahi"},"datum": "2013-07-15","beobachter": "Max Mustermann","lat": 51.182478081353764,"lon": 13.961619373454878,"fundort": "Musterstadt","stadium": "Imago","anzahl": 6,"pruefung": "Insekten Sachsen"},{"art": {"ordnung": "Schmetterlinge","familie": "Eulenfalter","nameDeutsch": "Schwammspinner","name": "Lymantria dispar"},"datum": "2016-07-11","beobachter": "Maria Muster","lat": 51.19873313360533,"lon": 13.942299933114942,"fundort": "Musterstadt","stadium": "Larve","anzahl": 2,"pruefung": "Insekten Sachsen"},{"art": {"ordnung": "Zweiflügler","familie": "Schwebfliegen","nameDeutsch": "Helle Sumpfschwebfliege","name": "Helophilus hybridus"},"datum": "2011-09-07","beobachter": "Max Mustermann","lat": 51.15407154171497,"lon": 14.001080021211523,"fundort": "Musterstadt","stadium": "Imago","anzahl": 1,"pruefung": "Insekten Sachsen"},{"art": {"ordnung": "Schmetterlinge","familie": "Schleier- und Halbmotten","nameDeutsch": "Kohlmotte","name": "Plutella xylostella"},"datum": "2019-03-18","beobachter": "Max Mustermann","lat": 51.18023105011147,"lon": 13.996209017889816,"fundort": "Musterstadt","stadium": "Imago","anzahl": 1,"pruefung": "Insekten Sachsen"},{"art": {"ordnung": "Libellen","familie": "Prachtlibellen","nameDeutsch": "Gebänderte Prachtlibelle","name": "Calopteryx splendens"},"datum": "2012-07-27","beobachter": "Max Mustermann","lat": 51.149833414169215,"lon": 14.02472667416793,"fundort": "Musterstadt","stadium": "Imago","anzahl": 1,"pruefung": "Insekten Sachsen"},{"art": {"ordnung": "Schmetterlinge","familie": "Weißlinge","nameDeutsch": "Kleiner Kohlweißling","name": "Pieris rapae"},"datum": "2016-02-22","beobachter": "Maria Muster","lat": 51.21230066282401,"lon": 13.931480800204731,"fundort": "Musterstadt","stadium": "Larve","anzahl": 1,"pruefung": "Insekten Sachsen"},{"art": {"ordnung": "Schmetterlinge","familie": "Weißlinge","nameDeutsch": "Zitronenfalter","name": "Gonepteryx rhamni"},"datum": "2017-06-05","beobachter": "Maria Muster","lat": 51.183812784591865,"lon": 13.98187341835248,"fundort": "Musterstadt","stadium": "Imago","anzahl": 2,"pruefung": "Insekten Sachsen"},{"art": {"ordnung": "Schmetterlinge","familie": "Edelfalter","nameDeutsch": "Distelfalter","name": "Vanessa cardui"},"datum": "2011-09-14","beobachter": "Max Mustermann","lat": 51.155592535665306,"lon": 13.980950459778768,"fundort": "Musterstadt","stadium": "Imago","anzahl": 1,"pruefung": "Insekten Sachsen"},{"art": {"ordnung": "Schmetterlinge","familie": "Dickkopffalter","nameDeutsch": "Schwarzkolbiger Braundickkopf","name": "Thymelicus lineola"},"datum": "2013-11-22","beobachter": "Max Mustermann","lat": 51.16527329921048,"lon": 13.973125162431103,"fundort": "Musterstadt","stadium": "Imago","anzahl": 1,"pruefung": "Insekten Sachsen"},{"art": {"ordnung": "Schnabelkerfe","familie": "Baumwanzen","nameDeutsch": "Beerenwanze","name": "Dolycoris baccarum"},"datum": "2016-01-17","beobachter": "Maria Muster","lat": 51.172398280371965,"lon": 13.976997699072196,"fundort": "Musterstadt","stadium": "Imago","anzahl": 2,"pruefung": "Insekten Sachsen"},{"art": {"ordnung": "Käfer","familie": "Schnellkäfer","nameDeutsch": "Mausgrauer Schnellkäfer","name": "Agrypnus murinus"},"datum": "2012-08-02","beobachter": "Max Mustermann","lat": 51.156083244460284,"lon": 13.999890276590971,"fundort": "Musterstadt","stadium": "Imago","anzahl": 1,"pruefung": "Insekten Sachsen"},{"art": {"ordnung": "Käfer","familie": "Marienkäfer","nameDeutsch": "Asiatischer Marienkäfer","name": "Harmonia axyridis"},"datum": "2011-09-17","beobachter": "Max Mustermann","lat": 51.17409121856031,"lon": 13.965711642195076,"fundort": "Musterstadt","stadium": "Imago","anzahl": 6,"pruefung": "Insekten Sachsen"},{"art": {"ordnung": "Schmetterlinge","familie": "Weißlinge","nameDeutsch": "Resedafalter","name": "Pontia edusa"},"datum": "2017-10-26","beobachter": "Maria Muster","lat": 51.19185544112348,"lon": 13.953189462882076,"fundort": "Musterstadt","stadium": "Imago","anzahl": 2,"pruefung": "Insekten Sachsen"},{"art": {"ordnung": "Schmetterlinge","familie": "Spanner","nameDeutsch": "Rauten-Rindenspanner","name": "Peribatodes rhomboidaria"},"datum": "2018-10-11","beobachter": "Maria Muster","lat": 51.18849248462022,"lon": 13.93424652572305,"fundort": "Musterstadt","stadium": "Imago","anzahl": 1,"pruefung": "Insekten Sachsen"},{"art": {"ordnung": "Käfer","familie": "Bockkäfer","nameDeutsch": "Vierbindiger Schmalbock","name": "Leptura quadrifasciata"},"datum": "2014-05-15","beobachter": "Max Mustermann","lat": 51.156453960148525,"lon": 13.985245031782316,"fundort": "Musterstadt","stadium": "Imago","anzahl": 1,"pruefung": "Insekten Sachsen"},{"art": {"ordnung": "Schnabelkerfe","familie": "Weichwanzen","nameDeutsch": "Rote Weichwanze","name": "Deraeocoris ruber"},"datum": "2019-02-12","beobachter": "Maria Muster","lat": 51.187371583319546,"lon": 13.93647944177905,"fundort": "Musterstadt","stadium": "Imago","anzahl": 1,"pruefung": "Insekten Sachsen"},{"art": {"ordnung": "Schmetterlinge","familie": "Eulenfalter","nameDeutsch": "Gammaeule","name": "Autographa gamma"},"datum": "2016-06-06","beobachter": "Maria Muster","lat": 51.18631614366801,"lon": 13.976557252452386,"fundort": "Musterstadt","stadium": "Imago","anzahl": 1,"pruefung": "Insekten Sachsen"},{"art": {"ordnung": "Schnabelkerfe","familie": "Baumwanzen","nameDeutsch": "Beerenwanze","name": "Dolycoris baccarum"},"datum": "2017-09-23","beobachter": "Max Mustermann","lat": 51.06627121036336,"lon": 13.723100050589892,"fundort": "Musterstadt","stadium": "Imago","anzahl": 1,"pruefung": "Insekten Sachsen"},{"art": {"ordnung": "Schmetterlinge","familie": "Edelfalter","nameDeutsch": "Großes Ochsenauge","name": "Maniola jurtina"},"datum": "2015-01-28","beobachter": "Max Mustermann","lat": 51.113781732075914,"lon": 13.800282952809997,"fundort": "Musterstadt","stadium": "Imago","anzahl": 1,"pruefung": "Insekten Sachsen"},{"art": {"ordnung": "Schmetterlinge","familie": "Edelfalter","nameDeutsch": "Großes Ochsenauge","name": "Maniola jurtina"},"datum": "2018-12-31","beobachter": "Maria Muster","lat": 51.138883898660765,"lon": 13.808101385715794,"fundort": "Musterstadt","stadium": "Imago","anzahl": 1,"pruefung": "Insekten Sachsen"},{"art": {"ordnung": "Schmetterlinge","familie": "Edelfalter","nameDeutsch": "Kleines Wiesenvögelchen","name": "Coenonympha pamphilus"},"datum": "2013-02-28","beobachter": "Max Mustermann","lat": 51.10129020937759,"lon": 13.830326278233219,"fundort": "Musterstadt","stadium": "Imago","anzahl": 1,"pruefung": "Insekten Sachsen"},{"art": {"ordnung": "Schmetterlinge","familie": "Weißlinge","nameDeutsch": "Zitronenfalter","name": "Gonepteryx rhamni"},"datum": "2016-02-24","beobachter": "Maria Muster","lat": 51.10851477657519,"lon": 13.831688112192149,"fundort": "Musterstadt","stadium": "Imago","anzahl": 1,"pruefung": "Insekten Sachsen"},{"art": {"ordnung": "Käfer","familie": "Marienkäfer","nameDeutsch": "Schachbrett-Marienkäfer","name": "Propylea quatuordecimpunctata"},"datum": "2021-03-09","beobachter": "Maria Muster","lat": 51.161997905241506,"lon": 13.95172845472078,"fundort": "Musterstadt","stadium": "Imago","anzahl": 1,"pruefung": "Insekten Sachsen"},{"art": {"ordnung": "Libellen","familie": "Segellibellen","nameDeutsch": "Blutrote Heidelibelle","name": "Sympetrum sanguineum"},"datum": "2020-08-31","beobachter": "Max Mustermann","lat": 51.093544364820104,"lon": 13.831797249185925,"fundort": "Musterstadt","stadium": "Imago","anzahl": 1,"pruefung": "Insekten Sachsen"},{"art": {"ordnung": "Zweiflügler","familie": "Wollschweber","nameDeutsch": "Hottentottenfliege","name": "Villa hottentotta"},"datum": "2014-09-16","beobachter": "Maria Muster","lat": 51.13744754082849,"lon": 13.812063471682668,"fundort": "Musterstadt","stadium": "Imago","anzahl": 1,"pruefung": "iNaturalist"},{"art": {"ordnung": "Schmetterlinge","familie": "Schwärmer","nameDeutsch": "Taubenschwänzchen","name": "Macroglossum stellatarum"},"datum": "2020-03-24","beobachter": "Max Mustermann","lat": 51.15351019706919,"lon": 14.001304961438422,"fundort": "Musterstadt","stadium": "Imago","anzahl": 1,"pruefung": "Insekten Sachsen"},{"art": {"ordnung": "Heuschrecken","familie": "Feldheuschrecken","nameDeutsch": "Sumpfschrecke","name": "Stethophyma grossum"},"datum": "2013-09-23","beobachter": "Maria Muster","lat": 51.201595396163185,"lon": 13.93488401484536,"fundort": "Musterstadt","stadium": "Imago","anzahl": 1,"pruefung": "Insekten Sachsen"},{"art": {"ordnung": "Schmetterlinge","familie": "Weißlinge","nameDeutsch": "Kleiner Kohlweißling","name": "Pieris rapae"},"datum": "2019-11-01","beobachter": "Maria Muster","lat": 51.18784992556751,"lon": 13.680286539682482,"fundort": "Musterstadt","stadium": "Imago","anzahl": 1,"pruefung": "iNaturalist"},{"art": {"ordnung": "Schnabelkerfe","familie": "Zwergzikaden","nameDeutsch": "Rhododendronzikade","name": "Graphocephala fennahi"},"datum": "2019-04-23","beobachter": "Max Mustermann","lat": 51.022841856667846,"lon": 13.785951557241031,"fundort": "Musterstadt","stadium": "Imago","anzahl": 6,"pruefung": "Insekten Sachsen"},{"art": {"ordnung": "Libellen","familie": "Segellibellen","nameDeutsch": "Blutrote Heidelibelle","name": "Sympetrum sanguineum"},"datum": "2021-04-09","beobachter": "Maria Muster","lat": 51.1804375442246,"lon": 13.693822395656667,"fundort": "Musterstadt","stadium": "Imago","anzahl": 1,"pruefung": "Insekten Sachsen"},{"art": {"ordnung": "Schmetterlinge","familie": "Edelfalter","nameDeutsch": "Großes Ochsenauge","name": "Maniola jurtina"},"datum": "2016-05-09","beobachter": "Maria Muster","lat": 51.16721160369209,"lon": 13.710051088429239,"fundort": "Musterstadt","stadium": "Imago","anzahl": 1,"pruefung": "Insekten Sachsen"},{"art": {"ordnung": "Schmetterlinge","familie": "Weißlinge","nameDeutsch": "Grünaderweißling","name": "Pieris napi"},"datum": "2016-08-24","beobachter": "Maria Muster","lat": 51.17043885334601,"lon": 13.683405909253425,"fundort": "Musterstadt","stadium": "Imago","anzahl": 1,"pruefung": "Insekten Sachsen"},{"art": {"ordnung": "Libellen","familie": "Schlanklibellen","nameDeutsch": "Große Pechlibelle","name": "Ischnura elegans"},"datum": "2014-11-21","beobachter": "Max Mustermann","lat": 51.15972092336394,"lon": 13.727923598498995,"fundort": "Musterstadt","stadium": "Imago","anzahl": 1,"pruefung": "Insekten Sachsen"},{"art": {"ordnung": "Schmetterlinge","familie": "Ritterfalter","nameDeutsch": "Schwalbenschwanz","name": "Papilio machaon"},"datum": "2020-09-16","beobachter": "Max Mustermann","lat": 51.20327851225944,"lon": 13.751049156533115,"fundort": "Musterstadt","stadium": "Imago","anzahl": 1,"pruefung": "Insekten Sachsen"},{"art": {"ordnung": "Schmetterlinge","familie": "Schwärmer","nameDeutsch": "Hummelschwärmer","name": "Hemaris fuciformis"},"datum": "2016-07-11","beobachter": "Max Mustermann","lat": 51.08672046849966,"lon": 13.706399656041675,"fundort": "Musterstadt","stadium": "Imago","anzahl": 1,"pruefung": "Insekten Sachsen"},{"art": {"ordnung": "Schmetterlinge","familie": "Schwärmer","nameDeutsch": "Taubenschwänzchen","name": "Macroglossum stellatarum"},"datum": "2019-04-30","beobachter": "Max Mustermann","lat": 51.07174911064592,"lon": 13.74992575101146,"fundort": "Musterstadt","stadium": "Imago","anzahl": 1,"pruefung": "Insekten Sachsen"},{"art": {"ordnung": "Schmetterlinge","familie": "Dickkopffalter","nameDeutsch": "Schwarzkolbiger Braundickkopf","name": "Thymelicus lineola"},"datum": "2018-03-03","beobachter": "Max Mustermann","lat": 50.71944442983023,"lon": 13.707564542429198,"fundort": "Musterstadt","stadium": "Imago","anzahl": 1,"pruefung": "Insekten Sachsen"},{"art": {"ordnung": "Käfer","familie": "Weichkäfer","nameDeutsch": "Roter Weichkäfer","name": "Rhagonycha fulva"},"datum": "2017-04-16","beobachter": "Max Mustermann","lat": 50.750791278405245,"lon": 13.658777135512537,"fundort": "Musterstadt","stadium": "Imago","anzahl": 1,"pruefung": "Insekten Sachsen"},{"art": {"ordnung": "Käfer","familie": "Marienkäfer","nameDeutsch": "Siebenpunkt-Marienkäfer","name": "Coccinella septempunctata"},"datum": "2020-08-23","beobachter": "Maria Muster","lat": 50.737836666581806,"lon": 13.666896046811525,"fundort": "Musterstadt","stadium": "Imago","anzahl": 1,"pruefung": "Insekten Sachsen"},{"art": {"ordnung": "Schmetterlinge","familie": "Edelfalter","nameDeutsch": "Schornsteinfeger","name": "Aphantopus hyperantus"},"datum": "2018-03-06","beobachter": "Max Mustermann","lat": 50.716896223542584,"lon": 13.668370904894822,"fundort": "Musterstadt","stadium": "Imago","anzahl": 1,"pruefung": "Insekten Sachsen"},{"art": {"ordnung": "Käfer","familie": "Bockkäfer","nameDeutsch": "Roter Halsbock","name": "Stictoleptura rubra"},"datum": "2012-04-26","beobachter": "Max Mustermann","lat": 51.179380943826054,"lon": 14.03814929965273,"fundort": "Musterstadt","stadium": "Imago","anzahl": 1,"pruefung": "Insekten Sachsen"},{"art": {"ordnung": "Käfer","familie": "Weichkäfer","nameDeutsch": "Roter Weichkäfer","name": "Rhagonycha fulva"},"datum": "2016-10-15","beobachter": "Maria Muster","lat": 51.17330089291613,"lon": 14.026888015830869,"fundort": "Musterstadt","stadium": "Imago","anzahl": 11,"pruefung": "Insekten Sachsen"},{"art": {"ordnung": "Schmetterlinge","familie": "Edelfalter","nameDeutsch": "Distelfalter","name": "Vanessa cardui"},"datum": "2020-03-01","beobachter": "Maria Muster","lat": 51.17850684798279,"lon": 14.032125312352653,"fundort": "Musterstadt","stadium": "Imago","anzahl": 2,"pruefung": "Insekten Sachsen"},{"art": {"ordnung": "Schmetterlinge","familie": "Edelfalter","nameDeutsch": "Schornsteinfeger","name": "Aphantopus hyperantus"},"datum": "2018-12-06","beobachter": "Max Mustermann","lat": 51.15263274447921,"lon": 14.025334528308981,"fundort": "Musterstadt","stadium": "Imago","anzahl": 1,"pruefung": "Insekten Sachsen"},{"art": {"ordnung": "Käfer","familie": "Blatthornkäfer","nameDeutsch": "Glattschieniger Pinselkäfer","name": "Trichius gallicus"},"datum": "2012-05-13","beobachter": "Maria Muster","lat": 51.163570259010996,"lon": 14.028722507200042,"fundort": "Musterstadt","stadium": "Imago","anzahl": 1,"pruefung": "Insekten Sachsen"},{"art": {"ordnung": "Schmetterlinge","familie": "Wickler","nameDeutsch": "Apfelwickler","name": "Cydia pomonella"},"datum": "2021-01-12","beobachter": "Maria Muster","lat": 51.190948574308386,"lon": 13.937296823696128,"fundort": "Musterstadt","stadium": "Imago","anzahl": 6,"pruefung": "Insekten Sachsen"},{"art": {"ordnung": "Schmetterlinge","familie": "Zünsler","nameDeutsch": "Geflammter Kleinzünsler","name": "Endotricha flammealis"},"datum": "2014-10-07","beobachter": "Maria Muster","lat": 51.18335626097702,"lon": 13.946331706464813,"fundort": "Musterstadt","stadium": "Imago","anzahl": 1,"pruefung": "Insekten Sachsen"},{"art": {"ordnung": "Schmetterlinge","familie": "Bläulinge","nameDeutsch": "Gemeiner Bläuling","name": "Polyommatus icarus"},"datum": "2016-10-13","beobachter": "Max Mustermann","lat": 47.4141012133505,"lon": 19.227862477172167,"fundort": "Musterstadt","stadium": "Imago","anzahl": 1,"pruefung": "iNaturalist"},{"art": {"ordnung": "Schmetterlinge","familie": "Edelfalter","nameDeutsch": "Tagpfauenauge","name": "Aglais io"},"datum": "2011-07-02","beobachter": "Maria Muster","lat": 51.193109588813776,"lon": 13.937528123608752,"fundort": "Musterstadt","stadium": "Imago","anzahl": 1,"pruefung": "Insekten Sachsen"},{"art": {"ordnung": "Schmetterlinge","familie": "Edelfalter","nameDeutsch": "Kleiner Fuchs","name": "Aglais urticae"},"datum": "2016-12-21","beobachter": "Maria Muster","lat": 51.19877145765396,"lon": 13.955188751302321,"fundort": "Musterstadt","stadium": "Imago","anzahl": 1,"pruefung": "Insekten Sachsen"},{"art": {"ordnung": "Schmetterlinge","familie": "Eulenfalter","nameDeutsch": "Hausmutter","name": "Noctua pronuba"},"datum": "2020-06-11","beobachter": "Maria Muster","lat": 51.16988708899207,"lon": 13.96277108597403,"fundort": "Musterstadt","stadium": "Imago","anzahl": 1,"pruefung": "Insekten Sachsen"},{"art": {"ordnung": "Schmetterlinge","familie": "Ritterfalter","nameDeutsch": "Segelfalter","name": "Iphiclides podalirius"},"datum": "2011-11-20","beobachter": "Maria Muster","lat": 51.179980965209715,"lon": 13.98355788876184,"fundort": "Musterstadt","stadium": "Imago","anzahl": 1,"pruefung": "Insekten Sachsen"},{"art": {"ordnung": "Schmetterlinge","familie": "Weißlinge","nameDeutsch": "Zitronenfalter","name": "Gonepteryx rhamni"},"datum": "2020-03-26","beobachter": "Maria Muster","lat": 51.197047442955764,"lon": 13.949619877658849,"fundort": "Musterstadt","stadium": "Imago","anzahl": 1,"pruefung": "iNaturalist"},{"art": {"ordnung": "Schnabelkerfe","familie": "Schildwanzen","nameDeutsch": "Gemeine Getreidewanze","name": "Eurygaster maura"},"datum": "2012-01-24","beobachter": "Max Mustermann","lat": 51.17330224193108,"lon": 13.981608640796157,"fundort": "Musterstadt","stadium": "Imago","anzahl": 1,"pruefung": "Insekten Sachsen"},{"art": {"ordnung": "Hautflügler","familie": "Echte Bienen","nameDeutsch": "Große Holzbiene","name": "Xylocopa violacea"},"datum": "2011-10-24","beobachter": "Max Mustermann","lat": 51.077430433040846,"lon": 13.696478750979137,"fundort": "Musterstadt","stadium": "Imago","anzahl": 1,"pruefung": "Insekten Sachsen"},{"art": {"ordnung": "Schmetterlinge","familie": "Edelfalter","nameDeutsch": "Großes Ochsenauge","name": "Maniola jurtina"},"datum": "2021-01-04","beobachter": "Maria Muster","lat": 51.07962869959176,"lon": 13.70953295705086,"fundort": "Musterstadt","stadium": "Imago","anzahl": 1,"pruefung": "Insekten Sachsen"},{"art": {"ordnung": "Schmetterlinge","familie": "Ritterfalter","nameDeutsch": "Schwalbenschwanz","name": "Papilio machaon"},"datum": "2013-11-10","beobachter": "Max Mustermann","lat": 51.18145553715322,"lon": 13.983882725346765,"fundort": "Musterstadt","stadium": "Imago","anzahl": 1,"pruefung": "Insekten Sachsen"},{"art": {"ordnung": "Schmetterlinge","familie": "Edelfalter","nameDeutsch": "Kleiner Fuchs","name": "Aglais urticae"},"datum": "2014-08-06","beobachter": "Maria Muster","lat": 51.18163274750715,"lon": 13.98305764852395,"fundort": "Musterstadt","stadium": "Imago","anzahl": 1,"pruefung": "Insekten Sachsen"},{"art": {"ordnung": "Schmetterlinge","familie": "Eulenfalter","nameDeutsch": "Gammaeule","name": "Autographa gamma"},"datum": "2018-07-11","beobachter": "Maria Muster","lat": 51.17574097765217,"lon": 13.964336696559501,"fundort": "Musterstadt","stadium": "Imago","anzahl": 3,"pruefung": "Insekten Sachsen"},{"art": {"ordnung": "Libellen","familie": "Prachtlibellen","nameDeutsch": "Blauflügel-Prachtlibelle","name": "Calopteryx virgo"},"datum": "2011-10-04","beobachter": "Max Mustermann","lat": 51.18353687959338,"lon": 13.940314235177429,"fundort": "Musterstadt","stadium": "Imago","anzahl": 1,"pruefung": "Insekten Sachsen"},{"art": {"ordnung": "Schmetterlinge","familie": "Bläulinge","nameDeutsch": "Faulbaumbläuling","name": "Celastrina argiolus"},"datum": "2016-10-26","beobachter": "Maria Muster","lat": 51.178615393767586,"lon": 13.93237960046149,"fundort": "Musterstadt","stadium": "Imago","anzahl": 1,"pruefung": "Insekten Sachsen"},{"art": {"ordnung": "Schmetterlinge","familie": "Edelfalter","nameDeutsch": "Waldbrettspiel","name": "Pararge aegeria"},"datum": "2020-11-13","beobachter": "Max Mustermann","lat": 51.17336968815533,"lon": 13.93596290090286,"fundort": "Musterstadt","stadium": "Imago","anzahl": 1,"pruefung": "Insekten Sachsen"},{"art": {"ordnung": "Schmetterlinge","familie": "Bläulinge","nameDeutsch": "Kleiner Feuerfalter","name": "Lycaena phlaeas"},"datum": "2015-10-07","beobachter": "Max Mustermann","lat": 51.1727849176003,"lon": 13.981613397441544,"fundort": "Musterstadt","stadium": "Imago","anzahl": 1,"pruefung": "Insekten Sachsen"},{"art": {"ordnung": "Zweiflügler","familie": "Schwebfliegen","nameDeutsch": "Gemeine Waldschwebfliege","name": "Volucella pellucens"},"datum": "2014-06-21","beobachter": "Maria Muster","lat": 51.20583852032306,"lon": 13.899577715023664,"fundort": "Musterstadt","stadium": "Imago","anzahl": 1,"pruefung": "Insekten Sachsen"},{"art": {"ordnung": "Zweiflügler","familie": "Schwebfliegen","nameDeutsch": "Hornissenschwebfliege","name": "Volucella zonaria"},"datum": "2018-12-14","beobachter": "Maria Muster","lat": 51.20289082123961,"lon": 13.924235566716417,"fundort": "Musterstadt","stadium": "Imago","anzahl": 1,"pruefung": "Insekten Sachsen"},{"art": {"ordnung": "Libellen","familie": "Segellibellen","nameDeutsch": "Blutrote Heidelibelle","name": "Sympetrum sanguineum"},"datum": "2012-03-01","beobachter": "Max Mustermann","lat": 51.15769855193951,"lon": 13.97473961069653,"fundort": "Musterstadt","stadium": "Imago","anzahl": 3,"pruefung": "Insekten Sachsen"},{"art": {"ordnung": "Schnabelkerfe","familie": "Randwanzen","nameDeutsch": "Wacholder-Randwanze","name": "Gonocerus juniperi"},"datum": "2012-09-25","beobachter": "Max Mustermann","lat": 51.150509044800025,"lon": 13.997246689198729,"fundort": "Musterstadt","stadium": "Imago","anzahl": 3,"pruefung": "Insekten Sachsen"},{"art": {"ordnung": "Schnabelkerfe","familie": "Stachelwanzen","nameDeutsch": "Buntrock","name": "Cyphostethus tristriatus"},"datum": "2015-10-24","beobachter": "Maria Muster","lat": 51.16931231249462,"lon": 13.975711358895955,"fundort": "Musterstadt","stadium": "Imago","anzahl": 2,"pruefung": "Insekten Sachsen"},{"art": {"ordnung": "Schmetterlinge","familie": "Edelfalter","nameDeutsch": "Admiral","name": "Vanessa atalanta"},"datum": "2014-08-29","beobachter": "Maria Muster","lat": 51.204432013624384,"lon": 13.955453434062166,"fundort": "Musterstadt","stadium": "Imago","anzahl": 1,"pruefung": "Insekten Sachsen"},{"art": {"ordnung": "Schnabelkerfe","familie": "Baumwanzen","nameDeutsch": "Grüne Stinkwanze","name": "Palomena prasina"},"datum": "2016-04-25","beobachter": "Max Mustermann","lat": 51.15529608941753,"lon": 13.990657606057855,"fundort": "Musterstadt","stadium": "Imago","anzahl": 1,"pruefung": "Insekten Sachsen"},{"art": {"ordnung": "Schmetterlinge","familie": "Edelfalter","nameDeutsch": "Schornsteinfeger","name": "Aphantopus hyperantus"},"datum": "2016-12-31","beobachter": "Maria Muster","lat": 51.19018032830247,"lon": 13.93479232742806,"fundort": "Musterstadt","stadium": "Imago","anzahl": 1,"pruefung": "Insekten Sachsen"},{"art": {"ordnung": "Schmetterlinge","familie": "Edelfalter","nameDeutsch": "Großes Ochsenauge","name": "Maniola jurtina"},"datum": "2011-05-31","beobachter": "Max Mustermann","lat": 51.18249608582704,"lon": 13.931764628477463,"fundort": "Musterstadt","stadium": "Imago","anzahl": 1,"pruefung": "Insekten Sachsen"},{"art": {"ordnung": "Schmetterlinge","familie": "Bläulinge","nameDeutsch": "Kleiner Feuerfalter","name": "Lycaena phlaeas"},"datum": "2019-12-12","beobachter": "Maria Muster","lat": 51.18266562371814,"lon": 13.94837287931277,"fundort": "Musterstadt","stadium": "Imago","anzahl": 1,"pruefung": "Insekten Sachsen"},{"art": {"ordnung": "Schmetterlinge","familie": "Edelfalter","nameDeutsch": "Kaisermantel","name": "Argynnis paphia"},"datum": "2011-12-26","beobachter": "Max Mustermann","lat": 51.17319597520175,"lon": 13.967669754548943,"fundort": "Musterstadt","stadium": "Imago","anzahl": 1,"pruefung": "Insekten Sachsen"},{"art": {"ordnung": "Libellen","familie": "Segellibellen","nameDeutsch": "Großer Blaupfeil","name": "Orthetrum cancellatum"},"datum": "2019-04-04","beobachter": "Maria Muster","lat": 51.183193455693925,"lon": 13.948983539079121,"fundort": "Musterstadt","stadium": "Imago","anzahl": 1,"pruefung": "Insekten Sachsen"},{"art": {"ordnung": "Libellen","familie": "Edellibellen","nameDeutsch": "Blaugrüne Mosaikjungfer","name": "Aeshna cyanea"},"datum": "2013-07-03","beobachter": "Maria Muster","lat": 51.21967688664988,"lon": 13.918926466842677,"fundort": "Musterstadt","stadium": "Imago","anzahl": 1,"pruefung": "Insekten Sachsen"},{"art": {"ordnung": "Libellen","familie": "Prachtlibellen","nameDeutsch": "Blauflügel-Prachtlibelle","name": "Calopteryx virgo"},"datum": "2011-05-07","beobachter": "Maria Muster","lat": 51.21586461784763,"lon": 13.885084368240653,"fundort": "Musterstadt","stadium": "Imago","anzahl": 1,"pruefung": "Insekten Sachsen"},