[{"art": {"ordnung": "Schmetterlinge","familie": "Eulenfalter","nameDeutsch": "Buchen-Streckfuß","name": "Calliteara pudibunda"},"datum": "2018-12-29","beobachter": "Maria Muster","lat": 51.20493591657933,"lon": 13.959496901704645,"fundort": "Musterstadt","stadium": "Larve","anzahl": 1,"pruefung": "Insekten Sachsen"},{"art": {"ordnung": "Schmetterlinge","familie": "Zahnspinner","nameDeutsch": "Zickzack-Zahnspinner","name": "Notodonta ziczac"},"datum": "2012-08-26","beobachter": "Max Mustermann","lat": 51.18260998843628,"lon": 13.986030468141173,"fundort": "Musterstadt","stadium": "Imago","anzahl": 1,"pruefung": "Insekten Sachsen"},{"art": {"ordnung": "Käfer","familie": "Blattkäfer","nameDeutsch": "Lilienhähnchen","name": "Lilioceris lilii"},"datum": "2017-06-24","beobachter": "Max Mustermann","lat": 51.19269579743062,"lon": 13.979504837894506,"fundort": "Musterstadt","stadium": "Imago","anzahl": 2,"pruefung": "Insekten Sachsen"},{"art": {"ordnung": "Käfer","familie": "Blattkäfer","nameDeutsch": "Gefleckter Weidenblattkäfer","name": "Chrysomela vigintipunctata"},"datum": "2017-09-23","beobachter": "Max Mustermann","lat": 51.18342905759076,"lon": 13.952862668900384,"fundort": "Musterstadt","stadium": "Imago","anzahl": 1,"pruefung": "Insekten Sachsen"},{"art": {"ordnung": "Schmetterlinge","familie": "Edelfalter","nameDeutsch": "C-Falter","name": "Polygonia c-album"},"datum": "2019-12-12","beobachter": "Max Mustermann","lat": 51.17446959633812,"lon": 13.973851397394792,"fundort": "Musterstadt","stadium": "Imago","anzahl": 1,"pruefung": "Insekten Sachsen"},{"art": {"ordnung": "Schmetterlinge","familie": "Eulenfalter","nameDeutsch": "Grüne Meldeneule","name": "Trachea atriplicis"},"datum": "2017-09-11","beobachter": "Maria Muster","lat": 51.190744365455146,"lon": 13.959418710656905,"fundort": "Musterstadt","stadium": "Imago","anzahl": 1,"pruefung": "Insekten Sachsen"},{"art": {"ordnung": "Schmetterlinge","familie": "Ritterfalter","nameDeutsch": "Schwalbenschwanz","name": "Papilio machaon"},"datum": "2019-10-23","beobachter": "Maria Muster","lat": 51.8045251629942,"lon": 14.330142976091215,"fundort": "Musterstadt","stadium": "Larve","anzahl": 1,"pruefung": "Insekten Sachsen"},{"art": {"ordnung": "Schmetterlinge","familie": "Edelfalter","nameDeutsch": "Kaisermantel","name": "Argynnis paphia"},"datum": "2018-03-21","beobachter": "Max Mustermann","lat": 51.178733375421025,"lon": 13.967657721858691,"fundort": "Musterstadt","stadium": "Imago","anzahl": 1,"pruefung": "Insekten Sachsen"},{"art": {"ordnung": "Käfer","familie": "Bockkäfer","nameDeutsch": "Großer Pappelbock","name": "Saperda carcharias"},"datum": "2016-02-10","beobachter": "Maria Muster","lat": 51.20584173977931,"lon": 13.954560436799968,"fundort": "Musterstadt","stadium": "Imago","anzahl": 1,"pruefung": "Insekten Sachsen"},{"art": {"ordnung": "Schmetterlinge","familie": "Schwärmer","nameDeutsch": "Kiefernschwärmer","name": "Sphinx pinastri"},"datum": "2015-02-24","beobachter": "Max Mustermann","lat": 51.18147918224362,"lon": 13.94946579402169,"fundort": "Musterstadt","stadium": "Imago","anzahl": 1,"pruefung": "Insekten Sachsen"},{"art": {"ordnung": "Schmetterlinge","familie": "Edelfalter","nameDeutsch": "Tagpfauenauge","name": "Aglais io"},"datum": "2017-08-01","beobachter": "Maria Muster","lat": 49.43384060150349,"lon": 6.635010663532235,"fundort": "Musterstadt","stadium": "Imago","anzahl": 1,"pruefung": "iNaturalist"},{"art": {"ordnung": "Schmetterlinge","familie": "Holzbohrer","nameDeutsch": "Blausieb","name": "Zeuzera pyrina"},"datum": "2020-10-08","beobachter": "Maria Muster","lat": 51.19912872521469,"lon": 13.942880595889388,"fundort": "Musterstadt","stadium": "Imago","anzahl": 1,"pruefung": "Insekten Sachsen"},{"art": {"ordnung": "Schmetterlinge","familie": "Edelfalter","nameDeutsch": "Tagpfauenauge","name": "Aglais io"},"datum": "2012-10-23","beobachter": "Max Mustermann","lat": 50.63697995823136,"lon": 13.505366924388403,"fundort": "Musterstadt","stadium": "Imago","anzahl": 1,"pruefung": "Insekten Sachsen"},{"art": {"ordnung": "Schmetterlinge","familie": "Edelfalter","nameDeutsch": "Tagpfauenauge","name": "Aglais io"},"datum": "2015-12-18","beobachter": "Maria Muster","lat": 51.04090172447192,"lon": 13.741710172606334,"fundort": "Musterstadt","stadium": "Imago","anzahl": 1,"pruefung": "Insekten Sachsen"},{"art": {"ordnung": "Hautflügler","familie": "Echte Bienen","nameDeutsch": "Frühlings-Pelzbiene","name": "Anthophora plumipes"},"datum": "2014-08-01","beobachter": "Maria Muster","lat": 51.18684060206257,"lon": 13.944949822548256,"fundort": "Musterstadt","stadium": "Imago","anzahl": 1,"pruefung": "Insekten Sachsen"},{"art": {"ordnung": "Käfer","familie": "Blatthornkäfer","nameDeutsch": "Junikäfer","name": "Amphimallon solstitiale"},"datum": "2016-11-11","beobachter": "Max Mustermann","lat": 51.187271758445235,"lon": 13.973865463839994,"fundort": "Musterstadt","stadium": "Imago","anzahl": 1,"pruefung": "Insekten Sachsen"},{"art": {"ordnung": "Schmetterlinge","familie": "Edelfalter","nameDeutsch": "Kaisermantel","name": "Argynnis paphia"},"datum": "2014-10-02","beobachter": "Max Mustermann","lat": 44.53884367198683,"lon": 15.114747495374708,"fundort": "Musterstadt","stadium": "Imago","anzahl": 1,"pruefung": "iNaturalist"},{"art": {"ordnung": "Schmetterlinge","familie": "Eulenfalter","nameDeutsch": "Russischer Bär","name": "Euplagia quadripunctaria"},"datum": "2015-09-27","beobachter": "Maria Muster","lat": 44.553803327625346,"lon": 15.041698889251697,"fundort": "Musterstadt","stadium": "Imago","anzahl": 1,"pruefung": "iNaturalist"},{"art": {"ordnung": "Fangschrecken","familie": "Mantidae","nameDeutsch": "Europäische Gottesanbeterin","name": "Mantis religiosa"},"datum": "2016-12-02","beobachter": "Maria Muster","lat": 44.57852858940897,"lon": 15.021314212957014,"fundort": "Musterstadt","stadium": "Imago","anzahl": 1,"pruefung": "iNaturalist"},{"art": {"ordnung": "Schmetterlinge","familie": "Eulenfalter","nameDeutsch": "Pappelkarmin","name": "Catocala elocata"},"datum": "2014-12-11","beobachter": "Maria Muster","lat": 51.191782291798965,"lon": 13.939904178189428,"fundort": "Musterstadt","stadium": "Larve","anzahl": 1,"pruefung": "Insekten Sachsen"},{"art": {"ordnung": "Schmetterlinge","familie": "Holzbohrer","nameDeutsch": "Weidenbohrer","name": "Cossus cossus"},"datum": "2020-03-14","beobachter": "Maria Muster","lat": 51.20311180350569,"lon": 13.942786264251838,"fundort": "Musterstadt","stadium": "Larve","anzahl": 1,"pruefung": "Insekten Sachsen"},{"art": {"ordnung": "Schmetterlinge","familie": "Eulenfalter","nameDeutsch": "Schwammspinner","name": "Lymantria dispar"},"datum": "2013-04-30","beobachter": "Maria Muster","lat": 51.138430376285946,"lon": 13.59162260152326,"fundort": "Musterstadt","stadium": "Larve","anzahl": 1,"pruefung": "Insekten Sachsen"},{"art": {"ordnung": "Käfer","familie": "Blatthornkäfer","nameDeutsch": "Walker","name": "Polyphylla fullo"},"datum": "2011-08-17","beobachter": "Max Mustermann","lat": 51.06924783719419,"lon": 13.716904887115952,"fundort": "Musterstadt","stadium": "Imago","anzahl": 1,"pruefung": "Insekten Sachsen"},{"art": {"ordnung": "Schmetterlinge","familie": "Eulenfalter","nameDeutsch": "Pyramideneule","name": "Amphipyra pyramidea"},"datum": "2015-09-08","beobachter": "Max Mustermann","lat": 51.17008837480589,"lon": 13.97745110619301,"fundort": "Musterstadt","stadium": "Imago","anzahl": 1,"pruefung": "Insekten Sachsen"},{"art": {"ordnung": "Libellen","familie": "Prachtlibellen","nameDeutsch": "Blauflügel-Prachtlibelle","name": "Calopteryx virgo"},"datum": "2014-12-11","beobachter": "Maria Muster","lat": 49.5455460282061,"lon": 11.38735352926652,"fundort": "Musterstadt","stadium": "Imago","anzahl": 1,"pruefung": "iNaturalist"},{"art": {"ordnung": "Schmetterlinge","familie": "Ritterfalter","nameDeutsch": "Segelfalter","name": "Iphiclides podalirius"},"datum": "2019-04-02","beobachter": "Maria Muster","lat": 44.12764836836844,"lon": 15.192545018984555,"fundort": "Musterstadt","stadium": "Imago","anzahl": 1,"pruefung": "iNaturalist"},{"art": {"ordnung": "Käfer","familie": "Rüsselkäfer","nameDeutsch": "Otiorhynchus cardiniger","name": "Otiorhynchus cardiniger"},"datum": "2016-09-07","beobachter": "Maria Muster","lat": 44.56752550528121,"lon": 14.995262438331498,"fundort": "Musterstadt","stadium": "Imago","anzahl": 1,"pruefung": "iNaturalist"},{"art": {"ordnung": "Heuschrecken","familie": "Feldheuschrecken","nameDeutsch": "Italienische Schönschrecke","name": "Calliptamus italicus"},"datum": "2016-11-02","beobachter": "Maria Muster","lat": 44.56331960910059,"lon": 15.006791633704164,"fundort": "Musterstadt","stadium": "Imago","anzahl": 1,"pruefung": "iNaturalist"},{"art": {"ordnung": "Schnabelkerfen","familie": "Singzikaden","nameDeutsch": "Gemeine Singzikade","name": "Lyristes plebejus"},"datum": "2014-07-24","beobachter": "Max Mustermann","lat": 44.541699849674295,"lon": 15.041573641385552,"fundort": "Musterstadt","stadium": "Imago","anzahl": 1,"pruefung": "iNaturalist"},{"art": {"ordnung": "Libellen","familie": "Schlanklibellen","nameDeutsch": "Gemeine Becherjungfer","name": "Enallagma cyathigerum"},"datum": "2018-09-30","beobachter": "Max Mustermann","lat": 44.870546432808304,"lon": 15.578315535767423,"fundort": "Musterstadt","stadium": "Imago","anzahl": 1,"pruefung": "iNaturalist"},{"art": {"ordnung": "Schmetterlinge","familie": "Edelfalter","nameDeutsch": "Kaisermantel","name": "Argynnis paphia"},"datum": "2017-11-27","beobachter": "Max Mustermann","lat": 44.872465702222556,"lon": 15.592166671355171,"fundort": "Musterstadt","stadium": "Imago","anzahl": 1,"pruefung": "iNaturalist"},{"art": {"ordnung": "Libellen","familie": "Segellibellen","nameDeutsch": "Kleiner Blaupfeil","name": "Orthetrum coerulescens"},"datum": "2014-10-30","beobachter": "Maria Muster","lat": 44.89136967096297,"lon": 15.56789765746309,"fundort": "Musterstadt","stadium": "Imago","anzahl": 1,"pruefung": "iNaturalist"},{"art": {"ordnung": "Käfer","familie": "Prachtkäfer","nameDeutsch": "Buprestis cupressi","name": "Buprestis cupressi"},"datum": "2020-04-12","beobachter": "Max Mustermann","lat": 44.57415843308029,"lon": 15.017578342994907,"fundort": "Musterstadt","stadium": "Imago","anzahl": 1,"pruefung": "iNaturalist"},{"art": {"ordnung": "Schmetterlinge","familie": "Eulenfalter","nameDeutsch": "Russischer Bär","name": "Euplagia quadripunctaria"},"datum": "2011-12-29","beobachter": "Maria Muster","lat": 50.84492513724506,"lon": 13.931164309771248,"fundort": "Musterstadt","stadium": "Imago","anzahl": 1,"pruefung": "Insekten Sachsen"},{"art": {"ordnung": "Schmetterlinge","familie": "Edelfalter","nameDeutsch": "Großer Schillerfalter","name": "Apatura iris"},"datum": "2018-12-21","beobachter": "Maria Muster","lat": 50.85361946556178,"lon": 13.916824623932506,"fundort": "Musterstadt","stadium": "Imago","anzahl": 1,"pruefung": "Insekten Sachsen"},{"art": {"ordnung": "Schmetterlinge","familie": "Edelfalter","nameDeutsch": "Kaisermantel","name": "Argynnis paphia"},"datum": "2017-07-17","beobachter": "Maria Muster","lat": 50.82051213173734,"lon": 13.939010962350865,"fundort": "Musterstadt","stadium": "Imago","anzahl": 1,"pruefung": "Insekten Sachsen"},{"art": {"ordnung": "Schmetterlinge","familie": "Edelfalter","nameDeutsch": "Tagpfauenauge","name": "Aglais io"},"datum": "2017-08-27","beobachter": "Maria Muster","lat": 50.82279601001763,"lon": 13.936528993541975,"fundort": "Musterstadt","stadium": "Imago","anzahl": 1,"pruefung": "Insekten Sachsen"},{"art": {"ordnung": "Schmetterlinge","familie": "Edelfalter","nameDeutsch": "Waldbrettspiel","name": "Pararge aegeria"},"datum": "2013-09-26","beobachter": "Maria Muster","lat": 50.85969472872438,"lon": 13.89177361017614,"fundort": "Musterstadt","stadium": "Imago","anzahl": 1,"pruefung": "Insekten Sachsen"},{"art": {"ordnung": "Schmetterlinge","familie": "Ritterfalter","nameDeutsch": "Segelfalter","name": "Iphiclides podalirius"},"datum": "2019-10-02","beobachter": "Maria Muster","lat": 51.816274155573815,"lon": 14.331672568287864,"fundort": "Musterstadt","stadium": "Imago","anzahl": 1,"pruefung": "Insekten Sachsen"},{"art": {"ordnung": "Schmetterlinge","familie": "Edelfalter","nameDeutsch": "Admiral","name": "Vanessa atalanta"},"datum": "2012-07-31","beobachter": "Max Mustermann","lat": 51.79789068338136,"lon": 14.37535054981535,"fundort": "Musterstadt","stadium": "Imago","anzahl": 1,"pruefung": "Insekten Sachsen"},{"art": {"ordnung": "Schmetterlinge","familie": "Eulenfalter","nameDeutsch": "Buchen-Streckfuß","name": "Calliteara pudibunda"},"datum": "2019-10-01","beobachter": "Max Mustermann","lat": 50.93742751502666,"lon": 14.098819525987384,"fundort": "Musterstadt","stadium": "Larve","anzahl": 1,"pruefung": "Insekten Sachsen"},{"art": {"ordnung": "Schmetterlinge","familie": "Glucken","nameDeutsch": "Grasglucke","name": "Euthrix potatoria"},"datum": "2011-11-10","beobachter": "Maria Muster","lat": 51.26821381192642,"lon": 13.821329150983095,"fundort": "Musterstadt","stadium": "Larve","anzahl": 1,"pruefung": "Insekten Sachsen"},{"art": {"ordnung": "Schmetterlinge","familie": "Edelfalter","nameDeutsch": "Tagpfauenauge","name": "Aglais io"},"datum": "2021-01-02","beobachter": "Max Mustermann","lat": 51.77548631898601,"lon": 14.382972164241314,"fundort": "Musterstadt","stadium": "Imago","anzahl": 3,"pruefung": "Insekten Sachsen"},{"art": {"ordnung": "Käfer","familie": "Bockkäfer","nameDeutsch": "Moschusbock","name": "Aromia moschata"},"datum": "2014-08-07","beobachter": "Maria Muster","lat": 51.20353244127205,"lon": 13.96616716219133,"fundort": "Musterstadt","stadium": "Imago","anzahl": 1,"pruefung": "Insekten Sachsen"},{"art": {"ordnung": "Schmetterlinge","familie": "Ritterfalter","nameDeutsch": "Segelfalter","name": "Iphiclides podalirius"},"datum": "2017-10-03","beobachter": "Maria Muster","lat": 43.9593176029202,"lon": 12.441937498419895,"fundort": "Musterstadt","stadium": "Imago","anzahl": 1,"pruefung": "iNaturalist"},{"art": {"ordnung": "Schmetterlinge","familie": "Ritterfalter","nameDeutsch": "Schwalbenschwanz","name": "Papilio machaon"},"datum": "2017-05-21","beobachter": "Maria Muster","lat": 43.94076952633105,"lon": 12.412506632144439,"fundort": "Musterstadt","stadium": "Imago","anzahl": 1,"pruefung": "iNaturalist"},{"art": {"ordnung": "Schmetterlinge","familie": "Ritterfalter","nameDeutsch": "Segelfalter","name": "Iphiclides podalirius"},"datum": "2013-08-15","beobachter": "Max Mustermann","lat": 43.907465816078535,"lon": 12.486442512596678,"fundort": "Musterstadt","stadium": "Imago","anzahl": 1,"pruefung": "iNaturalist"},{"art": {"ordnung": "Hautflügler","familie": "Faltenwespen","nameDeutsch": "Hornisse","name": "Vespa crabro"},"datum": "2016-03-09","beobachter": "Max Mustermann","lat": 51.18533818525407,"lon": 13.97636061073726,"fundort": "Musterstadt","stadium": "Imago","anzahl": 1,"pruefung": "Insekten Sachsen"},{"art": {"ordnung": "Heuschrecken","familie": "Echte Grillen","nameDeutsch": "Feldgrille","name": "Gryllus campestris"},"datum": "2012-10-28","beobachter": "Max Mustermann","lat": 51.12525537219188,"lon": 13.638123310621793,"fundort": "Musterstadt","stadium": "Imago","anzahl": 1,"pruefung": "Insekten Sachsen"},{"art": {"ordnung": "Käfer","familie": "Blatthornkäfer","nameDeutsch": "Sugarcane White Grub","name": "Lepidiota stigma"},"datum": "2016-06-19","beobachter": "Maria Muster","lat": 7.795434963079544,"lon": 98.72033542644414,"fundort": "Musterstadt","stadium": "Imago","anzahl": 1,"pruefung": "iNaturalist"},{"art": {"ordnung": "Schmetterlinge","familie": "Edelfalter","nameDeutsch": "Lemon Pansy","name": "Junonia lemonias"},"datum": "2014-07-24","beobachter": "Maria Muster","lat": 7.808533145991718,"lon": 98.73314183435802,"fundort": "Musterstadt","stadium": "Imago","anzahl": 1,"pruefung": "iNaturalist"},{"art": {"ordnung": "Libellen","familie": "Segellibellen","nameDeutsch": "Common Picture Wing","name": "Rhyothemis variegata"},"datum": "2013-07-15","beobachter": "Max Mustermann","lat": 13.427860313269122,"lon": 103.86375900210827,"fundort": "Musterstadt","stadium": "Imago","anzahl": 1,"pruefung": "iNaturalist"},{"art": {"ordnung": "Schmetterlinge","familie": "Crambidae","nameDeutsch": "Brennnesselzünsler","name": "Anania hortulata"},"datum": "2013-05-07","beobachter": "Maria Muster","lat": 51.20070877921178,"lon": 13.941327703939926,"fundort": "Musterstadt","stadium": "Imago","anzahl": 1,"pruefung": "Insekten Sachsen"},{"art": {"ordnung": "Käfer","familie": "Leuchtkäfer","nameDeutsch": "Glühwürmchen","name": "Lamprohiza splendidula"},"datum": "2017-04-12","beobachter": "Max Mustermann","lat": 51.184879363788475,"lon": 13.964675269680694,"fundort": "Musterstadt","stadium": "Imago","anzahl": 1,"pruefung": "Insekten Sachsen"},{"art": {"ordnung": "Schmetterlinge","familie": "Erebidae","nameDeutsch": "Brauner Bär","name": "Arctia caja"},"datum": "2015-09-24","beobachter": "Maria Muster","lat": 51.19806098559553,"lon": 13.922234657490124,"fundort": "Musterstadt","stadium": "Imago","anzahl": 1,"pruefung": "Insekten Sachsen"},{"art": {"ordnung": "Schmetterlinge","familie": "Schwärmer","nameDeutsch": "Taubenschwänzchen","name": "Macroglossum stellatarum"},"datum": "2015-01-09","beobachter": "Max Mustermann","lat": 50.959683180093954,"lon": 13.900007911897289,"fundort": "Musterstadt","stadium": "Imago","anzahl": 1,"pruefung": "Insekten Sachsen"},{"art": {"ordnung": "Schmetterlinge","familie": "Edelfalter","nameDeutsch": "Kleiner Fuchs","name": "Aglais urticae"},"datum": "2015-11-20","beobachter": "Maria Muster","lat": 51.16847233451474,"lon": 13.960164383970868,"fundort": "Musterstadt","stadium": "Imago","anzahl": 1,"pruefung": "Insekten Sachsen"},{"art": {"ordnung": "Schmetterlinge","familie": "Edelfalter","nameDeutsch": "Tagpfauenauge","name": "Aglais io"},"datum": "2011-11-05","beobachter": "Maria Muster","lat": 51.17743158896196,"lon": 13.977336233805298,"fundort": "Musterstadt","stadium": "Imago","anzahl": 1,"pruefung": "Insekten Sachsen"},{"art": {"ordnung": "Käfer","familie": "Blatthornkäfer","nameDeutsch": "Eremit","name": "Osmoderma eremita"},"datum": "2015-12-19","beobachter": "Max Mustermann","lat": 50.967075364526934,"lon": 13.89730049429682,"fundort": "Musterstadt","stadium": "Imago","anzahl": 1,"pruefung": "Insekten Sachsen"},{"art": {"ordnung": "Schmetterlinge","familie": "Schwärmer","nameDeutsch": "Taubenschwänzchen","name": "Macroglossum stellatarum"},"datum": "2019-11-07","beobachter": "Maria Muster","lat": 51.209742807881646,"lon": 13.930862891061077,"fundort": "Musterstadt","stadium": "Imago","anzahl": 1,"pruefung": "Insekten Sachsen"},{"art": {"ordnung": "Schnabelkerfen","familie": "Zwergzikaden","nameDeutsch": "Rhododendronzikade","name": "Graphocephala fennahi"},"datum": "2020-07-12","beobachter": "Max Mustermann","lat": 51.1782525947857,"lon": 13.979072896683377,"fundort": "Musterstadt","stadium": "Imago","anzahl": 2,"pruefung": "Insekten Sachsen"},{"art": {"ordnung": "Schmetterlinge","familie": "Weißlinge","nameDeutsch": "Kleiner Kohlweißling","name": "Pieris rapae"},"datum": "2016-03-27","beobachter": "Max Mustermann","lat": 50.79479494833197,"lon": 5.679599509686334,"fundort": "Musterstadt","stadium": "Imago","anzahl": 1,"pruefung": "iNaturalist"},{"art": {"ordnung": "Schnabelkerfen","familie": "Randwanzen","nameDeutsch": "Lederwanze","name": "Coreus marginatus"},"datum": "2012-09-27","beobachter": "Max Mustermann","lat": 51.18354175486491,"lon": 13.97857754252213,"fundort": "Musterstadt","stadium": "Imago","anzahl": 1,"pruefung": "Insekten Sachsen"},{"art": {"ordnung": "Libellen","familie": "Segellibellen","nameDeutsch": "Gemeine Heidelibelle","name": "Sympetrum vulgatum"},"datum": "2017-11-05","beobachter": "Max Mustermann","lat": 51.73811734804629,"lon": 14.358809758295235,"fundort": "Musterstadt","stadium": "Imago","anzahl": 1,"pruefung": "Insekten Sachsen"},{"art": {"ordnung": "Käfer","familie": "Weichkäfer","nameDeutsch": "Gemeiner Weichkäfer","name": "Cantharis fusca"},"datum": "2017-03-13","beobachter": "Maria Muster","lat": 51.08755638627994,"lon": 13.671775711220057,"fundort": "Musterstadt","stadium": "Imago","anzahl": 1,"pruefung": "Insekten Sachsen"},{"art": {"ordnung": "Hautflügler","familie": "Echte Bienen","nameDeutsch": "Ackerhummel","name": "Bombus pascuorum"},"datum": "2018-05-24","beobachter": "Maria Muster","lat": 51.20291171386823,"lon": 13.944813928494332,"fundort": "Musterstadt","stadium": "Imago","anzahl": 1,"pruefung": "Insekten Sachsen"},{"art": {"ordnung": "Käfer","familie": "Laufkäfer","nameDeutsch": "Goldlaufkäfer","name": "Carabus auratus"},"datum": "2020-07-25","beobachter": "Maria Muster","lat": 51.210402200112306,"lon": 13.958010175644915,"fundort": "Musterstadt","stadium": "Imago","anzahl": 1,"pruefung": "Insekten Sachsen"},{"art": {"ordnung": "Zweiflügler","familie": "Schwebfliegen","nameDeutsch": "Hainschwebfliege","name": "Episyrphus balteatus"},"datum": "2018-01-30","beobachter": "Maria Muster","lat": 50.86295600670809,"lon": 5.636914554794996,"fundort": "Musterstadt","stadium": "Imago","anzahl": 1,"pruefung": "iNaturalist"},{"art": {"ordnung": "Zweiflügler","familie": "Schwebfliegen","nameDeutsch": "Große Sumpfschwebfliege","name": "Helophilus trivittatus"},"datum": "2020-08-04","beobachter": "Maria Muster","lat": 50.85246791217264,"lon": 5.607976652934047,"fundort": "Musterstadt","stadium": "Imago","anzahl": 1,"pruefung": "iNaturalist"},{"art": {"ordnung": "Schmetterlinge","familie": "Edelfalter","nameDeutsch": "Waldbrettspiel","name": "Pararge aegeria"},"datum": "2015-05-11","beobachter": "Max Mustermann","lat": 50.86856075660033,"lon": 5.6222848667572825,"fundort": "Musterstadt","stadium": "Imago","anzahl": 1,"pruefung": "iNaturalist"},{"art": {"ordnung": "Libellen","familie": "Schlanklibellen","nameDeutsch": "Hufeisen-Azurjungfer","name": "Coenagrion puella"},"datum": "2014-04-14","beobachter": "Max Mustermann","lat": 50.847570759570345,"lon": 5.646664242173437,"fundort": "Musterstadt","stadium": "Imago","anzahl": 1,"pruefung": "iNaturalist"},{"art": {"ordnung": "Schnabelkerfen","familie": "Weichwanzen","nameDeutsch": "Rote Weichwanze","name": "Deraeocoris ruber"},"datum": "2013-10-13","beobachter": "Maria Muster","lat": 51.81236084767728,"lon": 14.341662776487432,"fundort": "Musterstadt","stadium": "Imago","anzahl": 1,"pruefung": "Insekten Sachsen"},{"art": {"ordnung": "Schmetterlinge","familie": "Edelfalter","nameDeutsch": "Admiral","name": "Vanessa atalanta"},"datum": "2018-03-01","beobachter": "Max Mustermann","lat": 51.1613781604641,"lon": 14.006046291012575,"fundort": "Musterstadt","stadium": "Imago","anzahl": 5,"pruefung": "Insekten Sachsen"},{"art": {"ordnung": "Schmetterlinge","familie": "Weißlinge","nameDeutsch": "Zitronenfalter","name": "Gonepteryx rhamni"},"datum": "2015-07-31","beobachter": "Max Mustermann","lat": 51.18167433053989,"lon": 13.97459212409217,"fundort": "Musterstadt","stadium": "Imago","anzahl": 1,"pruefung": "Insekten Sachsen"},{"art": {"ordnung": "Käfer","familie": "Blattkäfer","nameDeutsch": "Prächtiger Blattkäfer","name": "Chrysolina fastuosa"},"datum": "2018-07-23","beobachter": "Max Mustermann","lat": 51.18456230601686,"lon": 13.687989394322878,"fundort": "Musterstadt","stadium": "Imago","anzahl": 1,"pruefung": "Insekten Sachsen"},{"art": {"ordnung": "Libellen","familie": "Segellibellen","nameDeutsch": "Blutrote Heidelibelle","name": "Sympetrum sanguineum"},"datum": "2016-08-14","beobachter": "Maria Muster","lat": 51.1830379630975,"lon": 13.687676906914353,"fundort": "Musterstadt","stadium": "Imago","anzahl": 1,"pruefung": "Insekten Sachsen"},{"art": {"ordnung": "Schmetterlinge","familie": "Edelfalter","nameDeutsch": "Tagpfauenauge","name": "Aglais io"},"datum": "2020-08-20","beobachter": "Max Mustermann","lat": 54.33029036390688,"lon": 12.430285039513096,"fundort": "Musterstadt","stadium": "Imago","anzahl": 1,"pruefung": "iNaturalist"},{"art": {"ordnung": "Käfer","familie": "Blatthornkäfer","nameDeutsch": "Kupfer-Rosenkäfer","name": "Protaetia cuprea"},"datum": "2021-01-01","beobachter": "Maria Muster","lat": 51.829128604286126,"lon": 14.349399100384307,"fundort": "Musterstadt","stadium": "Imago","anzahl": 1,"pruefung": "Insekten Sachsen"},{"art": {"ordnung": "Libellen","familie": "Prachtlibellen","nameDeutsch": "Gebänderte Prachtlibelle","name": "Calopteryx splendens"},"datum": "2019-08-27","beobachter": "Maria Muster","lat": 51.8225323514489,"lon": 14.324272731272783,"fundort": "Musterstadt","stadium": "Imago","anzahl": 10,"pruefung": "Insekten Sachsen"},{"art": {"ordnung": "Käfer","familie": "Blatthornkäfer","nameDeutsch": "Gartenlaubkäfer","name": "Phyllopertha horticola"},"datum": "2013-08-11","beobachter": "Max Mustermann","lat": 51.80259458279891,"lon": 14.343939767768326,"fundort": "Musterstadt","stadium": "Imago","anzahl": 1,"pruefung": "Insekten Sachsen"},{"art": {"ordnung": "Libellen","familie": "Prachtlibellen","nameDeutsch": "Gebänderte Prachtlibelle","name": "Calopteryx splendens"},"datum": "2020-07-31","beobachter": "Max Mustermann","lat": 51.7746815192065,"lon": 14.34116540044525,"fundort": "Musterstadt","stadium": "Imago","anzahl": 1,"pruefung": "Insekten Sachsen"},{"art": {"ordnung": "Schmetterlinge","familie": "Edelfalter","nameDeutsch": "Tagpfauenauge","name": "Aglais io"},"datum": "2015-10-17","beobachter": "Maria Muster","lat": 51.202744055941935,"lon": 13.924153536560965,"fundort": "Musterstadt","stadium": "Imago","anzahl": 1,"pruefung": "Insekten Sachsen"},{"art": {"ordnung": "Schmetterlinge","familie": "Eulenfalter","nameDeutsch": "Schlehen-Bürstenspinner","name": "Orgyia antiqua"},"datum": "2013-11-05","beobachter": "Maria Muster","lat": 51.21428574307495,"lon": 13.933145548563372,"fundort": "Musterstadt","stadium": "Larve","anzahl": 1,"pruefung": "Insekten Sachsen"},{"art": {"ordnung": "Käfer","familie": "Bockkäfer","nameDeutsch": "Sägebock","name": "Prionus coriarius"},"datum": "2018-09-22","beobachter": "Max Mustermann","lat": 51.09191321339706,"lon": 13.709354961196022,"fundort": "Musterstadt","stadium": "Imago","anzahl": 1,"pruefung": "Insekten Sachsen"},{"art": {"ordnung": "Schmetterlinge","familie": "Edelfalter","nameDeutsch": "Großes Ochsenauge","name": "Maniola jurtina"},"datum": "2012-07-22","beobachter": "Max Mustermann","lat": 51.18671784474515,"lon": 13.95847809514057,"fundort": "Musterstadt","stadium": "Imago","anzahl": 1,"pruefung": "Insekten Sachsen"},{"art": {"ordnung": "Schmetterlinge","familie": "Weißlinge","nameDeutsch": "Zitronenfalter","name": "Gonepteryx rhamni"},"datum": "2019-02-08","beobachter": "Max Mustermann","lat": 51.162558219304124,"lon": 14.01345801917608,"fundort": "Musterstadt","stadium": "Imago","anzahl": 3,"pruefung": "Insekten Sachsen"},{"art": {"ordnung": "Libellen","familie": "Segellibellen","nameDeutsch": "Plattbauch","name": "Libellula depressa"},"datum": "2015-01-16","beobachter": "Max Mustermann","lat": 51.21222869195641,"lon": 14.040679024455113,"fundort": "Musterstadt","stadium": "Imago","anzahl": 1,"pruefung": "Insekten Sachsen"},{"art": {"ordnung": "Käfer","familie": "Blattkäfer","nameDeutsch": "Kartoffelkäfer","name": "Leptinotarsa decemlineata"},"datum": "2017-09-10","beobachter": "Maria Muster","lat": 51.20402707385856,"lon": 13.938207941865738,"fundort": "Musterstadt","stadium": "Imago","anzahl": 1,"pruefung": "Insekten Sachsen"},{"art": {"ordnung": "Schmetterlinge","familie": "Eulenfalter","nameDeutsch": "Ahorneule","name": "Acronicta aceris"},"datum": "2013-04-26","beobachter": "Maria Muster","lat": 51.178058700857726,"lon": 13.990093751827544,"fundort": "Musterstadt","stadium": "Larve","anzahl": 1,"pruefung": "Insekten Sachsen"},{"art": {"ordnung": "Schmetterlinge","familie": "Edelfalter","nameDeutsch": "Kaisermantel","name": "Argynnis paphia"},"datum": "2011-07-29","beobachter": "Max Mustermann","lat": 55.856214215618536,"lon": 11.517528937717737,"fundort": "Musterstadt","stadium": "Imago","anzahl": 1,"pruefung": "iNaturalist"},{"art": {"ordnung": "Schnabelkerfen","familie": "Randwanzen","nameDeutsch": "Amerikanische Zapfenwanze","name": "Leptoglossus occidentalis"},"datum": "2012-10-09","beobachter": "Maria Muster","lat": 51.210113491162325,"lon": 13.927514354197799,"fundort": "Musterstadt","stadium": "Imago","anzahl": 1,"pruefung": "Insekten Sachsen"},{"art": {"ordnung": "Käfer","familie": "Rüsselkäfer","nameDeutsch": "Großer Lupinen-Blattrandrüssler","name": "Sitona gressorius"},"datum": "2016-04-07","beobachter": "Maria Muster","lat": 51.20796239211478,"lon": 13.965064665610289,"fundort": "Musterstadt","stadium": "Imago","anzahl": 1,"pruefung": "Insekten Sachsen"},{"art": {"ordnung": "Schnabelkerfen","familie": "Feuerwanzen","nameDeutsch": "Feuerwanze","name": "Pyrrhocoris apterus"},"datum": "2011-04-05","beobachter": "Max Mustermann","lat": 51.16745743543582,"lon": 13.973139132661524,"fundort": "Musterstadt","stadium": "Imago","anzahl": 2,"pruefung": "Insekten Sachsen"},{"art": {"ordnung": "Käfer","familie": "Speckkäfer","nameDeutsch": "Wollkrautblütenkäfer","name": "Anthrenus verbasci"},"datum": "2019-11-21","beobachter": "Max Mustermann","lat": 51.18737325654845,"lon": 13.986900533072799,"fundort": "Musterstadt","stadium": "Imago","anzahl": 1,"pruefung": "Insekten Sachsen"},{"art": {"ordnung": "Käfer","familie": "Laufkäfer","nameDeutsch": "Körniger Laufkäfer","name": "Carabus granulatus"},"datum": "2018-10-31","beobachter": "Max Mustermann","lat": 51.183934271757735,"lon": 13.980542976629858,"fundort": "Musterstadt","stadium": "Imago","anzahl": 1,"pruefung": "Insekten Sachsen"},{"art": {"ordnung": "Schnabelkerfen","familie": "Baumwanzen","nameDeutsch": "Gartenwanze","name": "Rhaphigaster nebulosa"},"datum": "2018-07-09","beobachter": "Maria Muster","lat": 51.19784961575211,"lon": 13.815850450302364,"fundort": "Musterstadt","stadium": "Imago","anzahl": 1,"pruefung": "Insekten Sachsen"},{"art": {"ordnung": "Zweiflügler","familie": "Wollschweber","nameDeutsch": "Großer Wollschweber","name": "Bombylius major"},"datum": "2019-02-10","beobachter": "Max Mustermann","lat": 51.18982085256335,"lon": 13.954820777078941,"fundort": "Musterstadt","stadium": "Imago","anzahl": 1,"pruefung": "Insekten Sachsen"},{"art": {"ordnung": "Zweiflügler","familie": "Wollschweber","nameDeutsch": "Großer Wollschweber","name": "Bombylius major"},"datum": "2012-10-31","beobachter": "Maria Muster","lat": 51.184560292117524,"lon": 13.998071897736402,"fundort": "Musterstadt","stadium": "Imago","anzahl": 1,"pruefung": "Insekten Sachsen"},{"art": {"ordnung": "Käfer","familie": "Blatthornkäfer","nameDeutsch": "Goldglänzender Rosenkäfer","name": "Cetonia aurata"},"datum": "2019-10-01","beobachter": "Max Mustermann","lat": 51.20627806868761,"lon": 14.056436804564573,"fundort": "Musterstadt","stadium": "Imago","anzahl": 1,"pruefung": "Insekten Sachsen"},{"art": {"ordnung": "Käfer","familie": "Blattkäfer","nameDeutsch": "Violetter Gundermann-Blattkäfer","name": "Chrysolina sturmi"},"datum": "2019-07-08","beobachter": "Maria Muster","lat": 51.2044185964137,"lon": 13.931270926664649,"fundort": "Musterstadt","stadium": "Imago","anzahl": 1,"pruefung": "Insekten Sachsen"},{"art": {"ordnung": "Heuschrecken","familie": "Feldheuschrecken","nameDeutsch": "Ägyptische Wanderheuschrecke","name": "Anacridium aegyptium"},"datum": "2011-03-30","beobachter": "Max Mustermann","lat": 39.596697283220315,"lon": 3.3738875791603817,"fundort": "Musterstadt","stadium": "Imago","anzahl": 1,"pruefung": "iNaturalist"},{"art": {"ordnung": "Hautflügler","familie": "Dolchwespen","nameDeutsch": "Megascolia bidens","name": "Megascolia bidens"},"datum": "2016-05-05","beobachter": "Max Mustermann","lat": 39.57972045346784,"lon": 3.3915437059803315,"fundort": "Musterstadt","stadium": "Imago","anzahl": 1,"pruefung": "iNaturalist"},{"art": {"ordnung": "Schmetterlinge","familie": "Crambidae","nameDeutsch": "Buchsbaumzünsler","name": "Cydalima perspectalis"},"datum": "2011-05-18","beobachter": "Maria Muster","lat": 51.10414035965631,"lon": 13.675134077847531,"fundort": "Musterstadt","stadium": "Imago","anzahl": 1,"pruefung": "Insekten Sachsen"},{"art": {"ordnung": "Käfer","familie": "Marienkäfer","nameDeutsch": "Asiatischer Marienkäfer","name": "Harmonia axyridis"},"datum": "2013-08-31","beobachter": "Maria Muster","lat": 51.19453793185865,"lon": 13.934792151135257,"fundort": "Musterstadt","stadium": "Larve","anzahl": 6,"pruefung": "Insekten Sachsen"},{"art": {"ordnung": "Schmetterlinge","familie": "Weißlinge","nameDeutsch": "Grünaderweißling","name": "Pieris napi"},"datum": "2017-01-26","beobachter": "Maria Muster","lat": 51.19755391243257,"lon": 13.969114874267166,"fundort": "Musterstadt","stadium": "Imago","anzahl": 1,"pruefung": "Insekten Sachsen"},{"art": {"ordnung": "Schmetterlinge","familie": "Weißlinge","nameDeutsch": "Zitronenfalter","name": "Gonepteryx rhamni"},"datum": "2014-07-24","beobachter": "Max Mustermann","lat": 51.14699767250698,"lon": 14.00336376892654,"fundort": "Musterstadt","stadium": "Imago","anzahl": 3,"pruefung": "Insekten Sachsen"},{"art": {"ordnung": "Schmetterlinge","familie": "Eulenfalter","nameDeutsch": "Ahorneule","name": "Acronicta aceris"},"datum": "2020-06-20","beobachter": "Maria Muster","lat": 51.18136762506181,"lon": 13.960097480508438,"fundort": "Musterstadt","stadium": "Imago","anzahl": 1,"pruefung": "Insekten Sachsen"},{"art": {"ordnung": "Schmetterlinge","familie": "Eulenfalter","nameDeutsch": "Gelbe Tigermotte","name": "Spilosoma lutea"},"datum": "2019-12-15","beobachter": "Maria Muster","lat": 51.188409542243555,"lon": 13.93886524665673,"fundort": "Musterstadt","stadium": "Imago","anzahl": 1,"pruefung": "Insekten Sachsen"},{"art": {"ordnung": "Schmetterlinge","familie": "Ritterfalter","nameDeutsch": "Schwalbenschwanz","name": "Papilio machaon"},"datum": "2011-06-10","beobachter": "Max Mustermann","lat": 51.19670401645207,"lon": 14.043718834424405,"fundort": "Musterstadt","stadium": "Larve","anzahl": 1,"pruefung": "Insekten Sachsen"},{"art": {"ordnung": "Schmetterlinge","familie": "Eulenfalter","nameDeutsch": "Zaunwinden-Trauereule","name": "Aedia funesta"},"datum": "2014-10-07","beobachter": "Maria Muster","lat": 51.17550978267312,"lon": 13.985349384510435,"fundort": "Musterstadt","stadium": "Imago","anzahl": 1,"pruefung": "Insekten Sachsen"},{"art": {"ordnung": "Schmetterlinge","familie": "Edelfalter","nameDeutsch": "Schornsteinfeger","name": "Aphantopus hyperantus"},"datum": "2017-09-18","beobachter": "Maria Muster","lat": 51.20781230362287,"lon": 13.940839593213898,"fundort": "Musterstadt","stadium": "Imago","anzahl": 1,"pruefung": "Insekten Sachsen"},{"art": {"ordnung": "Schmetterlinge","familie": "Dickkopffalter","nameDeutsch": "Schwarzkolbiger Braundickkopf","name": "Thymelicus lineola"},"datum": "2014-07-13","beobachter": "Maria Muster","lat": 51.18531555424172,"lon": 13.9179057992466,"fundort": "Musterstadt","stadium": "Imago","anzahl": 1,"pruefung": "Insekten Sachsen"},{"art": {"ordnung": "Schmetterlinge","familie": "Eulenfalter","nameDeutsch": "Braune Tageule","name": "Euclidia glyphica"},"datum": "2020-04-15","beobachter": "Maria Muster","lat": 51.203654176154906,"lon": 13.946863833604143,"fundort": "Musterstadt","stadium": "Imago","anzahl": 1,"pruefung": "Insekten Sachsen"},{"art": {"ordnung": "Schnabelfliegen","familie": "Skorpionsfliegen","nameDeutsch": "Weiden-Skorpionsfliege","name": "Panorpa vulgaris"},"datum": "2014-09-16","beobachter": "Maria Muster","lat": 51.2053571747636,"lon": 13.924793903492585,"fundort": "Musterstadt","stadium": "Imago","anzahl": 1,"pruefung": "Insekten Sachsen"},{"art": {"ordnung": "Schnabelkerfen","familie": "Zwergzikaden","nameDeutsch": "Rhododendronzikade","name": "Graphocephala fennahi"},"datum": "2013-01-11","beobachter": "Maria Muster","lat": 51.18697490773986,"lon": 13.956410421727993,"fundort": "Musterstadt","stadium": "Imago","anzahl": 11,"pruefung": "Insekten Sachsen"},{"art": {"ordnung": "Netzflügler","familie": "Taghafte","nameDeutsch": "Totes Blatt","name": "Drepanepteryx phalaenoides"},"datum": "2014-01-24","beobachter": "Max Mustermann","lat": 51.18111169328661,"lon": 13.952407282264305,"fundort": "Musterstadt","stadium": "Imago","anzahl": 1,"pruefung": "Insekten Sachsen"},{"art": {"ordnung": "Schmetterlinge","familie": "Weißlinge","nameDeutsch": "Großer Kohlweißling","name": "Pieris brassicae"},"datum": "2018-10-25","beobachter": "Max Mustermann","lat": 51.17880438938906,"lon": 13.96931309523199,"fundort": "Musterstadt","stadium": "Imago","anzahl": 1,"pruefung": "Insekten Sachsen"},{"art": {"ordnung": "Hautflügler","familie": "Echte Bienen","nameDeutsch": "Ackerhummel","name": "Bombus pascuorum"},"datum": "2019-09-26","beobachter": "Max Mustermann","lat": 51.153214860038794,"lon": 13.988326923198123,"fundort": "Musterstadt","stadium": "Imago","anzahl": 1,"pruefung": "Insekten Sachsen"},{"art": {"ordnung": "Schmetterlinge","familie": "Schwärmer","nameDeutsch": "Hummelschwärmer","name": "Hemaris fuciformis"},"datum": "2013-11-04","beobachter": "Max Mustermann","lat": 51.18052797463278,"lon": 13.97237249518236,"fundort": "Musterstadt","stadium": "Imago","anzahl": 1,"pruefung": "Insekten Sachsen"},{"art": {"ordnung": "Schmetterlinge","familie": "Edelfalter","nameDeutsch": "Schornsteinfeger","name": "Aphantopus hyperantus"},"datum": "2018-09-24","beobachter": "Max Mustermann","lat": 51.15559490253166,"lon": 13.993950420843072,"fundort": "Musterstadt","stadium": "Imago","anzahl": 1,"pruefung": "Insekten Sachsen"},{"art": {"ordnung": "Schmetterlinge","familie": "Eulenfalter","nameDeutsch": "Schwammspinner","name": "Lymantria dispar"},"datum": "2019-01-12","beobachter": "Max Mustermann","lat": 51.158735467812996,"lon": 13.853192383502723,"fundort": "Musterstadt","stadium": "Puppe","anzahl": 1,"pruefung": "Insekten Sachsen"},{"art": {"ordnung": "Schmetterlinge","familie": "Edelfalter","nameDeutsch": "Kleiner Perlmuttfalter","name": "Issoria lathonia"},"datum": "2019-05-23","beobachter": "Maria Muster","lat": 51.820856603854956,"lon": 14.34453586149584,"fundort": "Musterstadt","stadium": "Imago","anzahl": 1,"pruefung": "Insekten Sachsen"},{"art": {"ordnung": "Schmetterlinge","familie": "Ritterfalter","nameDeutsch": "Segelfalter","name": "Iphiclides podalirius"},"datum": "2020-09-14","beobachter": "Max Mustermann","lat": 51.76588771248881,"lon": 14.371180401420606,"fundort": "Musterstadt","stadium": "Imago","anzahl": 1,"pruefung": "Insekten Sachsen"},{"art": {"ordnung": "Schmetterlinge","familie": "Edelfalter","nameDeutsch": "Kleiner Perlmuttfalter","name": "Issoria lathonia"},"datum": "2015-04-18","beobachter": "Maria Muster","lat": 51.82532201468637,"lon": 14.325829539337127,"fundort": "Musterstadt","stadium": "Imago","anzahl": 1,"pruefung": "Insekten Sachsen"},{"art": {"ordnung": "Schmetterlinge","familie": "Edelfalter","nameDeutsch": "Großes Ochsenauge","name": "Maniola jurtina"},"datum": "2018-12-05","beobachter": "Maria Muster","lat": 51.78770378646283,"lon": 14.349240954123955,"fundort": "Musterstadt","stadium": "Imago","anzahl": 1,"pruefung": "Insekten Sachsen"},{"art": {"ordnung": "Schmetterlinge","familie": "Bläulinge","nameDeutsch": "Kleiner Feuerfalter","name": "Lycaena phlaeas"},"datum": "2019-03-28","beobachter": "Max Mustermann","lat": 51.79494692926461,"lon": 14.3413423742159,"fundort": "Musterstadt","stadium": "Imago","anzahl": 1,"pruefung": "Insekten Sachsen"},{"art": {"ordnung": "Käfer","familie": "Scheinbockkäfer","nameDeutsch": "Chrysanthia geniculata","name": "Chrysanthia geniculata"},"datum": "2012-12-01","beobachter": "Max Mustermann","lat": 51.77186511422861,"lon": 14.33037848494433,"fundort": "Musterstadt","stadium": "Imago","anzahl": 1,"pruefung": "Insekten Sachsen"},{"art": {"ordnung": "Schmetterlinge","familie": "Spanner","nameDeutsch": "Dunkelbrauner Haarbüschelspanner","name": "Eulithis prunata"},"datum": "2017-10-24","beobachter": "Max Mustermann","lat": 51.17623880826948,"lon": 13.983913260838479,"fundort": "Musterstadt","stadium": "Imago","anzahl": 1,"pruefung": "Insekten Sachsen"},{"art": {"ordnung": "Schmetterlinge","familie": "Edelfalter","nameDeutsch": "Kaisermantel","name": "Argynnis paphia"},"datum": "2016-11-12","beobachter": "Maria Muster","lat": 51.18916460839761,"lon": 13.927393432250048,"fundort": "Musterstadt","stadium": "Imago","anzahl": 1,"pruefung": "Insekten Sachsen"},{"art": {"ordnung": "Schmetterlinge","familie": "Schwärmer","nameDeutsch": "Taubenschwänzchen","name": "Macroglossum stellatarum"},"datum": "2019-09-15","beobachter": "Max Mustermann","lat": 51.18042286974106,"lon": 13.964437562497617,"fundort": "Musterstadt","stadium": "Imago","anzahl": 2,"pruefung": "Insekten Sachsen"},{"art": {"ordnung": "Schmetterlinge","familie": "Eulenfalter","nameDeutsch": "Schwammspinner","name": "Lymantria dispar"},"datum": "2016-02-07","beobachter": "Maria Muster","lat": 51.19361186056339,"lon": 13.965187660616005,"fundort": "Musterstadt","stadium": "Imago","anzahl": 3,"pruefung": "Insekten Sachsen"},{"art": {"ordnung": "Schmetterlinge","familie": "Weißlinge","nameDeutsch": "Zitronenfalter","name": "Gonepteryx rhamni"},"datum": "2013-01-05","beobachter": "Max Mustermann","lat": 51.19310640952804,"lon": 14.047528115036178,"fundort": "Musterstadt","stadium": "Imago","anzahl": 1,"pruefung": "Insekten Sachsen"},{"art": {"ordnung": "Schmetterlinge","familie": "Eulenfalter","nameDeutsch": "Schattenmönch","name": "Cucullia umbratica"},"datum": "2014-12-09","beobachter": "Max Mustermann","lat": 51.180971597350066,"lon": 13.971496519018487,"fundort": "Musterstadt","stadium": "Imago","anzahl": 1,"pruefung": "Insekten Sachsen"},{"art": {"ordnung": "Schmetterlinge","familie": "Edelfalter","nameDeutsch": "Distelfalter","name": "Vanessa cardui"},"datum": "2011-07-13","beobachter": "Max Mustermann","lat": 51.177473097483606,"lon": 13.992518728863521,"fundort": "Musterstadt","stadium": "Imago","anzahl": 3,"pruefung": "Insekten Sachsen"},{"art": {"ordnung": "Schmetterlinge","familie": "Edelfalter","nameDeutsch": "Admiral","name": "Vanessa atalanta"},"datum": "2019-03-25","beobachter": "Max Mustermann","lat": 51.17634842599378,"lon": 13.96480573646638,"fundort": "Musterstadt","stadium": "Imago","anzahl": 3,"pruefung": "Insekten Sachsen"},{"art": {"ordnung": "Schmetterlinge","familie": "Edelfalter","nameDeutsch": "Kaisermantel","name": "Argynnis paphia"},"datum": "2017-09-30","beobachter": "Maria Muster","lat": 51.17061884392139,"lon": 13.973360062522003,"fundort": "Musterstadt","stadium": "Imago","anzahl": 1,"pruefung": "Insekten Sachsen"},{"art": {"ordnung": "Schmetterlinge","familie": "Edelfalter","nameDeutsch": "Mauerfuchs","name": "Lasiommata megera"},"datum": "2017-05-30","beobachter": "Maria Muster","lat": 51.199199694979356,"lon": 13.941777869121983,"fundort": "Musterstadt","stadium": "Imago","anzahl": 1,"pruefung": "Insekten Sachsen"},{"art": {"ordnung": "Schmetterlinge","familie": "Edelfalter","nameDeutsch": "Mauerfuchs","name": "Lasiommata megera"},"datum": "2017-10-26","beobachter": "Maria Muster","lat": 51.17239536808506,"lon": 13.972531090706257,"fundort": "Musterstadt","stadium": "Imago","anzahl": 1,"pruefung": "Insekten Sachsen"},{"art": {"ordnung": "Schmetterlinge","familie": "Edelfalter","nameDeutsch": "Distelfalter","name": "Vanessa cardui"},"datum": "2014-04-19","beobachter": "Maria Muster","lat": 51.19852770150737,"lon": 13.940333808270694,"fundort": "Musterstadt","stadium": "Imago","anzahl": 1,"pruefung": "Insekten Sachsen"},{"art": {"ordnung": "Schnabelkerfen","familie": "Baumwanzen","nameDeutsch": "Spitzling","name": "Aelia acuminata"},"datum": "2020-09-20","beobachter": "Max Mustermann","lat": 51.16913766859911,"lon": 14.002916080511032,"fundort": "Musterstadt","stadium": "Imago","anzahl": 1,"pruefung": "Insekten Sachsen"},{"art": {"ordnung": "Schmetterlinge","familie": "Eulenfalter","nameDeutsch": "Pappelkarmin","name": "Catocala elocata"},"datum": "2014-10-13","beobachter": "Maria Muster","lat": 51.08315257431624,"lon": 13.6947475286128,"fundort": "Musterstadt","stadium": "Imago","anzahl": 1,"pruefung": "Insekten Sachsen"},{"art": {"ordnung": "Schmetterlinge","familie": "Eulenfalter","nameDeutsch": "Wintersaateule","name": "Agrotis segetum"},"datum": "2013-12-20","beobachter": "Max Mustermann","lat": 51.18342356126885,"lon": 13.837053468013302,"fundort": "Musterstadt","stadium": "Imago","anzahl": 1,"pruefung": "Insekten Sachsen"},{"art": {"ordnung": "Schmetterlinge","familie": "Schwärmer","nameDeutsch": "Labkrautschwärmer","name": "Hyles gallii"},"datum": "2011-09-27","beobachter": "Max Mustermann","lat": 51.17757899769755,"lon": 13.977398151389023,"fundort": "Musterstadt","stadium": "Imago","anzahl": 1,"pruefung": "Insekten Sachsen"},{"art": {"ordnung": "Schmetterlinge","familie": "Spanner","nameDeutsch": "Ockergelber Blattspanner","name": "Camptogramma bilineata"},"datum": "2020-11-07","beobachter": "Max Mustermann","lat": 51.180572528716446,"lon": 13.975224712100388,"fundort": "Musterstadt","stadium": "Imago","anzahl": 1,"pruefung": "Insekten Sachsen"},{"art": {"ordnung": "Heuschrecken","familie": "Tettigoniidae","nameDeutsch": "Gewöhnliche Strauchschrecke","name": "Pholidoptera griseoaptera"},"datum": "2017-03-22","beobachter": "Max Mustermann","lat": 51.170765936806276,"lon": 13.96839379663747,"fundort": "Musterstadt","stadium": "Imago","anzahl": 1,"pruefung": "Insekten Sachsen"},{"art": {"ordnung": "Schmetterlinge","familie": "Spanner","nameDeutsch": "Garten-Blattspanner","name": "Xanthorhoe fluctuata"},"datum": "2013-11-07","beobachter": "Maria Muster","lat": 51.18489805942779,"lon": 13.951537242234169,"fundort": "Musterstadt","stadium": "Imago","anzahl": 1,"pruefung": "Insekten Sachsen"},{"art": {"ordnung": "Schmetterlinge","familie": "Wurzelbohrer","nameDeutsch": "Ampfer-Wurzelbohrer ","name": "Triodia sylvina"},"datum": "2011-05-18","beobachter": "Max Mustermann","lat": 51.16293785986466,"lon": 14.000874437182755,"fundort": "Musterstadt","stadium": "Imago","anzahl": 1,"pruefung": "Insekten Sachsen"},{"art": {"ordnung": "Schmetterlinge","familie": "Ritterfalter","nameDeutsch": "Schwalbenschwanz","name": "Papilio machaon"},"datum": "2020-10-08","beobachter": "Maria Muster","lat": 51.81913649464079,"lon": 14.321585436183273,"fundort": "Musterstadt","stadium": "Larve","anzahl": 1,"pruefung": "Insekten Sachsen"},{"art": {"ordnung": "Schnabelkerfen","familie": "Sichelwanzen","nameDeutsch": "Himacerus mirmicoides","name": "Himacerus mirmicoides"},"datum": "2019-06-29","beobachter": "Maria Muster","lat": 51.21885737706362,"lon": 14.02523170193906,"fundort": "Musterstadt","stadium": "Imago","anzahl": 1,"pruefung": "Insekten Sachsen"},{"art": {"ordnung": "Schmetterlinge","familie": "Eulenfalter","nameDeutsch": "Kohleule","name": "Mamestra brassicae"},"datum": "2019-08-27","beobachter": "Maria Muster","lat": 51.820038929261614,"lon": 14.315764947285874,"fundort": "Musterstadt","stadium": "Larve","anzahl": 1,"pruefung": "Insekten Sachsen"},{"art": {"ordnung": "Schnabelkerfen","familie": "Rhyparochromidae","nameDeutsch": "Gemeine Bodenwanze","name": "Rhyparochromus vulgaris"},"datum": "2013-08-20","beobachter": "Max Mustermann","lat": 51.188580566342836,"lon": 13.98007561449219,"fundort": "Musterstadt","stadium": "Imago","anzahl": 6,"pruefung": "Insekten Sachsen"},{"art": {"ordnung": "Schmetterlinge","familie": "Spanner","nameDeutsch": "Grauer Zwergspanner","name": "Idaea seriata"},"datum": "2018-02-17","beobachter": "Maria Muster","lat": 51.210086782007835,"lon": 13.955862766801749,"fundort": "Musterstadt","stadium": "Imago","anzahl": 1,"pruefung": "Insekten Sachsen"},{"art": {"ordnung": "Schnabelkerfen","familie": "Randwanzen","nameDeutsch": "Amerikanische Zapfenwanze","name": "Leptoglossus occidentalis"},"datum": "2015-12-17","beobachter": "Maria Muster","lat": 51.196420646920195,"lon": 13.943937113001919,"fundort": "Musterstadt","stadium": "Imago","anzahl": 1,"pruefung": "Insekten Sachsen"},{"art": {"ordnung": "Schmetterlinge","familie": "Federmotten","nameDeutsch": "Windengeistchen","name": "Emmelina monodactyla"},"datum": "2019-06-28","beobachter": "Maria Muster","lat": 51.185653533217575,"lon": 13.961388602050505,"fundort": "Musterstadt","stadium": "Imago","anzahl": 1,"pruefung": "Insekten Sachsen"},{"art": {"ordnung": "Käfer","familie": "Speckkäfer","nameDeutsch": "Wollkrautblütenkäfer","name": "Anthrenus verbasci"},"datum": "2013-01-22","beobachter": "Maria Muster","lat": 51.16554459476283,"lon": 13.973419764871448,"fundort": "Musterstadt","stadium": "Imago","anzahl": 1,"pruefung": "Insekten Sachsen"},{"art": {"ordnung": "Käfer","familie": "Marienkäfer","nameDeutsch": "Asiatischer Marienkäfer","name": "Harmonia axyridis"},"datum": "2017-11-24","beobachter": "Maria Muster","lat": 51.181460582972946,"lon": 13.941921823232219,"fundort": "Musterstadt","stadium": "Imago","anzahl": 1,"pruefung": "Insekten Sachsen"},{"art": {"ordnung": "Schmetterlinge","familie": "Spanner","nameDeutsch": "Großes Jungfernkind","name": "Archiearis parthenias"},"datum": "2015-09-21","beobachter": "Max Mustermann","lat": 51.14775131525747,"lon": 13.768426343897277,"fundort": "Musterstadt","stadium": "Imago","anzahl": 1,"pruefung": "Insekten Sachsen"},{"art": {"ordnung": "Schnabelkerfen","familie": "Feuerwanzen","nameDeutsch": "Feuerwanze","name": "Pyrrhocoris apterus"},"datum": "2018-04-23","beobachter": "Max Mustermann","lat": 51.10508589980472,"lon": 13.908391343373614,"fundort": "Musterstadt","stadium": "Imago","anzahl": 1,"pruefung": "Insekten Sachsen"},{"art": {"ordnung": "Schnabelkerfen","familie": "Feuerwanzen","nameDeutsch": "Feuerwanze","name": "Pyrrhocoris apterus"},"datum": "2015-02-28","beobachter": "Max Mustermann","lat": 51.15637334609543,"lon": 13.861732222143882,"fundort": "Musterstadt","stadium": "Imago","anzahl": 3,"pruefung": "Insekten Sachsen"},{"art": {"ordnung": "Schnabelkerfen","familie": "Baumwanzen","nameDeutsch": "Gartenwanze","name": "Rhaphigaster nebulosa"},"datum": "2016-08-12","beobachter": "Max Mustermann","lat": 51.173378390561545,"lon": 13.969051512003862,"fundort": "Musterstadt","stadium": "Imago","anzahl": 3,"pruefung": "Insekten Sachsen"},{"art": {"ordnung": "Schnabelkerfen","familie": "Baumwanzen","nameDeutsch": "Nördliche Fruchtwanze","name": "Carpocoris fuscispinus"},"datum": "2016-11-03","beobachter": "Max Mustermann","lat": 51.19193224195192,"lon": 14.049344404705069,"fundort": "Musterstadt","stadium": "Imago","anzahl": 1,"pruefung": "Insekten Sachsen"},{"art": {"ordnung": "Schnabelkerfen","familie": "Randwanzen","nameDeutsch": "Amerikanische Zapfenwanze","name": "Leptoglossus occidentalis"},"datum": "2020-08-20","beobachter": "Maria Muster","lat": 51.078880838071356,"lon": 13.712115381434153,"fundort": "Musterstadt","stadium": "Imago","anzahl": 1,"pruefung": "Insekten Sachsen"},{"art": {"ordnung": "Schmetterlinge","familie": "Breitflügelmotten","nameDeutsch": "Frühjahrsbuchenmotte","name": "Diurnea fagella"},"datum": "2019-11-26","beobachter": "Max Mustermann","lat": 51.18700557547033,"lon": 13.823753455164036,"fundort": "Musterstadt","stadium": "Imago","anzahl": 1,"pruefung": "Insekten Sachsen"},{"art": {"ordnung": "Käfer","familie": "Rüsselkäfer","nameDeutsch": "Großer Lupinen-Blattrandrüssler","name": "Sitona gressorius"},"datum": "2015-04-11","beobachter": "Maria Muster","lat": 51.214067612797656,"lon": 13.947094209878461,"fundort": "Musterstadt","stadium": "Imago","anzahl": 1,"pruefung": "Insekten Sachsen"},{"art": {"ordnung": "Zweiflügler","familie": "Wollschweber","nameDeutsch": "Großer Wollschweber","name": "Bombylius major"},"datum": "2018-10-19","beobachter": "Maria Muster","lat": 51.18213846435728,"lon": 13.969112210233979,"fundort": "Musterstadt","stadium": "Imago","anzahl": 2,"pruefung": "Insekten Sachsen"},{"art": {"ordnung": "Schmetterlinge","familie": "Spanner","nameDeutsch": "Zackenbindiger Rindenspanner","name": "Ectropis crepuscularia"},"datum": "2017-10-09","beobachter": "Maria Muster","lat": 51.18442699902737,"lon": 13.948750827288796,"fundort": "Musterstadt","stadium": "Imago","anzahl": 1,"pruefung": "Insekten Sachsen"},{"art": {"ordnung": "Käfer","familie": "Bockkäfer","nameDeutsch": "Kleiner Zangenbock","name": "Rhagium inquisitor"},"datum": "2019-03-08","beobachter": "Max Mustermann","lat": 51.0820799151379,"lon": 13.704688698595996,"fundort": "Musterstadt","stadium": "Imago","anzahl": 1,"pruefung": "Insekten Sachsen"},{"art": {"ordnung": "Schnabelkerfen","familie": "Feuerwanzen","nameDeutsch": "Feuerwanze","name": "Pyrrhocoris apterus"},"datum": "2016-11-15","beobachter": "Maria Muster","lat": 51.19337992535077,"lon": 13.933312732874873,"fundort": "Musterstadt","stadium": "Imago","anzahl": 1,"pruefung": "Insekten Sachsen"},{"art": {"ordnung": "Käfer","familie": "Laufkäfer","nameDeutsch": "Kupferfarbener Buntgrabläufer","name": "Poecilus cupreus"},"datum": "2015-03-22","beobachter": "Max Mustermann","lat": 51.184228762322924,"lon": 13.975149810764172,"fundort": "Musterstadt","stadium": "Imago","anzahl": 1,"pruefung": "Insekten Sachsen"},{"art": {"ordnung": "Käfer","familie": "Blatthornkäfer","nameDeutsch": "Nashornkäfer","name": "Oryctes nasicornis"},"datum": "2014-09-25","beobachter": "Maria Muster","lat": 51.110987798690154,"lon": 13.599974182565996,"fundort": "Musterstadt","stadium": "Imago","anzahl": 1,"pruefung": "Insekten Sachsen"},{"art": {"ordnung": "Fischchen","familie": "Lepismatidae","nameDeutsch": "Silberfischchen","name": "Lepisma saccharina"},"datum": "2020-03-26","beobachter": "Max Mustermann","lat": 51.17984302796589,"lon": 13.959460434754064,"fundort": "Musterstadt","stadium": "Imago","anzahl": 1,"pruefung": "Insekten Sachsen"},{"art": {"ordnung": "Schmetterlinge","familie": "Federgeistchen","nameDeutsch": "Geißblattgeistchen","name": "Alucita hexadactyla"},"datum": "2014-04-21","beobachter": "Maria Muster","lat": 51.188352114120875,"lon": 13.948927430810448,"fundort": "Musterstadt","stadium": "Imago","anzahl": 1,"pruefung": "Insekten Sachsen"},{"art": {"ordnung": "Käfer","familie": "Ölkäfer","nameDeutsch": "Schwarzblauer Ölkäfer","name": "Meloe proscarabaeus"},"datum": "2018-10-22","beobachter": "Maria Muster","lat": 51.19317753894474,"lon": 13.91408558296805,"fundort": "Musterstadt","stadium": "Imago","anzahl": 1,"pruefung": "Insekten Sachsen"},{"art": {"ordnung": "Käfer","familie": "Marienkäfer","nameDeutsch": "Siebenpunkt-Marienkäfer","name": "Coccinella septempunctata"},"datum": "2015-07-03","beobachter": "Maria Muster","lat": 51.19762888982047,"lon": 13.933855258581643,"fundort": "Musterstadt","stadium": "Imago","anzahl": 2,"pruefung": "Insekten Sachsen"},{"art": {"ordnung": "Schnabelkerfen","familie": "Baumwanzen","nameDeutsch": "Beerenwanze","name": "Dolycoris baccarum"},"datum": "2016-12-24","beobachter": "Maria Muster","lat": 51.22004946009375,"lon": 13.92725231098408,"fundort": "Musterstadt","stadium": "Imago","anzahl": 1,"pruefung": "Insekten Sachsen"},{"art": {"ordnung": "Käfer","familie": "Bockkäfer","nameDeutsch": "Dorniger Wimperbock","name": "Pogonocherus hispidus"},"datum": "2016-02-09","beobachter": "Maria Muster","lat": 51.193977570442996,"lon": 13.944790193998479,"fundort": "Musterstadt","stadium": "Imago","anzahl": 1,"pruefung": "Insekten Sachsen"},{"art": {"ordnung": "Schnabelkerfen","familie": "Baumwanzen","nameDeutsch": "Grüne Stinkwanze","name": "Palomena prasina"},"datum": "2018-04-25","beobachter": "Maria Muster","lat": 51.179922725406726,"lon": 13.942214460046975,"fundort": "Musterstadt","stadium": "Imago","anzahl": 1,"pruefung": "Insekten Sachsen"},{"art": {"ordnung": "Käfer","familie": "Laufkäfer","nameDeutsch": "Goldlaufkäfer","name": "Carabus auratus"},"datum": "2014-12-14","beobachter": "Maria Muster","lat": 51.20612486186337,"lon": 13.963134664455097,"fundort": "Musterstadt","stadium": "Imago","anzahl": 1,"pruefung": "Insekten Sachsen"},{"art": {"ordnung": "Schnabelkerfen","familie": "Weichwanzen","nameDeutsch": "Eichenwanze","name": "Harpocera thoracica"},"datum": "2018-12-09","beobachter": "Max Mustermann","lat": 51.164924078891424,"lon": 13.97690554722897,"fundort": "Musterstadt","stadium": "Imago","anzahl": 1,"pruefung": "Insekten Sachsen"},{"art": {"ordnung": "Schmetterlinge","familie": "Eulenfalter","nameDeutsch": "Ypsilon-Eule","name": "Agrotis ipsilon"},"datum": "2014-10-22","beobachter": "Max Mustermann","lat": 51.15125965246041,"lon": 13.992273818516274,"fundort": "Musterstadt","stadium": "Imago","anzahl": 1,"pruefung": "Insekten Sachsen"},{"art": {"ordnung": "Käfer","familie": "Blatthornkäfer","nameDeutsch": "Stolperkäfer","name": "Valgus hemipterus"},"datum": "2018-02-10","beobachter": "Maria Muster","lat": 51.19409891181135,"lon": 13.934245273912715,"fundort": "Musterstadt","stadium": "Imago","anzahl": 1,"pruefung": "Insekten Sachsen"},{"art": {"ordnung": "Schnabelkerfen","familie": "Randwanzen","nameDeutsch": "Rhombenwanze","name": "Syromastus rhombeus"},"datum": "2018-05-10","beobachter": "Max Mustermann","lat": 51.174355235760515,"lon": 13.948760911781372,"fundort": "Musterstadt","stadium": "Imago","anzahl": 1,"pruefung": "Insekten Sachsen"},{"art": {"ordnung": "Käfer","familie": "Marienkäfer","nameDeutsch": "Vierfleckiger Schildlaus-Marienkäfer","name": "Brumus quadripustulatus"},"datum": "2017-08-16","beobachter": "Max Mustermann","lat": 51.17579089048058,"lon": 13.963909644439081,"fundort": "Musterstadt","stadium": "Imago","anzahl": 1,"pruefung": "Insekten Sachsen"},{"art": {"ordnung": "Käfer","familie": "Weichkäfer","nameDeutsch": "Soldatenkäfer","name": "Cantharis rustica"},"datum": "2016-09-08","beobachter": "Maria Muster","lat": 51.21540600581057,"lon": 13.928028716616005,"fundort": "Musterstadt","stadium": "Imago","anzahl": 1,"pruefung": "Insekten Sachsen"},{"art": {"ordnung": "Käfer","familie": "Bockkäfer","nameDeutsch": "Blauvioletter Scheibenbock","name": "Callidium violaceum"},"datum": "2011-08-14","beobachter": "Max Mustermann","lat": 51.17994088263999,"lon": 13.978271532513565,"fundort": "Musterstadt","stadium": "Imago","anzahl": 1,"pruefung": "Insekten Sachsen"},{"art": {"ordnung": "Schmetterlinge","familie": "Holzbohrer","nameDeutsch": "Weidenbohrer","name": "Cossus cossus"},"datum": "2017-12-12","beobachter": "Maria Muster","lat": 51.141419484307605,"lon": 13.896434382833121,"fundort": "Musterstadt","stadium": "Larve","anzahl": 1,"pruefung": "Insekten Sachsen"},{"art": {"ordnung": "Schmetterlinge","familie": "Edelfalter","nameDeutsch": "Distelfalter","name": "Vanessa cardui"},"datum": "2016-10-02","beobachter": "Max Mustermann","lat": 51.19573457845894,"lon": 13.839122599850935,"fundort": "Musterstadt","stadium": "Imago","anzahl": 1,"pruefung": "Insekten Sachsen"},{"art": {"ordnung": "Schnabelkerfen","familie": "Blutzikaden","nameDeutsch": "Gemeine Blutzikade","name": "Cercopis vulnerata"},"datum": "2015-02-20","beobachter": "Max Mustermann","lat": 49.88204761773948,"lon": 12.289562062528388,"fundort": "Musterstadt","stadium": "Imago","anzahl": 1,"pruefung": "iNaturalist"},{"art": {"ordnung": "Libellen","familie": "Schlanklibellen","nameDeutsch": "Hufeisen-Azurjungfer","name": "Coenagrion puella"},"datum": "2017-06-19","beobachter": "Max Mustermann","lat": 49.87460655615907,"lon": 12.31831096810849,"fundort": "Musterstadt","stadium": "Imago","anzahl": 1,"pruefung": "iNaturalist"},{"art": {"ordnung": "Käfer","familie": "Blatthornkäfer","nameDeutsch": "Goldglänzender Rosenkäfer","name": "Cetonia aurata"},"datum": "2020-04-24","beobachter": "Maria Muster","lat": 51.19168353450816,"lon": 13.976230630283247,"fundort": "Musterstadt","stadium": "Imago","anzahl": 3,"pruefung": "Insekten Sachsen"},{"art": {"ordnung": "Käfer","familie": "Marienkäfer","nameDeutsch": "Schachbrett-Marienkäfer","name": "Propylea quatuordecimpunctata"},"datum": "2019-09-10","beobachter": "Maria Muster","lat": 51.2110354082673,"lon": 13.93733773168977,"fundort": "Musterstadt","stadium": "Imago","anzahl": 1,"pruefung": "Insekten Sachsen"},{"art": {"ordnung": "Käfer","familie": "Blatthornkäfer","nameDeutsch": "Trauer-Rosenkäfer","name": "Oxythyrea funesta"},"datum": "2019-06-20","beobachter": "Maria Muster","lat": 51.19352737120072,"lon": 13.971006112185146,"fundort": "Musterstadt","stadium": "Imago","anzahl": 1,"pruefung": "Insekten Sachsen"},{"art": {"ordnung": "Libellen","familie": "Schlanklibellen","nameDeutsch": "Hufeisen-Azurjungfer","name": "Coenagrion puella"},"datum": "2016-09-25","beobachter": "Maria Muster","lat": 51.17695317783111,"lon": 13.95219427466634,"fundort": "Musterstadt","stadium": "Imago","anzahl": 3,"pruefung": "Insekten Sachsen"},{"art": {"ordnung": "Käfer","familie": "Blatthornkäfer","nameDeutsch": "Goldglänzender Rosenkäfer","name": "Cetonia aurata"},"datum": "2020-03-10","beobachter": "Maria Muster","lat": 51.19402380735666,"lon": 14.004273482774725,"fundort": "Musterstadt","stadium": "Imago","anzahl": 1,"pruefung": "Insekten Sachsen"},{"art": {"ordnung": "Käfer","familie": "Blatthornkäfer","nameDeutsch": "Gartenlaubkäfer","name": "Phyllopertha horticola"},"datum": "2016-07-23","beobachter": "Maria Muster","lat": 51.164505383820035,"lon": 13.961281571061408,"fundort": "Musterstadt","stadium": "Imago","anzahl": 1,"pruefung": "Insekten Sachsen"},{"art": {"ordnung": "Käfer","familie": "Blatthornkäfer","nameDeutsch": "Kupfer-Rosenkäfer","name": "Protaetia cuprea"},"datum": "2020-11-24","beobachter": "Maria Muster","lat": 51.19045400503821,"lon": 13.959134692738143,"fundort": "Musterstadt","stadium": "Imago","anzahl": 3,"pruefung": "Insekten Sachsen"},{"art": {"ordnung": "Käfer","familie": "Blatthornkäfer","nameDeutsch": "Stolperkäfer","name": "Valgus hemipterus"},"datum": "2019-04-13","beobachter": "Max Mustermann","lat": 51.151542751952825,"lon": 13.998181442906203,"fundort": "Musterstadt","stadium": "Imago","anzahl": 1,"pruefung": "Insekten Sachsen"},{"art": {"ordnung": "Schmetterlinge","familie": "Wurzelbohrer","nameDeutsch": "Kleiner Hopfenwurzelbohrer","name": "Korscheltellus lupulina"},"datum": "2019-04-24","beobachter": "Maria Muster","lat": 51.18301602623747,"lon": 13.969252127576539,"fundort": "Musterstadt","stadium": "Imago","anzahl": 1,"pruefung": "Insekten Sachsen"},{"art": {"ordnung": "Käfer","familie": "Blatthornkäfer","nameDeutsch": "Glattschieniger Pinselkäfer","name": "Trichius gallicus"},"datum": "2016-12-09","beobachter": "Max Mustermann","lat": 51.1723818405891,"lon": 13.972072788973943,"fundort": "Musterstadt","stadium": "Imago","anzahl": 1,"pruefung": "Insekten Sachsen"},{"art": {"ordnung": "Käfer","familie": "Blatthornkäfer","nameDeutsch": "Goldglänzender Rosenkäfer","name": "Cetonia aurata"},"datum": "2016-08-10","beobachter": "Max Mustermann","lat": 51.20560078431149,"lon": 14.042225347344663,"fundort": "Musterstadt","stadium": "Imago","anzahl": 3,"pruefung": "Insekten Sachsen"},{"art": {"ordnung": "Schmetterlinge","familie": "Zünsler","nameDeutsch": "Hummel-Wachsmotte","name": "Aphomia sociella"},"datum": "2012-01-24","beobachter": "Maria Muster","lat": 51.10643975895036,"lon": 13.673027175203364,"fundort": "Musterstadt","stadium": "Imago","anzahl": 1,"pruefung": "Insekten Sachsen"},{"art": {"ordnung": "Käfer","familie": "Weichkäfer","nameDeutsch": "Soldatenkäfer","name": "Cantharis rustica"},"datum": "2019-10-17","beobachter": "Max Mustermann","lat": 51.20366086002997,"lon": 14.059042221432298,"fundort": "Musterstadt","stadium": "Imago","anzahl": 1,"pruefung": "Insekten Sachsen"},{"art": {"ordnung": "Käfer","familie": "Blatthornkäfer","nameDeutsch": "Trauer-Rosenkäfer","name": "Oxythyrea funesta"},"datum": "2014-03-24","beobachter": "Max Mustermann","lat": 51.18493380014022,"lon": 14.064759464668738,"fundort": "Musterstadt","stadium": "Imago","anzahl": 1,"pruefung": "Insekten Sachsen"},{"art": {"ordnung": "Käfer","familie": "Blatthornkäfer","nameDeutsch": "Gartenlaubkäfer","name": "Phyllopertha horticola"},"datum": "2020-04-26","beobachter": "Maria Muster","lat": 51.18994941539823,"lon": 14.039968986452354,"fundort": "Musterstadt","stadium": "Imago","anzahl": 1,"pruefung": "Insekten Sachsen"},{"art": {"ordnung": "Käfer","familie": "Bockkäfer","nameDeutsch": "Buchen-Widderbock","name": "Clytus arietis"},"datum": "2011-09-17","beobachter": "Maria Muster","lat": 51.22949914251178,"lon": 14.018866313299316,"fundort": "Musterstadt","stadium": "Imago","anzahl": 1,"pruefung": "Insekten Sachsen"},{"art": {"ordnung": "Schmetterlinge","familie": "Edelfalter","nameDeutsch": "Kleines Wiesenvögelchen","name": "Coenonympha pamphilus"},"datum": "2020-03-10","beobachter": "Maria Muster","lat": 51.18929811637238,"lon": 13.930718473856036,"fundort": "Musterstadt","stadium": "Imago","anzahl": 1,"pruefung": "Insekten Sachsen"},{"art": {"ordnung": "Käfer","familie": "Blatthornkäfer","nameDeutsch": "Glattschieniger Pinselkäfer","name": "Trichius gallicus"},"datum": "2014-06-10","beobachter": "Maria Muster","lat": 51.19728112261183,"lon": 13.963417965435548,"fundort": "Musterstadt","stadium": "Imago","anzahl": 2,"pruefung": "Insekten Sachsen"},{"art": {"ordnung": "Schnabelkerfen","familie": "Weichwanzen","nameDeutsch": "Zweikeulen-Weichwanze","name": "Closterotomus biclavatus"},"datum": "2018-12-09","beobachter": "Max Mustermann","lat": 51.184845214077285,"lon": 13.976244851281733,"fundort": "Musterstadt","stadium": "Imago","anzahl": 1,"pruefung": "Insekten Sachsen"},{"art": {"ordnung": "Käfer","familie": "Blatthornkäfer","nameDeutsch": "Gartenlaubkäfer","name": "Phyllopertha horticola"},"datum": "2015-11-07","beobachter": "Max Mustermann","lat": 51.144356577864706,"lon": 14.010016016439922,"fundort": "Musterstadt","stadium": "Imago","anzahl": 1,"pruefung": "Insekten Sachsen"},{"art": {"ordnung": "Käfer","familie": "Blatthornkäfer","nameDeutsch": "Kleiner Halsbock","name": "Pseudovadonia livida"},"datum": "2020-11-22","beobachter": "Maria Muster","lat": 51.19137564848857,"lon": 13.953914463332904,"fundort": "Musterstadt","stadium": "Imago","anzahl": 1,"pruefung": "Insekten Sachsen"},{"art": {"ordnung": "Käfer","familie": "Blatthornkäfer","nameDeutsch": "Kleiner Halsbock","name": "Pseudovadonia livida"},"datum": "2011-06-04","beobachter": "Maria Muster","lat": 51.192877328486766,"lon": 13.930038201755451,"fundort": "Musterstadt","stadium": "Imago","anzahl": 1,"pruefung": "Insekten Sachsen"},{"art": {"ordnung": "Schmetterlinge","familie": "Spanner","nameDeutsch": "Rauten-Rindenspanner","name": "Peribatodes rhomboidaria"},"datum": "2016-05-16","beobachter": "Maria Muster","lat": 51.1882156261685,"lon": 13.939662168796124,"fundort": "Musterstadt","stadium": "Imago","anzahl": 1,"pruefung": "Insekten Sachsen"},{"art": {"ordnung": "Käfer","familie": "Blattkäfer","nameDeutsch": "Ameisensackkäfer","name": "Clytra laeviuscula"},"datum": "2014-09-11","beobachter": "Maria Muster","lat": 51.19492023488484,"lon": 13.806492945995515,"fundort": "Musterstadt","stadium": "Imago","anzahl": 1,"pruefung": "Insekten Sachsen"},{"art": {"ordnung": "Käfer","familie": "Schnellkäfer","nameDeutsch": "Mausgrauer Schnellkäfer","name": "Agrypnus murinus"},"datum": "2015-01-05","beobachter": "Max Mustermann","lat": 51.19974792002606,"lon": 13.857517887007234,"fundort": "Musterstadt","stadium": "Imago","anzahl": 1,"pruefung": "Insekten Sachsen"},{"art": {"ordnung": "Käfer","familie": "Schnellkäfer","nameDeutsch": "Gegürtelter Schnellkäfer","name": "Ampedus balteatus"},"datum": "2017-10-04","beobachter": "Maria Muster","lat": 51.199545814463114,"lon": 13.939787845930171,"fundort": "Musterstadt","stadium": "Imago","anzahl": 1,"pruefung": "Insekten Sachsen"},{"art": {"ordnung": "Schmetterlinge","familie": "Eulenfalter","nameDeutsch": "Ausrufungszeichen","name": "Agrotis exclamationis"},"datum": "2011-04-24","beobachter": "Max Mustermann","lat": 51.167526258391064,"lon": 14.017401971653069,"fundort": "Musterstadt","stadium": "Imago","anzahl": 1,"pruefung": "Insekten Sachsen"},{"art": {"ordnung": "Käfer","familie": "Marienkäfer","nameDeutsch": "Sechzehnpunkt-Marienkäfer","name": "Tytthaspis sedecimpunctata"},"datum": "2012-06-16","beobachter": "Maria Muster","lat": 51.212897441285854,"lon": 13.935350300012548,"fundort": "Musterstadt","stadium": "Imago","anzahl": 1,"pruefung": "Insekten Sachsen"},{"art": {"ordnung": "Schnabelkerfen","familie": "Weichwanzen","nameDeutsch": "Leptopterna dolabrata","name": "Leptopterna dolabrata"},"datum": "2015-01-21","beobachter": "Max Mustermann","lat": 51.17890514254514,"lon": 13.991496613828899,"fundort": "Musterstadt","stadium": "Imago","anzahl": 1,"pruefung": "Insekten Sachsen"},{"art": {"ordnung": "Libellen","familie": "Flussjungfern","nameDeutsch": "Gemeine Keiljungfer","name": "Gomphus vulgatissimus"},"datum": "2019-06-29","beobachter": "Max Mustermann","lat": 51.170107536975244,"lon": 13.959041641310353,"fundort": "Musterstadt","stadium": "Imago","anzahl": 1,"pruefung": "Insekten Sachsen"},{"art": {"ordnung": "Schmetterlinge","familie": "Crambidae","nameDeutsch": "Buchsbaumzünsler","name": "Cydalima perspectalis"},"datum": "2019-10-02","beobachter": "Maria Muster","lat": 51.1845809947417,"lon": 13.93909986654883,"fundort": "Musterstadt","stadium": "Imago","anzahl": 1,"pruefung": "Insekten Sachsen"},{"art": {"ordnung": "Schmetterlinge","familie": "Edelfalter","nameDeutsch": "Distelfalter","name": "Vanessa cardui"},"datum": "2012-10-31","beobachter": "Maria Muster","lat": 51.16974779900502,"lon": 13.982498659048506,"fundort": "Musterstadt","stadium": "Imago","anzahl": 1,"pruefung": "Insekten Sachsen"},{"art": {"ordnung": "Schmetterlinge","familie": "Spanner","nameDeutsch": "Heu-Zwergspanner","name": "Idaea inquinata"},"datum": "2017-02-04","beobachter": "Max Mustermann","lat": 51.16350266613146,"lon": 13.97736843330165,"fundort": "Musterstadt","stadium": "Imago","anzahl": 1,"pruefung": "Insekten Sachsen"},{"art": {"ordnung": "Schmetterlinge","familie": "Spanner","nameDeutsch": "Grauer Zwergspanner","name": "Idaea seriata"},"datum": "2016-02-06","beobachter": "Max Mustermann","lat": 51.1795227111356,"lon": 13.990658137209318,"fundort": "Musterstadt","stadium": "Imago","anzahl": 1,"pruefung": "Insekten Sachsen"},{"art": {"ordnung": "Schmetterlinge","familie": "Crambidae","nameDeutsch": "Scoparia pyralella","name": "Scoparia pyralella"},"datum": "2014-06-07","beobachter": "Maria Muster","lat": 51.19204681379135,"lon": 13.961034532287728,"fundort": "Musterstadt","stadium": "Imago","anzahl": 1,"pruefung": "Insekten Sachsen"},{"art": {"ordnung": "Zweiflügler","familie": "Schwebfliegen","nameDeutsch": "Glänzende Faulschlammschwebfliege","name": "Eristalinus aeneus"},"datum": "2012-10-21","beobachter": "Maria Muster","lat": 51.19785135390617,"lon": 13.957769183290514,"fundort": "Musterstadt","stadium": "Imago","anzahl": 1,"pruefung": "Insekten Sachsen"},{"art": {"ordnung": "Schnabelkerfen","familie": "Randwanzen","nameDeutsch": "Braune Randwanze","name": "Gonocerus acuteangulatus"},"datum": "2014-11-01","beobachter": "Maria Muster","lat": 51.1853596599059,"lon": 13.95817329961993,"fundort": "Musterstadt","stadium": "Imago","anzahl": 1,"pruefung": "Insekten Sachsen"},{"art": {"ordnung": "Heuschrecken","familie": "Tettigoniidae","nameDeutsch": "Grünes Heupferd","name": "Tettigonia viridissima"},"datum": "2012-01-23","beobachter": "Max Mustermann","lat": 51.18566970704705,"lon": 13.979723663649795,"fundort": "Musterstadt","stadium": "Imago","anzahl": 1,"pruefung": "Insekten Sachsen"},{"art": {"ordnung": "Schmetterlinge","familie": "Spanner","nameDeutsch": "Breitgebänderter Staudenspanner","name": "Idaea aversata"},"datum": "2018-05-23","beobachter": "Maria Muster","lat": 51.18852756177995,"lon": 13.953364513607438,"fundort": "Musterstadt","stadium": "Imago","anzahl": 1,"pruefung": "Insekten Sachsen"},{"art": {"ordnung": "Käfer","familie": "Leuchtkäfer","nameDeutsch": "Glühwürmchen","name": "Lamprohiza splendidula"},"datum": "2015-10-05","beobachter": "Maria Muster","lat": 51.20337387208706,"lon": 13.94955188312704,"fundort": "Musterstadt","stadium": "Imago","anzahl": 3,"pruefung": "Insekten Sachsen"},{"art": {"ordnung": "Zweiflügler","familie": "Schwebfliegen","nameDeutsch": "Späte Großstirnschwebfliege","name": "Scaeva pyrastri"},"datum": "2018-08-02","beobachter": "Maria Muster","lat": 51.201251006560526,"lon": 13.924187661020218,"fundort": "Musterstadt","stadium": "Imago","anzahl": 1,"pruefung": "Insekten Sachsen"},{"art": {"ordnung": "Käfer","familie": "Marienkäfer","nameDeutsch": "Zehnpunkt-Marienkäfer","name": "Adalia decempunctata"},"datum": "2020-02-17","beobachter": "Max Mustermann","lat": 51.16384266174409,"lon": 14.015085425018295,"fundort": "Musterstadt","stadium": "Imago","anzahl": 1,"pruefung": "Insekten Sachsen"},{"art": {"ordnung": "Schmetterlinge","familie": "Eulenfalter","nameDeutsch": "Wurzelfresser","name": "Apamea monoglypha"},"datum": "2017-06-05","beobachter": "Maria Muster","lat": 51.19769092000895,"lon": 13.93644999327853,"fundort": "Musterstadt","stadium": "Imago","anzahl": 1,"pruefung": "Insekten Sachsen"},{"art": {"ordnung": "Käfer","familie": "Blatthornkäfer","nameDeutsch": "Junikäfer","name": "Amphimallon solstitiale"},"datum": "2019-08-20","beobachter": "Max Mustermann","lat": 51.163454535956205,"lon": 13.9904767064568,"fundort": "Musterstadt","stadium": "Imago","anzahl": 11,"pruefung": "Insekten Sachsen"},{"art": {"ordnung": "Libellen","familie": "Schlanklibellen","nameDeutsch": "Große Pechlibelle","name": "Ischnura elegans"},"datum": "2020-06-26","beobachter": "Maria Muster","lat": 51.19515440639846,"lon": 13.981465886614512,"fundort": "Musterstadt","stadium": "Imago","anzahl": 1,"pruefung": "Insekten Sachsen"},{"art": {"ordnung": "Schmetterlinge","familie": "Schwärmer","nameDeutsch": "Mittlerer Weinschwärmer","name": "Deilephila elpenor"},"datum": "2018-05-08","beobachter": "Maria Muster","lat": 51.25424025741702,"lon": 13.952444749160996,"fundort": "Musterstadt","stadium": "Imago","anzahl": 1,"pruefung": "Insekten Sachsen"},{"art": {"ordnung": "Schnabelkerfen","familie": "Zwergzikaden","nameDeutsch": "Rhododendronzikade","name": "Graphocephala fennahi"},"datum": "2021-01-04","beobachter": "Maria Muster","lat": 51.17768772484952,"lon": 13.974100630686989,"fundort": "Musterstadt","stadium": "Imago","anzahl": 6,"pruefung": "Insekten Sachsen"},{"art": {"ordnung": "Schmetterlinge","familie": "Eulenfalter","nameDeutsch": "Schwammspinner","name": "Lymantria dispar"},"datum": "2018-08-09","beobachter": "Max Mustermann","lat": 51.18645686628344,"lon": 13.975474567767625,"fundort": "Musterstadt","stadium": "Larve","anzahl": 2,"pruefung": "Insekten Sachsen"},{"art": {"ordnung": "Zweiflügler","familie": "Schwebfliegen","nameDeutsch": "Helle Sumpfschwebfliege","name": "Helophilus hybridus"},"datum": "2012-03-29","beobachter": "Max Mustermann","lat": 51.184036186907825,"lon": 13.979986064587552,"fundort": "Musterstadt","stadium": "Imago","anzahl": 1,"pruefung": "Insekten Sachsen"},{"art": {"ordnung": "Schmetterlinge","familie": "Schleier- und Halbmotten","nameDeutsch": "Kohlmotte","name": "Plutella xylostella"},"datum": "2019-12-01","beobachter": "Maria Muster","lat": 51.199624903187484,"lon": 13.934730911297901,"fundort": "Musterstadt","stadium": "Imago","anzahl": 1,"pruefung": "Insekten Sachsen"},{"art": {"ordnung": "Libellen","familie": "Prachtlibellen","nameDeutsch": "Gebänderte Prachtlibelle","name": "Calopteryx splendens"},"datum": "2018-11-14","beobachter": "Max Mustermann","lat": 51.16150219580163,"lon": 14.01337224938884,"fundort": "Musterstadt","stadium": "Imago","anzahl": 1,"pruefung": "Insekten Sachsen"},{"art": {"ordnung": "Schmetterlinge","familie": "Weißlinge","nameDeutsch": "Kleiner Kohlweißling","name": "Pieris rapae"},"datum": "2016-07-14","beobachter": "Max Mustermann","lat": 51.17406492141223,"lon": 13.957602143082669,"fundort": "Musterstadt","stadium": "Larve","anzahl": 1,"pruefung": "Insekten Sachsen"},{"art": {"ordnung": "Schmetterlinge","familie": "Weißlinge","nameDeutsch": "Zitronenfalter","name": "Gonepteryx rhamni"},"datum": "2011-11-12","beobachter": "Max Mustermann","lat": 51.15575143829037,"lon": 14.01031947721982,"fundort": "Musterstadt","stadium": "Imago","anzahl": 2,"pruefung": "Insekten Sachsen"},{"art": {"ordnung": "Schmetterlinge","familie": "Edelfalter","nameDeutsch": "Distelfalter","name": "Vanessa cardui"},"datum": "2018-12-17","beobachter": "Max Mustermann","lat": 51.15693220027786,"lon": 14.005813905520656,"fundort": "Musterstadt","stadium": "Imago","anzahl": 1,"pruefung": "Insekten Sachsen"},{"art": {"ordnung": "Schmetterlinge","familie": "Dickkopffalter","nameDeutsch": "Schwarzkolbiger Braundickkopf","name": "Thymelicus lineola"},"datum": "2011-04-27","beobachter": "Maria Muster","lat": 51.197159198633265,"lon": 13.946104770348382,"fundort": "Musterstadt","stadium": "Imago","anzahl": 1,"pruefung": "Insekten Sachsen"},{"art": {"ordnung": "Schnabelkerfen","familie": "Baumwanzen","nameDeutsch": "Beerenwanze","name": "Dolycoris baccarum"},"datum": "2014-06-09","beobachter": "Max Mustermann","lat": 51.1547701921649,"lon": 13.99748920104018,"fundort": "Musterstadt","stadium": "Imago","anzahl": 2,"pruefung": "Insekten Sachsen"},{"art": {"ordnung": "Käfer","familie": "Schnellkäfer","nameDeutsch": "Mausgrauer Schnellkäfer","name": "Agrypnus murinus"},"datum": "2013-11-12","beobachter": "Maria Muster","lat": 51.19046539502893,"lon": 13.916647677063533,"fundort": "Musterstadt","stadium": "Imago","anzahl": 1,"pruefung": "Insekten Sachsen"},{"art": {"ordnung": "Käfer","familie": "Marienkäfer","nameDeutsch": "Asiatischer Marienkäfer","name": "Harmonia axyridis"},"datum": "2019-12-06","beobachter": "Max Mustermann","lat": 51.17576163762491,"lon": 13.96063035757099,"fundort": "Musterstadt","stadium": "Imago","anzahl": 6,"pruefung": "Insekten Sachsen"},{"art": {"ordnung": "Schmetterlinge","familie": "Weißlinge","nameDeutsch": "Resedafalter","name": "Pontia edusa"},"datum": "2015-06-30","beobachter": "Max Mustermann","lat": 51.1591670502338,"lon": 13.962106894598552,"fundort": "Musterstadt","stadium": "Imago","anzahl": 2,"pruefung": "Insekten Sachsen"},{"art": {"ordnung": "Schmetterlinge","familie": "Spanner","nameDeutsch": "Rauten-Rindenspanner","name": "Peribatodes rhomboidaria"},"datum": "2015-11-27","beobachter": "Max Mustermann","lat": 51.17363334306317,"lon": 13.962477467186567,"fundort": "Musterstadt","stadium": "Imago","anzahl": 1,"pruefung": "Insekten Sachsen"},{"art": {"ordnung": "Käfer","familie": "Bockkäfer","nameDeutsch": "Vierbindiger Schmalbock","name": "Leptura quadrifasciata"},"datum": "2014-07-01","beobachter": "Max Mustermann","lat": 51.17641688403838,"lon": 13.979455611563683,"fundort": "Musterstadt","stadium": "Imago","anzahl": 1,"pruefung": "Insekten Sachsen"},{"art": {"ordnung": "Schnabelkerfen","familie": "Weichwanzen","nameDeutsch": "Rote Weichwanze","name": "Deraeocoris ruber"},"datum": "2016-05-03","beobachter": "Maria Muster","lat": 51.199306821304496,"lon": 13.949234722976813,"fundort": "Musterstadt","stadium": "Imago","anzahl": 1,"pruefung": "Insekten Sachsen"},{"art": {"ordnung": "Schmetterlinge","familie": "Eulenfalter","nameDeutsch": "Gammaeule","name": "Autographa gamma"},"datum": "2019-04-19","beobachter": "Max Mustermann","lat": 51.17090223311218,"lon": 13.957375009970152,"fundort": "Musterstadt","stadium": "Imago","anzahl": 1,"pruefung": "Insekten Sachsen"},{"art": {"ordnung": "Schnabelkerfen","familie": "Baumwanzen","nameDeutsch": "Beerenwanze","name": "Dolycoris baccarum"},"datum": "2011-10-22","beobachter": "Maria Muster","lat": 51.07618481919804,"lon": 13.699949174890747,"fundort": "Musterstadt","stadium": "Imago","anzahl": 1,"pruefung": "Insekten Sachsen"},{"art": {"ordnung": "Schmetterlinge","familie": "Edelfalter","nameDeutsch": "Großes Ochsenauge","name": "Maniola jurtina"},"datum": "2015-01-02","beobachter": "Maria Muster","lat": 51.14255995048879,"lon": 13.717695284121312,"fundort": "Musterstadt","stadium": "Imago","anzahl": 1,"pruefung": "Insekten Sachsen"},{"art": {"ordnung": "Schmetterlinge","familie": "Edelfalter","nameDeutsch": "Großes Ochsenauge","name": "Maniola jurtina"},"datum": "2012-10-23","beobachter": "Maria Muster","lat": 51.14171080470535,"lon": 13.800200080392438,"fundort": "Musterstadt","stadium": "Imago","anzahl": 1,"pruefung": "Insekten Sachsen"},{"art": {"ordnung": "Schmetterlinge","familie": "Edelfalter","nameDeutsch": "Kleines Wiesenvögelchen","name": "Coenonympha pamphilus"},"datum": "2014-09-29","beobachter": "Maria Muster","lat": 51.13691684647583,"lon": 13.798861479111931,"fundort": "Musterstadt","stadium": "Imago","anzahl": 1,"pruefung": "Insekten Sachsen"},{"art": {"ordnung": "Schmetterlinge","familie": "Weißlinge","nameDeutsch": "Zitronenfalter","name": "Gonepteryx rhamni"},"datum": "2012-01-15","beobachter": "Maria Muster","lat": 51.10683815641933,"lon": 13.844401986626174,"fundort": "Musterstadt","stadium": "Imago","anzahl": 1,"pruefung": "Insekten Sachsen"},{"art": {"ordnung": "Käfer","familie": "Marienkäfer","nameDeutsch": "Schachbrett-Marienkäfer","name": "Propylea quatuordecimpunctata"},"datum": "2018-05-03","beobachter": "Max Mustermann","lat": 51.14927373233901,"lon": 13.978539603892568,"fundort": "Musterstadt","stadium": "Imago","anzahl": 1,"pruefung": "Insekten Sachsen"},{"art": {"ordnung": "Libellen","familie": "Segellibellen","nameDeutsch": "Blutrote Heidelibelle","name": "Sympetrum sanguineum"},"datum": "2015-05-30","beobachter": "Maria Muster","lat": 51.13111858615391,"lon": 13.799510524897343,"fundort": "Musterstadt","stadium": "Imago","anzahl": 1,"pruefung": "Insekten Sachsen"},{"art": {"ordnung": "Zweiflügler","familie": "Wollschweber","nameDeutsch": "Hottentottenfliege","name": "Villa hottentotta"},"datum": "2020-01-26","beobachter": "Max Mustermann","lat": 51.121344233319476,"lon": 13.823536036312662,"fundort": "Musterstadt","stadium": "Imago","anzahl": 1,"pruefung": "iNaturalist"},{"art": {"ordnung": "Schmetterlinge","familie": "Schwärmer","nameDeutsch": "Taubenschwänzchen","name": "Macroglossum stellatarum"},"datum": "2015-06-17","beobachter": "Max Mustermann","lat": 51.171045757206485,"lon": 13.969887058853493,"fundort": "Musterstadt","stadium": "Imago","anzahl": 1,"pruefung": "Insekten Sachsen"},{"art": {"ordnung": "Heuschrecken","familie": "Feldheuschrecken","nameDeutsch": "Sumpfschrecke","name": "Stethophyma grossum"},"datum": "2014-09-06","beobachter": "Max Mustermann","lat": 51.18357732095744,"lon": 13.957735416592927,"fundort": "Musterstadt","stadium": "Imago","anzahl": 1,"pruefung": "Insekten Sachsen"},{"art": {"ordnung": "Schmetterlinge","familie": "Weißlinge","nameDeutsch": "Kleiner Kohlweißling","name": "Pieris rapae"},"datum": "2017-04-13","beobachter": "Max Mustermann","lat": 51.14220272869131,"lon": 13.743233907392879,"fundort": "Musterstadt","stadium": "Imago","anzahl": 1,"pruefung": "iNaturalist"},{"art": {"ordnung": "Schnabelkerfen","familie": "Zwergzikaden","nameDeutsch": "Rhododendronzikade","name": "Graphocephala fennahi"},"datum": "2020-11-10","beobachter": "Max Mustermann","lat": 51.04414067180835,"lon": 13.750769999010423,"fundort": "Musterstadt","stadium": "Imago","anzahl": 6,"pruefung": "Insekten Sachsen"},{"art": {"ordnung": "Libellen","familie": "Segellibellen","nameDeutsch": "Blutrote Heidelibelle","name": "Sympetrum sanguineum"},"datum": "2013-10-12","beobachter": "Maria Muster","lat": 51.15461301431931,"lon": 13.723272845096261,"fundort": "Musterstadt","stadium": "Imago","anzahl": 1,"pruefung": "Insekten Sachsen"},{"art": {"ordnung": "Schmetterlinge","familie": "Edelfalter","nameDeutsch": "Großes Ochsenauge","name": "Maniola jurtina"},"datum": "2013-05-24","beobachter": "Max Mustermann","lat": 51.14869170747945,"lon": 13.732785232746753,"fundort": "Musterstadt","stadium": "Imago","anzahl": 1,"pruefung": "Insekten Sachsen"},{"art": {"ordnung": "Schmetterlinge","familie": "Weißlinge","nameDeutsch": "Grünaderweißling","name": "Pieris napi"},"datum": "2012-03-05","beobachter": "Maria Muster","lat": 51.18204102596312,"lon": 13.660428265737734,"fundort": "Musterstadt","stadium": "Imago","anzahl": 1,"pruefung": "Insekten Sachsen"},{"art": {"ordnung": "Libellen","familie": "Schlanklibellen","nameDeutsch": "Große Pechlibelle","name": "Ischnura elegans"},"datum": "2015-08-08","beobachter": "Max Mustermann","lat": 51.138398338896096,"lon": 13.735021475743183,"fundort": "Musterstadt","stadium": "Imago","anzahl": 1,"pruefung": "Insekten Sachsen"},{"art": {"ordnung": "Schmetterlinge","familie": "Ritterfalter","nameDeutsch": "Schwalbenschwanz","name": "Papilio machaon"},"datum": "2016-09-01","beobachter": "Max Mustermann","lat": 51.20490092772233,"lon": 13.774617169951451,"fundort": "Musterstadt","stadium": "Imago","anzahl": 1,"pruefung": "Insekten Sachsen"},{"art": {"ordnung": "Schmetterlinge","familie": "Schwärmer","nameDeutsch": "Hummelschwärmer","name": "Hemaris fuciformis"},"datum": "2011-08-30","beobachter": "Maria Muster","lat": 51.10003637278011,"lon": 13.674132066576028,"fundort": "Musterstadt","stadium": "Imago","anzahl": 1,"pruefung": "Insekten Sachsen"},{"art": {"ordnung": "Schmetterlinge","familie": "Schwärmer","nameDeutsch": "Taubenschwänzchen","name": "Macroglossum stellatarum"},"datum": "2020-03-31","beobachter": "Maria Muster","lat": 51.09090653392577,"lon": 13.710544546183225,"fundort": "Musterstadt","stadium": "Imago","anzahl": 1,"pruefung": "Insekten Sachsen"},{"art": {"ordnung": "Schmetterlinge","familie": "Dickkopffalter","nameDeutsch": "Schwarzkolbiger Braundickkopf","name": "Thymelicus lineola"},"datum": "2014-07-01","beobachter": "Maria Muster","lat": 50.75412276324697,"lon": 13.639652244760166,"fundort": "Musterstadt","stadium": "Imago","anzahl": 1,"pruefung": "Insekten Sachsen"},{"art": {"ordnung": "Käfer","familie": "Weichkäfer","nameDeutsch": "Roter Weichkäfer","name": "Rhagonycha fulva"},"datum": "2020-10-27","beobachter": "Max Mustermann","lat": 50.739567854561095,"lon": 13.667576600865935,"fundort": "Musterstadt","stadium": "Imago","anzahl": 1,"pruefung": "Insekten Sachsen"},{"art": {"ordnung": "Käfer","familie": "Marienkäfer","nameDeutsch": "Siebenpunkt-Marienkäfer","name": "Coccinella septempunctata"},"datum": "2014-04-10","beobachter": "Max Mustermann","lat": 50.74130593786726,"lon": 13.645701153238786,"fundort": "Musterstadt","stadium": "Imago","anzahl": 1,"pruefung": "Insekten Sachsen"},{"art": {"ordnung": "Schmetterlinge","familie": "Edelfalter","nameDeutsch": "Schornsteinfeger","name": "Aphantopus hyperantus"},"datum": "2012-05-29","beobachter": "Max Mustermann","lat": 50.72407187542337,"lon": 13.699926102563971,"fundort": "Musterstadt","stadium": "Imago","anzahl": 1,"pruefung": "Insekten Sachsen"},{"art": {"ordnung": "Käfer","familie": "Bockkäfer","nameDeutsch": "Roter Halsbock","name": "Stictoleptura rubra"},"datum": "2017-05-11","beobachter": "Max Mustermann","lat": 51.17710012527959,"lon": 14.037029624430284,"fundort": "Musterstadt","stadium": "Imago","anzahl": 1,"pruefung": "Insekten Sachsen"},{"art": {"ordnung": "Käfer","familie": "Weichkäfer","nameDeutsch": "Roter Weichkäfer","name": "Rhagonycha fulva"},"datum": "2020-05-12","beobachter": "Maria Muster","lat": 51.19973604623859,"lon": 13.991699566753375,"fundort": "Musterstadt","stadium": "Imago","anzahl": 11,"pruefung": "Insekten Sachsen"},{"art": {"ordnung": "Schmetterlinge","familie": "Edelfalter","nameDeutsch": "Distelfalter","name": "Vanessa cardui"},"datum": "2012-09-10","beobachter": "Maria Muster","lat": 51.18660177542964,"lon": 14.01877462745102,"fundort": "Musterstadt","stadium": "Imago","anzahl": 2,"pruefung": "Insekten Sachsen"},{"art": {"ordnung": "Schmetterlinge","familie": "Edelfalter","nameDeutsch": "Schornsteinfeger","name": "Aphantopus hyperantus"},"datum": "2019-09-19","beobachter": "Max Mustermann","lat": 51.15444747491261,"lon": 14.035337833864189,"fundort": "Musterstadt","stadium": "Imago","anzahl": 1,"pruefung": "Insekten Sachsen"},{"art": {"ordnung": "Käfer","familie": "Blatthornkäfer","nameDeutsch": "Glattschieniger Pinselkäfer","name": "Trichius gallicus"},"datum": "2016-03-05","beobachter": "Maria Muster","lat": 51.19694925140585,"lon": 13.978695119662131,"fundort": "Musterstadt","stadium": "Imago","anzahl": 1,"pruefung": "Insekten Sachsen"},{"art": {"ordnung": "Schmetterlinge","familie": "Wickler","nameDeutsch": "Apfelwickler","name": "Cydia pomonella"},"datum": "2018-10-05","beobachter": "Maria Muster","lat": 51.1912657354288,"lon": 13.94740701788095,"fundort": "Musterstadt","stadium": "Imago","anzahl": 6,"pruefung": "Insekten Sachsen"},{"art": {"ordnung": "Schmetterlinge","familie": "Zünsler","nameDeutsch": "Geflammter Kleinzünsler","name": "Endotricha flammealis"},"datum": "2016-04-04","beobachter": "Max Mustermann","lat": 51.18725149328903,"lon": 13.975714410132838,"fundort": "Musterstadt","stadium": "Imago","anzahl": 1,"pruefung": "Insekten Sachsen"},{"art": {"ordnung": "Schmetterlinge","familie": "Bläulinge","nameDeutsch": "Gemeiner Bläuling","name": "Polyommatus icarus"},"datum": "2013-05-17","beobachter": "Maria Muster","lat": 47.44002299636732,"lon": 19.198574376392845,"fundort": "Musterstadt","stadium": "Imago","anzahl": 1,"pruefung": "iNaturalist"},{"art": {"ordnung": "Schmetterlinge","familie": "Edelfalter","nameDeutsch": "Tagpfauenauge","name": "Aglais io"},"datum": "2020-01-16","beobachter": "Max Mustermann","lat": 51.176750948051904,"lon": 13.982664072428399,"fundort": "Musterstadt","stadium": "Imago","anzahl": 1,"pruefung": "Insekten Sachsen"},{"art": {"ordnung": "Schmetterlinge","familie": "Edelfalter","nameDeutsch": "Kleiner Fuchs","name": "Aglais urticae"},"datum": "2016-04-29","beobachter": "Max Mustermann","lat": 51.158651440439534,"lon": 13.997897883782148,"fundort": "Musterstadt","stadium": "Imago","anzahl": 1,"pruefung": "Insekten Sachsen"},{"art": {"ordnung": "Schmetterlinge","familie": "Eulenfalter","nameDeutsch": "Hausmutter","name": "Noctua pronuba"},"datum": "2011-01-09","beobachter": "Max Mustermann","lat": 51.17837654155771,"lon": 13.97993654667788,"fundort": "Musterstadt","stadium": "Imago","anzahl": 1,"pruefung": "Insekten Sachsen"},{"art": {"ordnung": "Schmetterlinge","familie": "Ritterfalter","nameDeutsch": "Segelfalter","name": "Iphiclides podalirius"},"datum": "2018-01-14","beobachter": "Maria Muster","lat": 51.19435677730135,"lon": 13.94080076985304,"fundort": "Musterstadt","stadium": "Imago","anzahl": 1,"pruefung": "Insekten Sachsen"},{"art": {"ordnung": "Schmetterlinge","familie": "Weißlinge","nameDeutsch": "Zitronenfalter","name": "Gonepteryx rhamni"},"datum": "2015-01-09","beobachter": "Max Mustermann","lat": 51.18128550924947,"lon": 13.983711866559869,"fundort": "Musterstadt","stadium": "Imago","anzahl": 1,"pruefung": "iNaturalist"},{"art": {"ordnung": "Schnabelkerfen","familie": "Schildwanzen","nameDeutsch": "Gemeine Getreidewanze","name": "Eurygaster maura"},"datum": "2014-02-05","beobachter": "Max Mustermann","lat": 51.19184030679401,"lon": 13.975980451529825,"fundort": "Musterstadt","stadium": "Imago","anzahl": 1,"pruefung": "Insekten Sachsen"},{"art": {"ordnung": "Hautflügler","familie": "Echte Bienen","nameDeutsch": "Große Holzbiene","name": "Xylocopa violacea"},"datum": "2018-07-04","beobachter": "Maria Muster","lat": 51.107274831995056,"lon": 13.663393096711069,"fundort": "Musterstadt","stadium": "Imago","anzahl": 1,"pruefung": "Insekten Sachsen"},{"art": {"ordnung": "Schmetterlinge","familie": "Edelfalter","nameDeutsch": "Großes Ochsenauge","name": "Maniola jurtina"},"datum": "2017-07-20","beobachter": "Maria Muster","lat": 51.09724991616868,"lon": 13.656766664946227,"fundort": "Musterstadt","stadium": "Imago","anzahl": 1,"pruefung": "Insekten Sachsen"},{"art": {"ordnung": "Schmetterlinge","familie": "Ritterfalter","nameDeutsch": "Schwalbenschwanz","name": "Papilio machaon"},"datum": "2020-11-05","beobachter": "Max Mustermann","lat": 51.14851180695161,"lon": 13.994041130305185,"fundort": "Musterstadt","stadium": "Imago","anzahl": 1,"pruefung": "Insekten Sachsen"},{"art": {"ordnung": "Schmetterlinge","familie": "Edelfalter","nameDeutsch": "Kleiner Fuchs","name": "Aglais urticae"},"datum": "2013-01-22","beobachter": "Maria Muster","lat": 51.1669071631416,"lon": 13.976375904734537,"fundort": "Musterstadt","stadium": "Imago","anzahl": 1,"pruefung": "Insekten Sachsen"},{"art": {"ordnung": "Schmetterlinge","familie": "Eulenfalter","nameDeutsch": "Gammaeule","name": "Autographa gamma"},"datum": "2018-07-02","beobachter": "Max Mustermann","lat": 51.151516092328805,"lon": 13.985911651279896,"fundort": "Musterstadt","stadium": "Imago","anzahl": 3,"pruefung": "Insekten Sachsen"},{"art": {"ordnung": "Libellen","familie": "Prachtlibellen","nameDeutsch": "Blauflügel-Prachtlibelle","name": "Calopteryx virgo"},"datum": "2017-10-24","beobachter": "Max Mustermann","lat": 51.193250828873005,"lon": 13.932021275306854,"fundort": "Musterstadt","stadium": "Imago","anzahl": 1,"pruefung": "Insekten Sachsen"},{"art": {"ordnung": "Schmetterlinge","familie": "Bläulinge","nameDeutsch": "Faulbaumbläuling","name": "Celastrina argiolus"},"datum": "2011-05-12","beobachter": "Max Mustermann","lat": 51.18366586281781,"lon": 13.928075717708298,"fundort": "Musterstadt","stadium": "Imago","anzahl": 1,"pruefung": "Insekten Sachsen"},{"art": {"ordnung": "Schmetterlinge","familie": "Edelfalter","nameDeutsch": "Waldbrettspiel","name": "Pararge aegeria"},"datum": "2011-05-19","beobachter": "Max Mustermann","lat": 51.181064193670984,"lon": 13.951298271235252,"fundort": "Musterstadt","stadium": "Imago","anzahl": 1,"pruefung": "Insekten Sachsen"},{"art": {"ordnung": "Schmetterlinge","familie": "Bläulinge","nameDeutsch": "Kleiner Feuerfalter","name": "Lycaena phlaeas"},"datum": "2013-06-22","beobachter": "Maria Muster","lat": 51.18692126487143,"lon": 13.938768512246595,"fundort": "Musterstadt","stadium": "Imago","anzahl": 1,"pruefung": "Insekten Sachsen"},{"art": {"ordnung": "Zweiflügler","familie": "Schwebfliegen","nameDeutsch": "Gemeine Waldschwebfliege","name": "Volucella pellucens"},"datum": "2016-12-18","beobachter": "Max Mustermann","lat": 51.16853044986978,"lon": 13.960180561599428,"fundort": "Musterstadt","stadium": "Imago","anzahl": 1,"pruefung": "Insekten Sachsen"},{"art": {"ordnung": "Zweiflügler","familie": "Schwebfliegen","nameDeutsch": "Hornissenschwebfliege","name": "Volucella zonaria"},"datum": "2015-02-04","beobachter": "Maria Muster","lat": 51.20539338245032,"lon": 13.929848022842991,"fundort": "Musterstadt","stadium": "Imago","anzahl": 1,"pruefung": "Insekten Sachsen"},{"art": {"ordnung": "Libellen","familie": "Segellibellen","nameDeutsch": "Blutrote Heidelibelle","name": "Sympetrum sanguineum"},"datum": "2015-04-21","beobachter": "Max Mustermann","lat": 51.18318583473494,"lon": 13.916307482743065,"fundort": "Musterstadt","stadium": "Imago","anzahl": 3,"pruefung": "Insekten Sachsen"},{"art": {"ordnung": "Schnabelkerfen","familie": "Randwanzen","nameDeutsch": "Wacholder-Randwanze","name": "Gonocerus juniperi"},"datum": "2017-05-07","beobachter": "Maria Muster","lat": 51.182699335407754,"lon": 13.928591236643216,"fundort": "Musterstadt","stadium": "Imago","anzahl": 3,"pruefung": "Insekten Sachsen"},{"art": {"ordnung": "Schnabelkerfen","familie": "Stachelwanzen","nameDeutsch": "Buntrock","name": "Cyphostethus tristriatus"},"datum": "2012-07-17","beobachter": "Max Mustermann","lat": 51.1761395730967,"lon": 13.98746427687511,"fundort": "Musterstadt","stadium": "Imago","anzahl": 2,"pruefung": "Insekten Sachsen"},{"art": {"ordnung": "Schmetterlinge","familie": "Edelfalter","nameDeutsch": "Admiral","name": "Vanessa atalanta"},"datum": "2019-02-01","beobachter": "Maria Muster","lat": 51.184693838327696,"lon": 13.980600615341785,"fundort": "Musterstadt","stadium": "Imago","anzahl": 1,"pruefung": "Insekten Sachsen"},{"art": {"ordnung": "Schnabelkerfen","familie": "Baumwanzen","nameDeutsch": "Grüne Stinkwanze","name": "Palomena prasina"},"datum": "2018-12-26","beobachter": "Maria Muster","lat": 51.178572527976414,"lon": 13.968267264814244,"fundort": "Musterstadt","stadium": "Imago","anzahl": 1,"pruefung": "Insekten Sachsen"},{"art": {"ordnung": "Schmetterlinge","familie": "Edelfalter","nameDeutsch": "Schornsteinfeger","name": "Aphantopus hyperantus"},"datum": "2020-12-10","beobachter": "Maria Muster","lat": 51.194341151574264,"lon": 13.940619188001047,"fundort": "Musterstadt","stadium": "Imago","anzahl": 1,"pruefung": "Insekten Sachsen"},{"art": {"ordnung": "Schmetterlinge","familie": "Edelfalter","nameDeutsch": "Großes Ochsenauge","name": "Maniola jurtina"},"datum": "2016-07-07","beobachter": "Max Mustermann","lat": 51.1746325042887,"lon": 13.919811231925628,"fundort": "Musterstadt","stadium": "Imago","anzahl": 1,"pruefung": "Insekten Sachsen"},{"art": {"ordnung": "Schmetterlinge","familie": "Bläulinge","nameDeutsch": "Kleiner Feuerfalter","name": "Lycaena phlaeas"},"datum": "2015-08-18","beobachter": "Max Mustermann","lat": 51.17880291140291,"lon": 13.924459354378357,"fundort": "Musterstadt","stadium": "Imago","anzahl": 1,"pruefung": "Insekten Sachsen"},{"art": {"ordnung": "Schmetterlinge","familie": "Edelfalter","nameDeutsch": "Kaisermantel","name": "Argynnis paphia"},"datum": "2017-06-04","beobachter": "Maria Muster","lat": 51.172812973749934,"lon": 13.934391497804645,"fundort": "Musterstadt","stadium": "Imago","anzahl": 1,"pruefung": "Insekten Sachsen"},{"art": {"ordnung": "Libellen","familie": "Segellibellen","nameDeutsch": "Großer Blaupfeil","name": "Orthetrum cancellatum"},"datum": "2020-10-08","beobachter": "Maria Muster","lat": 51.20130030886778,"lon": 13.927328470666373,"fundort": "Musterstadt","stadium": "Imago","anzahl": 1,"pruefung": "Insekten Sachsen"},{"art": {"ordnung": "Libellen","familie": "Edellibellen","nameDeutsch": "Blaugrüne Mosaikjungfer","name": "Aeshna cyanea"},"datum": "2018-01-03","beobachter": "Maria Muster","lat": 51.19211947991791,"lon": 13.934921716783366,"fundort": "Musterstadt","stadium": "Imago","anzahl": 1,"pruefung": "Insekten Sachsen"},{"art": {"ordnung": "Libellen","familie": "Prachtlibellen","nameDeutsch": "Blauflügel-Prachtlibelle","name": "Calopteryx virgo"},"datum": "2017-08-29","beobachter": "Max Mustermann","lat": 51.19664844773701,"lon": 13.949025218007307,"fundort": "Musterstadt","stadium": "Imago","anzahl": 1,"pruefung": "Insekten Sachsen"},{"art": {"ordnung": "Libellen","familie": "Schlanklibellen","nameDeutsch": "Große Pechlibelle","name": "Ischnura elegans"},"datum": "2014-12-22","beobachter": "Max Mustermann","lat": 51.18412711889921,"lon": 13.919645865493628,"fundort": "Musterstadt","stadium": "Imago","anzahl": 1,"pruefung": "Insekten Sachsen"},{"art": {"ordnung": "Käfer","familie": "Mistkäfer","nameDeutsch": "Waldmistkäfer","name": "Anoplotrupes stercorosus"},"datum": "2019-06-24","beobachter": "Maria Muster","lat": 51.209960608435864,"lon": 13.916157213218533,"fundort": "Musterstadt","stadium": "Imago","anzahl": 1,"pruefung": "Insekten Sachsen"},{"art": {"ordnung": "Käfer","familie": "Weichkäfer","nameDeutsch": "Roter Weichkäfer","name": "Rhagonycha fulva"},"datum": "2018-06-19","beobachter": "Maria Muster","lat": 51.2167099620132,"lon": 13.903001970218426,"fundort": "Musterstadt","stadium": "Imago","anzahl": 2,"pruefung": "Insekten Sachsen"},{"art": {"ordnung": "Zweiflügler","familie": "Schwebfliegen","nameDeutsch": "Gemeine Keilfleckschwebfliege","name": "Eristalis pertinax"},"datum": "2019-08-24","beobachter": "Max Mustermann","lat": 51.18853381340059,"lon": 13.941548027402659,"fundort": "Musterstadt","stadium": "Imago","anzahl": 1,"pruefung": "Insekten Sachsen"},{"art": {"ordnung": "Schnabelkerfen","familie": "Baumwanzen","nameDeutsch": "Nördliche Fruchtwanze","name": "Carpocoris fuscispinus"},"datum": "2018-04-29","beobachter": "Max Mustermann","lat": 51.162101239876,"lon": 13.940203070402541,"fundort": "Musterstadt","stadium": "Imago","anzahl": 1,"pruefung": "Insekten Sachsen"},{"art": {"ordnung": "Käfer","familie": "Blatthornkäfer","nameDeutsch": "Nashornkäfer","name": "Oryctes nasicornis"},"datum": "2018-09-08","beobachter": "Maria Muster","lat": 51.097439452498946,"lon": 13.672407102344069,"fundort": "Musterstadt","stadium": "Imago","anzahl": 1,"pruefung": "Insekten Sachsen"},